[
    {
        "name": "Abadikiri",
        "what": "city",
        "region": "Bayelsa",
        "country": "Nigeria",
        "lat": 4.39,
        "long": 5.86,
        "elev ft": 0,
        "pop est": 7656
    },
    {
        "name": "Abagbene",
        "what": "city",
        "region": "Bayelsa",
        "country": "Nigeria",
        "lat": 4.7,
        "long": 6.16,
        "elev ft": 396,
        "pop est": 18869
    },
    {
        "name": "Abalagiagbene",
        "what": "city",
        "region": "Bayelsa",
        "country": "Nigeria",
        "lat": 4.48,
        "long": 5.88,
        "elev ft": 830,
        "pop est": 15484
    },
    {
        "name": "Abaula",
        "what": "city",
        "region": "Bayelsa",
        "country": "Nigeria",
        "lat": 4.59,
        "long": 5.87,
        "elev ft": 314,
        "pop est": 15347
    },
    {
        "name": "Abedigene",
        "what": "city",
        "region": "Bayelsa",
        "country": "Nigeria",
        "lat": 4.48,
        "long": 6.15,
        "elev ft": 285,
        "pop est": 21903
    },
    {
        "name": "Abelebgbene",
        "what": "city",
        "region": "Bayelsa",
        "country": "Nigeria",
        "lat": 4.42,
        "long": 6.13,
        "elev ft": 213,
        "pop est": 21903
    },
    {
        "name": "Abilabio",
        "what": "city",
        "region": "Bayelsa",
        "country": "Nigeria",
        "lat": 4.73,
        "long": 6.27,
        "elev ft": 830,
        "pop est": 21903
    },
    {
        "name": "Abirigbene",
        "what": "city",
        "region": "Bayelsa",
        "country": "Nigeria",
        "lat": 4.92,
        "long": 5.55,
        "elev ft": 334,
        "pop est": 13410
    },
    {
        "name": "Abobiri",
        "what": "city",
        "region": "Bayelsa",
        "country": "Nigeria",
        "lat": 4.68,
        "long": 6.31,
        "elev ft": 830,
        "pop est": 21903
    },
    {
        "name": "Abogbene",
        "what": "city",
        "region": "Bayelsa",
        "country": "Nigeria",
        "lat": 4.94,
        "long": 5.6,
        "elev ft": 334,
        "pop est": 13410
    },
    {
        "name": "Abolikiri",
        "what": "city",
        "region": "Bayelsa",
        "country": "Nigeria",
        "lat": 4.49,
        "long": 6.34,
        "elev ft": 1253,
        "pop est": 21903
    },
    {
        "name": "Abrahamgbene",
        "what": "city",
        "region": "Bayelsa",
        "country": "Nigeria",
        "lat": 4.92,
        "long": 5.53,
        "elev ft": 347,
        "pop est": 13410
    },
    {
        "name": "Abulabiri",
        "what": "city",
        "region": "Bayelsa",
        "country": "Nigeria",
        "lat": 4.73,
        "long": 6.3,
        "elev ft": 830,
        "pop est": 21903
    },
    {
        "name": "Acragbene",
        "what": "city",
        "region": "Bayelsa",
        "country": "Nigeria",
        "lat": 4.99,
        "long": 5.67,
        "elev ft": 334,
        "pop est": 13344
    },
    {
        "name": "Adagbabri",
        "what": "city",
        "region": "Bayelsa",
        "country": "Nigeria",
        "lat": 5.2,
        "long": 6.21,
        "elev ft": 275,
        "pop est": 34396
    },
    {
        "name": "Adagbari",
        "what": "city",
        "region": "Bayelsa",
        "country": "Nigeria",
        "lat": 5.01,
        "long": 5.96,
        "elev ft": 830,
        "pop est": 16946
    },
    {
        "name": "Adamkiri",
        "what": "city",
        "region": "Bayelsa",
        "country": "Nigeria",
        "lat": 4.43,
        "long": 6.15,
        "elev ft": 282,
        "pop est": 21903
    },
    {
        "name": "Adolagbene",
        "what": "city",
        "region": "Bayelsa",
        "country": "Nigeria",
        "lat": 4.81,
        "long": 5.77,
        "elev ft": 830,
        "pop est": 14907
    },
    {
        "name": "Aduezi",
        "what": "city",
        "region": "Bayelsa",
        "country": "Nigeria",
        "lat": 5.16,
        "long": 6.2,
        "elev ft": 275,
        "pop est": 31971
    },
    {
        "name": "Adukiri",
        "what": "city",
        "region": "Bayelsa",
        "country": "Nigeria",
        "lat": 4.66,
        "long": 6.48,
        "elev ft": 311,
        "pop est": 19178
    },
    {
        "name": "Aduku",
        "what": "city",
        "region": "Bayelsa",
        "country": "Nigeria",
        "lat": 5.27,
        "long": 6.29,
        "elev ft": 278,
        "pop est": 17495
    },
    {
        "name": "Agada",
        "what": "city",
        "region": "Bayelsa",
        "country": "Nigeria",
        "lat": 4.6,
        "long": 6.49,
        "elev ft": 830,
        "pop est": 16763
    },
    {
        "name": "Agakabiriyai",
        "what": "city",
        "region": "Bayelsa",
        "country": "Nigeria",
        "lat": 4.55,
        "long": 6.36,
        "elev ft": 1669,
        "pop est": 21903
    },
    {
        "name": "Agakabiriyao",
        "what": "city",
        "region": "Bayelsa",
        "country": "Nigeria",
        "lat": 4.55,
        "long": 6.36,
        "elev ft": 1669,
        "pop est": 21903
    },
    {
        "name": "Aganatoku",
        "what": "city",
        "region": "Bayelsa",
        "country": "Nigeria",
        "lat": 4.45,
        "long": 6.28,
        "elev ft": 305,
        "pop est": 21903
    },
    {
        "name": "Agbalamabugokiri",
        "what": "city",
        "region": "Bayelsa",
        "country": "Nigeria",
        "lat": 4.42,
        "long": 6.44,
        "elev ft": 866,
        "pop est": 18382
    },
    {
        "name": "Agbaramu Camp",
        "what": "city",
        "region": "Bayelsa",
        "country": "Nigeria",
        "lat": 5.08,
        "long": 6.08,
        "elev ft": 324,
        "pop est": 22570
    },
    {
        "name": "Agbia",
        "what": "city",
        "region": "Bayelsa",
        "country": "Nigeria",
        "lat": 5.05,
        "long": 6.35,
        "elev ft": 354,
        "pop est": 25274
    },
    {
        "name": "Agbolugbene",
        "what": "city",
        "region": "Bayelsa",
        "country": "Nigeria",
        "lat": 4.91,
        "long": 5.9,
        "elev ft": 830,
        "pop est": 14115
    },
    {
        "name": "Agbukegbene",
        "what": "city",
        "region": "Bayelsa",
        "country": "Nigeria",
        "lat": 4.91,
        "long": 5.69,
        "elev ft": 830,
        "pop est": 13410
    },
    {
        "name": "Agbura",
        "what": "city",
        "region": "Bayelsa",
        "country": "Nigeria",
        "lat": 4.85,
        "long": 6.27,
        "elev ft": 308,
        "pop est": 22162
    },
    {
        "name": "Agengbene",
        "what": "city",
        "region": "Bayelsa",
        "country": "Nigeria",
        "lat": 4.53,
        "long": 5.8,
        "elev ft": 413,
        "pop est": 15334
    },
    {
        "name": "Agge",
        "what": "city",
        "region": "Bayelsa",
        "country": "Nigeria",
        "lat": 5.13,
        "long": 5.39,
        "elev ft": 3,
        "pop est": 9824
    },
    {
        "name": "Aggi",
        "what": "city",
        "region": "Bayelsa",
        "country": "Nigeria",
        "lat": 5.13,
        "long": 5.39,
        "elev ft": 3,
        "pop est": 9824
    },
    {
        "name": "Aghoro",
        "what": "city",
        "region": "Bayelsa",
        "country": "Nigeria",
        "lat": 5.12,
        "long": 5.44,
        "elev ft": 3,
        "pop est": 13265
    },
    {
        "name": "Aghoro I",
        "what": "city",
        "region": "Bayelsa",
        "country": "Nigeria",
        "lat": 5.12,
        "long": 5.44,
        "elev ft": 3,
        "pop est": 13265
    },
    {
        "name": "Aghoro II",
        "what": "city",
        "region": "Bayelsa",
        "country": "Nigeria",
        "lat": 5.13,
        "long": 5.44,
        "elev ft": 3,
        "pop est": 13257
    },
    {
        "name": "Agidigbene",
        "what": "city",
        "region": "Bayelsa",
        "country": "Nigeria",
        "lat": 4.78,
        "long": 6.13,
        "elev ft": 180,
        "pop est": 15993
    },
    {
        "name": "Agire Akoko-Gbene",
        "what": "city",
        "region": "Bayelsa",
        "country": "Nigeria",
        "lat": 5.04,
        "long": 6.03,
        "elev ft": 282,
        "pop est": 20509
    },
    {
        "name": "Agoligbene",
        "what": "city",
        "region": "Bayelsa",
        "country": "Nigeria",
        "lat": 4.86,
        "long": 6.03,
        "elev ft": 364,
        "pop est": 18020
    },
    {
        "name": "Agoro",
        "what": "city",
        "region": "Bayelsa",
        "country": "Nigeria",
        "lat": 5.06,
        "long": 6.12,
        "elev ft": 308,
        "pop est": 22005
    },
    {
        "name": "Agorogbene",
        "what": "city",
        "region": "Bayelsa",
        "country": "Nigeria",
        "lat": 5.02,
        "long": 6.15,
        "elev ft": 347,
        "pop est": 23859
    },
    {
        "name": "Agorogbene",
        "what": "city",
        "region": "Bayelsa",
        "country": "Nigeria",
        "lat": 5.03,
        "long": 6.13,
        "elev ft": 331,
        "pop est": 22411
    },
    {
        "name": "Agrisaba",
        "what": "city",
        "region": "Bayelsa",
        "country": "Nigeria",
        "lat": 4.59,
        "long": 6.42,
        "elev ft": 1669,
        "pop est": 21896
    },
    {
        "name": "Agu",
        "what": "city",
        "region": "Bayelsa",
        "country": "Nigeria",
        "lat": 4.82,
        "long": 6.16,
        "elev ft": 308,
        "pop est": 17056
    },
    {
        "name": "Agudama",
        "what": "city",
        "region": "Bayelsa",
        "country": "Nigeria",
        "lat": 4.65,
        "long": 6.22,
        "elev ft": 308,
        "pop est": 21830
    },
    {
        "name": "Agudama",
        "what": "city",
        "region": "Bayelsa",
        "country": "Nigeria",
        "lat": 5.0,
        "long": 6.26,
        "elev ft": 180,
        "pop est": 25277
    },
    {
        "name": "Aguobiri",
        "what": "city",
        "region": "Bayelsa",
        "country": "Nigeria",
        "lat": 4.82,
        "long": 6.16,
        "elev ft": 308,
        "pop est": 17056
    },
    {
        "name": "Aguru",
        "what": "city",
        "region": "Bayelsa",
        "country": "Nigeria",
        "lat": 5.06,
        "long": 6.12,
        "elev ft": 308,
        "pop est": 22005
    },
    {
        "name": "Ajafiton",
        "what": "city",
        "region": "Bayelsa",
        "country": "Nigeria",
        "lat": 4.87,
        "long": 5.82,
        "elev ft": 830,
        "pop est": 13984
    },
    {
        "name": "Ajagbene",
        "what": "city",
        "region": "Bayelsa",
        "country": "Nigeria",
        "lat": 4.86,
        "long": 5.88,
        "elev ft": 830,
        "pop est": 14676
    },
    {
        "name": "Ajamabri",
        "what": "city",
        "region": "Bayelsa",
        "country": "Nigeria",
        "lat": 5.06,
        "long": 5.41,
        "elev ft": 141,
        "pop est": 7916
    },
    {
        "name": "Ajamobri",
        "what": "city",
        "region": "Bayelsa",
        "country": "Nigeria",
        "lat": 5.06,
        "long": 5.41,
        "elev ft": 141,
        "pop est": 7916
    },
    {
        "name": "Ajatiton",
        "what": "city",
        "region": "Bayelsa",
        "country": "Nigeria",
        "lat": 4.87,
        "long": 5.82,
        "elev ft": 830,
        "pop est": 13984
    },
    {
        "name": "Ajatiton",
        "what": "city",
        "region": "Bayelsa",
        "country": "Nigeria",
        "lat": 4.87,
        "long": 5.72,
        "elev ft": 830,
        "pop est": 13630
    },
    {
        "name": "Akaba",
        "what": "city",
        "region": "Bayelsa",
        "country": "Nigeria",
        "lat": 4.91,
        "long": 6.26,
        "elev ft": 282,
        "pop est": 24209
    },
    {
        "name": "Akabaleu",
        "what": "city",
        "region": "Bayelsa",
        "country": "Nigeria",
        "lat": 4.33,
        "long": 6.4,
        "elev ft": 1669,
        "pop est": 14222
    },
    {
        "name": "Akabeleu",
        "what": "city",
        "region": "Bayelsa",
        "country": "Nigeria",
        "lat": 4.33,
        "long": 6.4,
        "elev ft": 1669,
        "pop est": 14222
    },
    {
        "name": "Akakumama",
        "what": "city",
        "region": "Bayelsa",
        "country": "Nigeria",
        "lat": 4.62,
        "long": 6.28,
        "elev ft": 354,
        "pop est": 21903
    },
    {
        "name": "Akalabaga",
        "what": "city",
        "region": "Bayelsa",
        "country": "Nigeria",
        "lat": 4.71,
        "long": 6.37,
        "elev ft": 895,
        "pop est": 21947
    },
    {
        "name": "Akalabagi",
        "what": "city",
        "region": "Bayelsa",
        "country": "Nigeria",
        "lat": 4.71,
        "long": 6.37,
        "elev ft": 895,
        "pop est": 21947
    },
    {
        "name": "Akaragbene",
        "what": "city",
        "region": "Bayelsa",
        "country": "Nigeria",
        "lat": 4.44,
        "long": 5.98,
        "elev ft": 849,
        "pop est": 21847
    },
    {
        "name": "Akarine",
        "what": "city",
        "region": "Bayelsa",
        "country": "Nigeria",
        "lat": 4.98,
        "long": 5.64,
        "elev ft": 337,
        "pop est": 13393
    },
    {
        "name": "Akarino",
        "what": "city",
        "region": "Bayelsa",
        "country": "Nigeria",
        "lat": 4.98,
        "long": 5.64,
        "elev ft": 337,
        "pop est": 13393
    },
    {
        "name": "Akassa",
        "what": "city",
        "region": "Bayelsa",
        "country": "Nigeria",
        "lat": 4.33,
        "long": 6.06,
        "elev ft": 216,
        "pop est": 19130
    },
    {
        "name": "Akaubiri",
        "what": "city",
        "region": "Bayelsa",
        "country": "Nigeria",
        "lat": 4.98,
        "long": 6.28,
        "elev ft": 183,
        "pop est": 25300
    },
    {
        "name": "Akedda",
        "what": "city",
        "region": "Bayelsa",
        "country": "Nigeria",
        "lat": 4.93,
        "long": 6.06,
        "elev ft": 334,
        "pop est": 17972
    },
    {
        "name": "Akede",
        "what": "city",
        "region": "Bayelsa",
        "country": "Nigeria",
        "lat": 4.93,
        "long": 6.06,
        "elev ft": 334,
        "pop est": 17972
    },
    {
        "name": "Akekegbene",
        "what": "city",
        "region": "Bayelsa",
        "country": "Nigeria",
        "lat": 5.22,
        "long": 6.24,
        "elev ft": 275,
        "pop est": 22614
    },
    {
        "name": "Akete",
        "what": "city",
        "region": "Bayelsa",
        "country": "Nigeria",
        "lat": 4.93,
        "long": 6.06,
        "elev ft": 334,
        "pop est": 17972
    },
    {
        "name": "Akipelai",
        "what": "city",
        "region": "Bayelsa",
        "country": "Nigeria",
        "lat": 4.63,
        "long": 6.34,
        "elev ft": 1669,
        "pop est": 21903
    },
    {
        "name": "Akosi",
        "what": "city",
        "region": "Bayelsa",
        "country": "Nigeria",
        "lat": 4.96,
        "long": 5.65,
        "elev ft": 347,
        "pop est": 13402
    },
    {
        "name": "Akosi Camp",
        "what": "city",
        "region": "Bayelsa",
        "country": "Nigeria",
        "lat": 4.96,
        "long": 5.65,
        "elev ft": 347,
        "pop est": 13402
    },
    {
        "name": "Akpan",
        "what": "city",
        "region": "Bayelsa",
        "country": "Nigeria",
        "lat": 4.99,
        "long": 5.66,
        "elev ft": 334,
        "pop est": 13330
    },
    {
        "name": "Akpan Camp",
        "what": "city",
        "region": "Bayelsa",
        "country": "Nigeria",
        "lat": 4.99,
        "long": 5.66,
        "elev ft": 334,
        "pop est": 13330
    },
    {
        "name": "Akpan Camp",
        "what": "city",
        "region": "Bayelsa",
        "country": "Nigeria",
        "lat": 4.97,
        "long": 5.65,
        "elev ft": 341,
        "pop est": 13406
    },
    {
        "name": "Akpobeleiowei",
        "what": "city",
        "region": "Bayelsa",
        "country": "Nigeria",
        "lat": 4.75,
        "long": 5.88,
        "elev ft": 830,
        "pop est": 15347
    },
    {
        "name": "Aladinggbene",
        "what": "city",
        "region": "Bayelsa",
        "country": "Nigeria",
        "lat": 4.91,
        "long": 5.57,
        "elev ft": 357,
        "pop est": 13410
    },
    {
        "name": "Alagbafama",
        "what": "city",
        "region": "Bayelsa",
        "country": "Nigeria",
        "lat": 4.81,
        "long": 6.26,
        "elev ft": 830,
        "pop est": 21884
    },
    {
        "name": "Alagbafame",
        "what": "city",
        "region": "Bayelsa",
        "country": "Nigeria",
        "lat": 4.81,
        "long": 6.26,
        "elev ft": 830,
        "pop est": 21884
    },
    {
        "name": "Alagbene",
        "what": "city",
        "region": "Bayelsa",
        "country": "Nigeria",
        "lat": 4.53,
        "long": 5.8,
        "elev ft": 413,
        "pop est": 15334
    },
    {
        "name": "Alagboloe",
        "what": "city",
        "region": "Bayelsa",
        "country": "Nigeria",
        "lat": 4.54,
        "long": 5.81,
        "elev ft": 390,
        "pop est": 15362
    },
    {
        "name": "Alaru",
        "what": "city",
        "region": "Bayelsa",
        "country": "Nigeria",
        "lat": 4.96,
        "long": 5.63,
        "elev ft": 337,
        "pop est": 13410
    },
    {
        "name": "Alaru Camp",
        "what": "city",
        "region": "Bayelsa",
        "country": "Nigeria",
        "lat": 4.96,
        "long": 5.63,
        "elev ft": 337,
        "pop est": 13410
    },
    {
        "name": "Alatoru",
        "what": "city",
        "region": "Bayelsa",
        "country": "Nigeria",
        "lat": 4.37,
        "long": 6.36,
        "elev ft": 1184,
        "pop est": 21836
    },
    {
        "name": "Alebri",
        "what": "city",
        "region": "Bayelsa",
        "country": "Nigeria",
        "lat": 5.07,
        "long": 5.87,
        "elev ft": 249,
        "pop est": 13364
    },
    {
        "name": "Aleibri",
        "what": "city",
        "region": "Bayelsa",
        "country": "Nigeria",
        "lat": 5.07,
        "long": 5.87,
        "elev ft": 249,
        "pop est": 13364
    },
    {
        "name": "Alisongbene",
        "what": "city",
        "region": "Bayelsa",
        "country": "Nigeria",
        "lat": 4.76,
        "long": 5.75,
        "elev ft": 830,
        "pop est": 15347
    },
    {
        "name": "Alisonkiri",
        "what": "city",
        "region": "Bayelsa",
        "country": "Nigeria",
        "lat": 4.42,
        "long": 6.45,
        "elev ft": 971,
        "pop est": 18601
    },
    {
        "name": "Allagoakiri",
        "what": "city",
        "region": "Bayelsa",
        "country": "Nigeria",
        "lat": 4.59,
        "long": 6.28,
        "elev ft": 347,
        "pop est": 21903
    },
    {
        "name": "Alobri",
        "what": "city",
        "region": "Bayelsa",
        "country": "Nigeria",
        "lat": 5.07,
        "long": 5.87,
        "elev ft": 249,
        "pop est": 13364
    },
    {
        "name": "Amabebegbene",
        "what": "city",
        "region": "Bayelsa",
        "country": "Nigeria",
        "lat": 5.09,
        "long": 6.35,
        "elev ft": 314,
        "pop est": 25183
    },
    {
        "name": "Amabilo",
        "what": "city",
        "region": "Bayelsa",
        "country": "Nigeria",
        "lat": 4.9,
        "long": 5.69,
        "elev ft": 830,
        "pop est": 13421
    },
    {
        "name": "Amabilou",
        "what": "city",
        "region": "Bayelsa",
        "country": "Nigeria",
        "lat": 4.9,
        "long": 5.69,
        "elev ft": 830,
        "pop est": 13421
    },
    {
        "name": "Amabilou",
        "what": "city",
        "region": "Bayelsa",
        "country": "Nigeria",
        "lat": 4.99,
        "long": 5.8,
        "elev ft": 830,
        "pop est": 13408
    },
    {
        "name": "Amabulo",
        "what": "city",
        "region": "Bayelsa",
        "country": "Nigeria",
        "lat": 4.99,
        "long": 5.8,
        "elev ft": 830,
        "pop est": 13408
    },
    {
        "name": "Amabulou",
        "what": "city",
        "region": "Bayelsa",
        "country": "Nigeria",
        "lat": 4.99,
        "long": 5.8,
        "elev ft": 830,
        "pop est": 13408
    },
    {
        "name": "Amabulu",
        "what": "city",
        "region": "Bayelsa",
        "country": "Nigeria",
        "lat": 4.99,
        "long": 5.8,
        "elev ft": 830,
        "pop est": 13408
    },
    {
        "name": "Amadugama",
        "what": "city",
        "region": "Bayelsa",
        "country": "Nigeria",
        "lat": 4.7,
        "long": 6.26,
        "elev ft": 830,
        "pop est": 21903
    },
    {
        "name": "Amakalakala",
        "what": "city",
        "region": "Bayelsa",
        "country": "Nigeria",
        "lat": 4.65,
        "long": 6.34,
        "elev ft": 1669,
        "pop est": 21903
    },
    {
        "name": "Amanagbene",
        "what": "city",
        "region": "Bayelsa",
        "country": "Nigeria",
        "lat": 5.05,
        "long": 5.84,
        "elev ft": 246,
        "pop est": 13321
    },
    {
        "name": "Amarara",
        "what": "city",
        "region": "Bayelsa",
        "country": "Nigeria",
        "lat": 4.93,
        "long": 6.29,
        "elev ft": 830,
        "pop est": 24721
    },
    {
        "name": "Amarata",
        "what": "city",
        "region": "Bayelsa",
        "country": "Nigeria",
        "lat": 4.93,
        "long": 6.29,
        "elev ft": 830,
        "pop est": 24721
    },
    {
        "name": "Amasama",
        "what": "city",
        "region": "Bayelsa",
        "country": "Nigeria",
        "lat": 4.97,
        "long": 6.11,
        "elev ft": 314,
        "pop est": 20257
    },
    {
        "name": "Amasingbene",
        "what": "city",
        "region": "Bayelsa",
        "country": "Nigeria",
        "lat": 4.95,
        "long": 5.54,
        "elev ft": 334,
        "pop est": 13410
    },
    {
        "name": "Amassama",
        "what": "city",
        "region": "Bayelsa",
        "country": "Nigeria",
        "lat": 4.97,
        "long": 6.11,
        "elev ft": 314,
        "pop est": 20257
    },
    {
        "name": "Amassoma",
        "what": "city",
        "region": "Bayelsa",
        "country": "Nigeria",
        "lat": 4.97,
        "long": 6.11,
        "elev ft": 314,
        "pop est": 20257
    },
    {
        "name": "Amatafagbene",
        "what": "city",
        "region": "Bayelsa",
        "country": "Nigeria",
        "lat": 4.62,
        "long": 5.77,
        "elev ft": 830,
        "pop est": 15347
    },
    {
        "name": "Amatafugbene",
        "what": "city",
        "region": "Bayelsa",
        "country": "Nigeria",
        "lat": 4.62,
        "long": 5.77,
        "elev ft": 830,
        "pop est": 15347
    },
    {
        "name": "Amatefegbene",
        "what": "city",
        "region": "Bayelsa",
        "country": "Nigeria",
        "lat": 4.69,
        "long": 5.77,
        "elev ft": 830,
        "pop est": 15347
    },
    {
        "name": "Amatolo",
        "what": "city",
        "region": "Bayelsa",
        "country": "Nigeria",
        "lat": 5.02,
        "long": 6.07,
        "elev ft": 278,
        "pop est": 19402
    },
    {
        "name": "Amatolo Camp I",
        "what": "city",
        "region": "Bayelsa",
        "country": "Nigeria",
        "lat": 5.01,
        "long": 6.1,
        "elev ft": 321,
        "pop est": 20463
    },
    {
        "name": "Amatolo Camp II",
        "what": "city",
        "region": "Bayelsa",
        "country": "Nigeria",
        "lat": 5.01,
        "long": 6.1,
        "elev ft": 321,
        "pop est": 19980
    },
    {
        "name": "Amatolo Camp III",
        "what": "city",
        "region": "Bayelsa",
        "country": "Nigeria",
        "lat": 5.01,
        "long": 6.09,
        "elev ft": 314,
        "pop est": 19980
    },
    {
        "name": "Amatolo Camp IV",
        "what": "city",
        "region": "Bayelsa",
        "country": "Nigeria",
        "lat": 5.02,
        "long": 6.06,
        "elev ft": 314,
        "pop est": 19361
    },
    {
        "name": "Amatu",
        "what": "city",
        "region": "Bayelsa",
        "country": "Nigeria",
        "lat": 4.89,
        "long": 5.47,
        "elev ft": 334,
        "pop est": 7873
    },
    {
        "name": "Amatu",
        "what": "city",
        "region": "Bayelsa",
        "country": "Nigeria",
        "lat": 5.08,
        "long": 5.4,
        "elev ft": 68,
        "pop est": 6889
    },
    {
        "name": "Amatu",
        "what": "city",
        "region": "Bayelsa",
        "country": "Nigeria",
        "lat": 4.93,
        "long": 5.46,
        "elev ft": 370,
        "pop est": 8291
    },
    {
        "name": "Amatu-Ijaw",
        "what": "city",
        "region": "Bayelsa",
        "country": "Nigeria",
        "lat": 5.08,
        "long": 5.4,
        "elev ft": 68,
        "pop est": 6889
    },
    {
        "name": "Amatu-Ilaje",
        "what": "city",
        "region": "Bayelsa",
        "country": "Nigeria",
        "lat": 5.07,
        "long": 5.4,
        "elev ft": 111,
        "pop est": 7404
    },
    {
        "name": "Amazo",
        "what": "city",
        "region": "Bayelsa",
        "country": "Nigeria",
        "lat": 5.11,
        "long": 5.41,
        "elev ft": 3,
        "pop est": 9951
    },
    {
        "name": "Ambakagbene",
        "what": "city",
        "region": "Bayelsa",
        "country": "Nigeria",
        "lat": 4.83,
        "long": 5.83,
        "elev ft": 830,
        "pop est": 14859
    },
    {
        "name": "Ametu",
        "what": "city",
        "region": "Bayelsa",
        "country": "Nigeria",
        "lat": 4.89,
        "long": 5.47,
        "elev ft": 334,
        "pop est": 7873
    },
    {
        "name": "Amo-Ebilene",
        "what": "city",
        "region": "Bayelsa",
        "country": "Nigeria",
        "lat": 4.82,
        "long": 5.5,
        "elev ft": 360,
        "pop est": 7111
    },
    {
        "name": "Amotu",
        "what": "city",
        "region": "Bayelsa",
        "country": "Nigeria",
        "lat": 4.93,
        "long": 5.46,
        "elev ft": 370,
        "pop est": 8291
    },
    {
        "name": "Andafagbene",
        "what": "city",
        "region": "Bayelsa",
        "country": "Nigeria",
        "lat": 4.93,
        "long": 5.61,
        "elev ft": 334,
        "pop est": 13410
    },
    {
        "name": "Angadeghagbene",
        "what": "city",
        "region": "Bayelsa",
        "country": "Nigeria",
        "lat": 4.85,
        "long": 5.58,
        "elev ft": 830,
        "pop est": 13449
    },
    {
        "name": "Angaghakiri",
        "what": "city",
        "region": "Bayelsa",
        "country": "Nigeria",
        "lat": 4.43,
        "long": 6.3,
        "elev ft": 295,
        "pop est": 21903
    },
    {
        "name": "Angala-Pogifie",
        "what": "city",
        "region": "Bayelsa",
        "country": "Nigeria",
        "lat": 4.37,
        "long": 6.2,
        "elev ft": 282,
        "pop est": 21903
    },
    {
        "name": "Angalabenni",
        "what": "city",
        "region": "Bayelsa",
        "country": "Nigeria",
        "lat": 5.03,
        "long": 5.89,
        "elev ft": 311,
        "pop est": 13410
    },
    {
        "name": "Angalabri",
        "what": "city",
        "region": "Bayelsa",
        "country": "Nigeria",
        "lat": 5.09,
        "long": 6.04,
        "elev ft": 380,
        "pop est": 28733
    },
    {
        "name": "Angalakubosei",
        "what": "city",
        "region": "Bayelsa",
        "country": "Nigeria",
        "lat": 4.42,
        "long": 6.27,
        "elev ft": 282,
        "pop est": 21903
    },
    {
        "name": "Angalawegbene",
        "what": "city",
        "region": "Bayelsa",
        "country": "Nigeria",
        "lat": 5.03,
        "long": 5.99,
        "elev ft": 337,
        "pop est": 19814
    },
    {
        "name": "Angalawegbene",
        "what": "city",
        "region": "Bayelsa",
        "country": "Nigeria",
        "lat": 5.03,
        "long": 5.89,
        "elev ft": 311,
        "pop est": 13410
    },
    {
        "name": "Angbagbene",
        "what": "city",
        "region": "Bayelsa",
        "country": "Nigeria",
        "lat": 4.62,
        "long": 5.79,
        "elev ft": 830,
        "pop est": 15347
    },
    {
        "name": "Angbakore",
        "what": "city",
        "region": "Bayelsa",
        "country": "Nigeria",
        "lat": 4.53,
        "long": 5.82,
        "elev ft": 344,
        "pop est": 15367
    },
    {
        "name": "Angbe",
        "what": "city",
        "region": "Bayelsa",
        "country": "Nigeria",
        "lat": 4.59,
        "long": 5.87,
        "elev ft": 314,
        "pop est": 15347
    },
    {
        "name": "Angiama",
        "what": "city",
        "region": "Bayelsa",
        "country": "Nigeria",
        "lat": 4.83,
        "long": 6.11,
        "elev ft": 830,
        "pop est": 15347
    },
    {
        "name": "Angiama II",
        "what": "city",
        "region": "Bayelsa",
        "country": "Nigeria",
        "lat": 5.14,
        "long": 6.11,
        "elev ft": 318,
        "pop est": 39572
    },
    {
        "name": "Angiamagbene",
        "what": "city",
        "region": "Bayelsa",
        "country": "Nigeria",
        "lat": 4.81,
        "long": 6.13,
        "elev ft": 200,
        "pop est": 15557
    },
    {
        "name": "Anubeze",
        "what": "city",
        "region": "Bayelsa",
        "country": "Nigeria",
        "lat": 5.23,
        "long": 6.24,
        "elev ft": 278,
        "pop est": 24790
    },
    {
        "name": "Anyama",
        "what": "city",
        "region": "Bayelsa",
        "country": "Nigeria",
        "lat": 4.76,
        "long": 6.23,
        "elev ft": 282,
        "pop est": 21903
    },
    {
        "name": "Anyama",
        "what": "city",
        "region": "Bayelsa",
        "country": "Nigeria",
        "lat": 4.87,
        "long": 6.21,
        "elev ft": 196,
        "pop est": 21990
    },
    {
        "name": "Anyamasama",
        "what": "city",
        "region": "Bayelsa",
        "country": "Nigeria",
        "lat": 5.13,
        "long": 5.92,
        "elev ft": 318,
        "pop est": 28802
    },
    {
        "name": "Apelebirigbene",
        "what": "city",
        "region": "Bayelsa",
        "country": "Nigeria",
        "lat": 4.97,
        "long": 5.54,
        "elev ft": 334,
        "pop est": 13410
    },
    {
        "name": "Apinokolo",
        "what": "city",
        "region": "Bayelsa",
        "country": "Nigeria",
        "lat": 4.33,
        "long": 6.51,
        "elev ft": 0,
        "pop est": 6767
    },
    {
        "name": "Apoi",
        "what": "city",
        "region": "Bayelsa",
        "country": "Nigeria",
        "lat": 4.72,
        "long": 5.85,
        "elev ft": 830,
        "pop est": 15347
    },
    {
        "name": "Apunhiakiri",
        "what": "city",
        "region": "Bayelsa",
        "country": "Nigeria",
        "lat": 4.4,
        "long": 6.16,
        "elev ft": 282,
        "pop est": 21903
    },
    {
        "name": "Arikaripor",
        "what": "city",
        "region": "Bayelsa",
        "country": "Nigeria",
        "lat": 4.68,
        "long": 5.58,
        "elev ft": 830,
        "pop est": 9869
    },
    {
        "name": "Arua",
        "what": "city",
        "region": "Bayelsa",
        "country": "Nigeria",
        "lat": 5.11,
        "long": 6.12,
        "elev ft": 278,
        "pop est": 25391
    },
    {
        "name": "Arua Camp I",
        "what": "city",
        "region": "Bayelsa",
        "country": "Nigeria",
        "lat": 5.11,
        "long": 6.12,
        "elev ft": 278,
        "pop est": 25391
    },
    {
        "name": "Arua Camp II",
        "what": "city",
        "region": "Bayelsa",
        "country": "Nigeria",
        "lat": 5.1,
        "long": 6.12,
        "elev ft": 278,
        "pop est": 25391
    },
    {
        "name": "Arua Camp III",
        "what": "city",
        "region": "Bayelsa",
        "country": "Nigeria",
        "lat": 5.09,
        "long": 6.13,
        "elev ft": 278,
        "pop est": 23574
    },
    {
        "name": "Arua Camps",
        "what": "city",
        "region": "Bayelsa",
        "country": "Nigeria",
        "lat": 5.08,
        "long": 6.13,
        "elev ft": 278,
        "pop est": 21917
    },
    {
        "name": "Asagbene",
        "what": "city",
        "region": "Bayelsa",
        "country": "Nigeria",
        "lat": 4.88,
        "long": 5.73,
        "elev ft": 830,
        "pop est": 13498
    },
    {
        "name": "Asakagbene",
        "what": "city",
        "region": "Bayelsa",
        "country": "Nigeria",
        "lat": 4.98,
        "long": 5.66,
        "elev ft": 344,
        "pop est": 13369
    },
    {
        "name": "Asikoro",
        "what": "city",
        "region": "Bayelsa",
        "country": "Nigeria",
        "lat": 4.89,
        "long": 6.29,
        "elev ft": 830,
        "pop est": 23561
    },
    {
        "name": "Asungbene",
        "what": "city",
        "region": "Bayelsa",
        "country": "Nigeria",
        "lat": 4.74,
        "long": 6.08,
        "elev ft": 830,
        "pop est": 15347
    },
    {
        "name": "Atalaweigbene",
        "what": "city",
        "region": "Bayelsa",
        "country": "Nigeria",
        "lat": 4.91,
        "long": 5.89,
        "elev ft": 830,
        "pop est": 13882
    },
    {
        "name": "Atane-Gbene",
        "what": "city",
        "region": "Bayelsa",
        "country": "Nigeria",
        "lat": 5.02,
        "long": 6.03,
        "elev ft": 278,
        "pop est": 20217
    },
    {
        "name": "Atelegbene",
        "what": "city",
        "region": "Bayelsa",
        "country": "Nigeria",
        "lat": 4.69,
        "long": 5.78,
        "elev ft": 830,
        "pop est": 15347
    },
    {
        "name": "Atibere",
        "what": "city",
        "region": "Bayelsa",
        "country": "Nigeria",
        "lat": 4.84,
        "long": 5.49,
        "elev ft": 351,
        "pop est": 7264
    },
    {
        "name": "Atire-Gbene",
        "what": "city",
        "region": "Bayelsa",
        "country": "Nigeria",
        "lat": 5.07,
        "long": 6.05,
        "elev ft": 344,
        "pop est": 23734
    },
    {
        "name": "Atorgbene",
        "what": "city",
        "region": "Bayelsa",
        "country": "Nigeria",
        "lat": 4.77,
        "long": 5.76,
        "elev ft": 830,
        "pop est": 15347
    },
    {
        "name": "Atubo",
        "what": "city",
        "region": "Bayelsa",
        "country": "Nigeria",
        "lat": 4.58,
        "long": 6.46,
        "elev ft": 830,
        "pop est": 20541
    },
    {
        "name": "Augusto-Obe",
        "what": "city",
        "region": "Bayelsa",
        "country": "Nigeria",
        "lat": 4.84,
        "long": 5.49,
        "elev ft": 334,
        "pop est": 7264
    },
    {
        "name": "Awazakiri",
        "what": "city",
        "region": "Bayelsa",
        "country": "Nigeria",
        "lat": 4.42,
        "long": 6.31,
        "elev ft": 830,
        "pop est": 21903
    },
    {
        "name": "Awiakalakala",
        "what": "city",
        "region": "Bayelsa",
        "country": "Nigeria",
        "lat": 4.65,
        "long": 6.34,
        "elev ft": 1669,
        "pop est": 21903
    },
    {
        "name": "Awigbene",
        "what": "city",
        "region": "Bayelsa",
        "country": "Nigeria",
        "lat": 4.85,
        "long": 6.0,
        "elev ft": 334,
        "pop est": 17830
    },
    {
        "name": "Awotarighakiri",
        "what": "city",
        "region": "Bayelsa",
        "country": "Nigeria",
        "lat": 4.74,
        "long": 6.54,
        "elev ft": 246,
        "pop est": 24168
    },
    {
        "name": "Aya-Ama",
        "what": "city",
        "region": "Bayelsa",
        "country": "Nigeria",
        "lat": 5.07,
        "long": 6.29,
        "elev ft": 213,
        "pop est": 25192
    },
    {
        "name": "Ayama",
        "what": "city",
        "region": "Bayelsa",
        "country": "Nigeria",
        "lat": 4.98,
        "long": 5.75,
        "elev ft": 830,
        "pop est": 13384
    },
    {
        "name": "Ayama",
        "what": "city",
        "region": "Bayelsa",
        "country": "Nigeria",
        "lat": 5.06,
        "long": 6.33,
        "elev ft": 337,
        "pop est": 25201
    },
    {
        "name": "Ayama",
        "what": "city",
        "region": "Bayelsa",
        "country": "Nigeria",
        "lat": 4.87,
        "long": 6.21,
        "elev ft": 196,
        "pop est": 21990
    },
    {
        "name": "Ayamabene",
        "what": "city",
        "region": "Bayelsa",
        "country": "Nigeria",
        "lat": 5.0,
        "long": 5.98,
        "elev ft": 830,
        "pop est": 18969
    },
    {
        "name": "Ayamasa",
        "what": "city",
        "region": "Bayelsa",
        "country": "Nigeria",
        "lat": 5.13,
        "long": 5.92,
        "elev ft": 318,
        "pop est": 28802
    },
    {
        "name": "Ayamassa",
        "what": "city",
        "region": "Bayelsa",
        "country": "Nigeria",
        "lat": 5.13,
        "long": 5.92,
        "elev ft": 318,
        "pop est": 28802
    },
    {
        "name": "Ayanmasa",
        "what": "city",
        "region": "Bayelsa",
        "country": "Nigeria",
        "lat": 5.13,
        "long": 5.92,
        "elev ft": 318,
        "pop est": 28802
    },
    {
        "name": "Ayebabiri",
        "what": "city",
        "region": "Bayelsa",
        "country": "Nigeria",
        "lat": 5.08,
        "long": 6.25,
        "elev ft": 180,
        "pop est": 25188
    },
    {
        "name": "Ayeseigbene",
        "what": "city",
        "region": "Bayelsa",
        "country": "Nigeria",
        "lat": 4.91,
        "long": 5.52,
        "elev ft": 354,
        "pop est": 13365
    },
    {
        "name": "Ayibobiri",
        "what": "city",
        "region": "Bayelsa",
        "country": "Nigeria",
        "lat": 5.08,
        "long": 6.25,
        "elev ft": 180,
        "pop est": 25188
    },
    {
        "name": "Ayokorama",
        "what": "city",
        "region": "Bayelsa",
        "country": "Nigeria",
        "lat": 5.07,
        "long": 6.29,
        "elev ft": 213,
        "pop est": 25193
    },
    {
        "name": "Ayougbene",
        "what": "city",
        "region": "Bayelsa",
        "country": "Nigeria",
        "lat": 4.63,
        "long": 6.16,
        "elev ft": 403,
        "pop est": 18976
    },
    {
        "name": "Azagbene",
        "what": "city",
        "region": "Bayelsa",
        "country": "Nigeria",
        "lat": 4.86,
        "long": 5.88,
        "elev ft": 830,
        "pop est": 14676
    },
    {
        "name": "Azagbene",
        "what": "city",
        "region": "Bayelsa",
        "country": "Nigeria",
        "lat": 4.92,
        "long": 5.85,
        "elev ft": 830,
        "pop est": 13468
    },
    {
        "name": "Azagbene-Zion",
        "what": "city",
        "region": "Bayelsa",
        "country": "Nigeria",
        "lat": 4.87,
        "long": 5.8,
        "elev ft": 830,
        "pop est": 13880
    },
    {
        "name": "Azatuta",
        "what": "city",
        "region": "Bayelsa",
        "country": "Nigeria",
        "lat": 4.83,
        "long": 5.85,
        "elev ft": 830,
        "pop est": 14888
    },
    {
        "name": "Azegbene",
        "what": "city",
        "region": "Bayelsa",
        "country": "Nigeria",
        "lat": 4.92,
        "long": 5.85,
        "elev ft": 830,
        "pop est": 13468
    },
    {
        "name": "Aziama",
        "what": "city",
        "region": "Bayelsa",
        "country": "Nigeria",
        "lat": 4.88,
        "long": 5.99,
        "elev ft": 830,
        "pop est": 19126
    },
    {
        "name": "Azorogbene",
        "what": "city",
        "region": "Bayelsa",
        "country": "Nigeria",
        "lat": 4.92,
        "long": 5.57,
        "elev ft": 334,
        "pop est": 13410
    },
    {
        "name": "Azuzuama",
        "what": "city",
        "region": "Bayelsa",
        "country": "Nigeria",
        "lat": 4.72,
        "long": 5.95,
        "elev ft": 830,
        "pop est": 15347
    },
    {
        "name": "Baba-Akim",
        "what": "city",
        "region": "Bayelsa",
        "country": "Nigeria",
        "lat": 4.85,
        "long": 5.48,
        "elev ft": 334,
        "pop est": 7815
    },
    {
        "name": "Babatonagbene",
        "what": "city",
        "region": "Bayelsa",
        "country": "Nigeria",
        "lat": 4.48,
        "long": 5.75,
        "elev ft": 0,
        "pop est": 6994
    },
    {
        "name": "Babatoriagbene",
        "what": "city",
        "region": "Bayelsa",
        "country": "Nigeria",
        "lat": 4.48,
        "long": 5.75,
        "elev ft": 0,
        "pop est": 6994
    },
    {
        "name": "Baberekiri",
        "what": "city",
        "region": "Bayelsa",
        "country": "Nigeria",
        "lat": 4.47,
        "long": 6.0,
        "elev ft": 275,
        "pop est": 20950
    },
    {
        "name": "Bagbene",
        "what": "city",
        "region": "Bayelsa",
        "country": "Nigeria",
        "lat": 4.99,
        "long": 5.97,
        "elev ft": 830,
        "pop est": 18087
    },
    {
        "name": "Bage Camp",
        "what": "city",
        "region": "Bayelsa",
        "country": "Nigeria",
        "lat": 5.05,
        "long": 6.12,
        "elev ft": 311,
        "pop est": 21546
    },
    {
        "name": "Baideingbene",
        "what": "city",
        "region": "Bayelsa",
        "country": "Nigeria",
        "lat": 4.87,
        "long": 5.56,
        "elev ft": 390,
        "pop est": 13410
    },
    {
        "name": "Basambiri",
        "what": "city",
        "region": "Bayelsa",
        "country": "Nigeria",
        "lat": 4.53,
        "long": 6.41,
        "elev ft": 1669,
        "pop est": 21903
    },
    {
        "name": "Bassambiri",
        "what": "city",
        "region": "Bayelsa",
        "country": "Nigeria",
        "lat": 4.53,
        "long": 6.41,
        "elev ft": 1669,
        "pop est": 21903
    },
    {
        "name": "Bassambri",
        "what": "city",
        "region": "Bayelsa",
        "country": "Nigeria",
        "lat": 4.53,
        "long": 6.41,
        "elev ft": 1669,
        "pop est": 21903
    },
    {
        "name": "Basuokiri",
        "what": "city",
        "region": "Bayelsa",
        "country": "Nigeria",
        "lat": 4.57,
        "long": 6.29,
        "elev ft": 830,
        "pop est": 21903
    },
    {
        "name": "Batagbene",
        "what": "city",
        "region": "Bayelsa",
        "country": "Nigeria",
        "lat": 4.95,
        "long": 5.95,
        "elev ft": 830,
        "pop est": 15717
    },
    {
        "name": "Bebelabiri",
        "what": "city",
        "region": "Bayelsa",
        "country": "Nigeria",
        "lat": 4.95,
        "long": 6.26,
        "elev ft": 288,
        "pop est": 25325
    },
    {
        "name": "Bebelebiri",
        "what": "city",
        "region": "Bayelsa",
        "country": "Nigeria",
        "lat": 4.95,
        "long": 6.26,
        "elev ft": 288,
        "pop est": 25325
    },
    {
        "name": "Bebemieyefagbene",
        "what": "city",
        "region": "Bayelsa",
        "country": "Nigeria",
        "lat": 4.97,
        "long": 5.62,
        "elev ft": 334,
        "pop est": 13410
    },
    {
        "name": "Bedetebidawu",
        "what": "city",
        "region": "Bayelsa",
        "country": "Nigeria",
        "lat": 4.84,
        "long": 5.62,
        "elev ft": 830,
        "pop est": 13774
    },
    {
        "name": "Bekebogbene",
        "what": "city",
        "region": "Bayelsa",
        "country": "Nigeria",
        "lat": 4.96,
        "long": 5.54,
        "elev ft": 334,
        "pop est": 13410
    },
    {
        "name": "Bekemegbene",
        "what": "city",
        "region": "Bayelsa",
        "country": "Nigeria",
        "lat": 4.85,
        "long": 5.55,
        "elev ft": 360,
        "pop est": 13397
    },
    {
        "name": "Belatiwa",
        "what": "city",
        "region": "Bayelsa",
        "country": "Nigeria",
        "lat": 4.28,
        "long": 6.2,
        "elev ft": 0,
        "pop est": 10805
    },
    {
        "name": "Belelebiri",
        "what": "city",
        "region": "Bayelsa",
        "country": "Nigeria",
        "lat": 4.95,
        "long": 6.26,
        "elev ft": 288,
        "pop est": 25325
    },
    {
        "name": "Beletiama",
        "what": "city",
        "region": "Bayelsa",
        "country": "Nigeria",
        "lat": 4.28,
        "long": 6.2,
        "elev ft": 0,
        "pop est": 10805
    },
    {
        "name": "Beletiama",
        "what": "city",
        "region": "Bayelsa",
        "country": "Nigeria",
        "lat": 4.31,
        "long": 6.2,
        "elev ft": 282,
        "pop est": 14774
    },
    {
        "name": "Bendicgbene",
        "what": "city",
        "region": "Bayelsa",
        "country": "Nigeria",
        "lat": 4.53,
        "long": 5.8,
        "elev ft": 413,
        "pop est": 15334
    },
    {
        "name": "Beniwenega",
        "what": "city",
        "region": "Bayelsa",
        "country": "Nigeria",
        "lat": 4.87,
        "long": 5.58,
        "elev ft": 416,
        "pop est": 13410
    },
    {
        "name": "Beregbene",
        "what": "city",
        "region": "Bayelsa",
        "country": "Nigeria",
        "lat": 4.74,
        "long": 5.63,
        "elev ft": 830,
        "pop est": 15347
    },
    {
        "name": "Beregbene-Willy",
        "what": "city",
        "region": "Bayelsa",
        "country": "Nigeria",
        "lat": 4.74,
        "long": 5.63,
        "elev ft": 830,
        "pop est": 15347
    },
    {
        "name": "Beterland",
        "what": "city",
        "region": "Bayelsa",
        "country": "Nigeria",
        "lat": 4.57,
        "long": 5.96,
        "elev ft": 1069,
        "pop est": 15348
    },
    {
        "name": "Betterland",
        "what": "city",
        "region": "Bayelsa",
        "country": "Nigeria",
        "lat": 4.57,
        "long": 5.96,
        "elev ft": 1069,
        "pop est": 15348
    },
    {
        "name": "Beyentoro",
        "what": "city",
        "region": "Bayelsa",
        "country": "Nigeria",
        "lat": 4.51,
        "long": 5.73,
        "elev ft": 830,
        "pop est": 8911
    },
    {
        "name": "Beyentorugbene",
        "what": "city",
        "region": "Bayelsa",
        "country": "Nigeria",
        "lat": 4.48,
        "long": 5.75,
        "elev ft": 0,
        "pop est": 6946
    },
    {
        "name": "Beyenturugbene",
        "what": "city",
        "region": "Bayelsa",
        "country": "Nigeria",
        "lat": 4.48,
        "long": 5.75,
        "elev ft": 0,
        "pop est": 6946
    },
    {
        "name": "Bia Aguobiri",
        "what": "city",
        "region": "Bayelsa",
        "country": "Nigeria",
        "lat": 4.8,
        "long": 6.16,
        "elev ft": 830,
        "pop est": 17449
    },
    {
        "name": "Biabagbene",
        "what": "city",
        "region": "Bayelsa",
        "country": "Nigeria",
        "lat": 4.53,
        "long": 5.96,
        "elev ft": 1020,
        "pop est": 15934
    },
    {
        "name": "Biantubu",
        "what": "city",
        "region": "Bayelsa",
        "country": "Nigeria",
        "lat": 4.55,
        "long": 6.4,
        "elev ft": 1669,
        "pop est": 21903
    },
    {
        "name": "Bibabri",
        "what": "city",
        "region": "Bayelsa",
        "country": "Nigeria",
        "lat": 4.82,
        "long": 5.52,
        "elev ft": 380,
        "pop est": 10190
    },
    {
        "name": "Bibi",
        "what": "city",
        "region": "Bayelsa",
        "country": "Nigeria",
        "lat": 4.83,
        "long": 5.5,
        "elev ft": 334,
        "pop est": 8351
    },
    {
        "name": "Biekongbene",
        "what": "city",
        "region": "Bayelsa",
        "country": "Nigeria",
        "lat": 4.8,
        "long": 5.61,
        "elev ft": 830,
        "pop est": 14249
    },
    {
        "name": "Bikirubogbene",
        "what": "city",
        "region": "Bayelsa",
        "country": "Nigeria",
        "lat": 4.73,
        "long": 5.72,
        "elev ft": 830,
        "pop est": 15347
    },
    {
        "name": "Bilabiri",
        "what": "city",
        "region": "Bayelsa",
        "country": "Nigeria",
        "lat": 4.82,
        "long": 5.52,
        "elev ft": 380,
        "pop est": 10190
    },
    {
        "name": "Bilabri",
        "what": "city",
        "region": "Bayelsa",
        "country": "Nigeria",
        "lat": 4.82,
        "long": 5.52,
        "elev ft": 380,
        "pop est": 10190
    },
    {
        "name": "Bilabri Ilaje",
        "what": "city",
        "region": "Bayelsa",
        "country": "Nigeria",
        "lat": 4.82,
        "long": 5.5,
        "elev ft": 390,
        "pop est": 8196
    },
    {
        "name": "Bio-Aguobiri",
        "what": "city",
        "region": "Bayelsa",
        "country": "Nigeria",
        "lat": 4.8,
        "long": 6.16,
        "elev ft": 830,
        "pop est": 17449
    },
    {
        "name": "Biogbolo",
        "what": "city",
        "region": "Bayelsa",
        "country": "Nigeria",
        "lat": 4.94,
        "long": 6.33,
        "elev ft": 830,
        "pop est": 24695
    },
    {
        "name": "Biokpongo",
        "what": "city",
        "region": "Bayelsa",
        "country": "Nigeria",
        "lat": 4.58,
        "long": 6.42,
        "elev ft": 1669,
        "pop est": 21903
    },
    {
        "name": "Biotu",
        "what": "city",
        "region": "Bayelsa",
        "country": "Nigeria",
        "lat": 4.6,
        "long": 5.64,
        "elev ft": 0,
        "pop est": 7594
    },
    {
        "name": "Birieigbene",
        "what": "city",
        "region": "Bayelsa",
        "country": "Nigeria",
        "lat": 4.72,
        "long": 5.71,
        "elev ft": 830,
        "pop est": 15347
    },
    {
        "name": "Biriemigbeni",
        "what": "city",
        "region": "Bayelsa",
        "country": "Nigeria",
        "lat": 4.72,
        "long": 5.71,
        "elev ft": 830,
        "pop est": 15347
    },
    {
        "name": "Birigbene",
        "what": "city",
        "region": "Bayelsa",
        "country": "Nigeria",
        "lat": 5.06,
        "long": 5.48,
        "elev ft": 3,
        "pop est": 13382
    },
    {
        "name": "Biriseyegbene",
        "what": "city",
        "region": "Bayelsa",
        "country": "Nigeria",
        "lat": 4.46,
        "long": 5.82,
        "elev ft": 314,
        "pop est": 12087
    },
    {
        "name": "Bisagbene",
        "what": "city",
        "region": "Bayelsa",
        "country": "Nigeria",
        "lat": 4.85,
        "long": 5.51,
        "elev ft": 337,
        "pop est": 11444
    },
    {
        "name": "Bisagbene",
        "what": "city",
        "region": "Bayelsa",
        "country": "Nigeria",
        "lat": 4.87,
        "long": 5.49,
        "elev ft": 341,
        "pop est": 9235
    },
    {
        "name": "Blackgbene",
        "what": "city",
        "region": "Bayelsa",
        "country": "Nigeria",
        "lat": 4.89,
        "long": 5.56,
        "elev ft": 354,
        "pop est": 13410
    },
    {
        "name": "Blackman",
        "what": "city",
        "region": "Bayelsa",
        "country": "Nigeria",
        "lat": 4.97,
        "long": 5.68,
        "elev ft": 410,
        "pop est": 13375
    },
    {
        "name": "Blackman Camp",
        "what": "city",
        "region": "Bayelsa",
        "country": "Nigeria",
        "lat": 4.97,
        "long": 5.68,
        "elev ft": 410,
        "pop est": 13375
    },
    {
        "name": "Boatmangbene",
        "what": "city",
        "region": "Bayelsa",
        "country": "Nigeria",
        "lat": 4.98,
        "long": 5.62,
        "elev ft": 334,
        "pop est": 13410
    },
    {
        "name": "Bokamgbene",
        "what": "city",
        "region": "Bayelsa",
        "country": "Nigeria",
        "lat": 4.63,
        "long": 5.72,
        "elev ft": 830,
        "pop est": 15347
    },
    {
        "name": "Bokumogbene",
        "what": "city",
        "region": "Bayelsa",
        "country": "Nigeria",
        "lat": 4.63,
        "long": 5.72,
        "elev ft": 830,
        "pop est": 15347
    },
    {
        "name": "Bolougbene",
        "what": "city",
        "region": "Bayelsa",
        "country": "Nigeria",
        "lat": 4.74,
        "long": 6.08,
        "elev ft": 830,
        "pop est": 15347
    },
    {
        "name": "Bomiyegbene",
        "what": "city",
        "region": "Bayelsa",
        "country": "Nigeria",
        "lat": 4.81,
        "long": 5.59,
        "elev ft": 830,
        "pop est": 13951
    },
    {
        "name": "Bonneykiri",
        "what": "city",
        "region": "Bayelsa",
        "country": "Nigeria",
        "lat": 4.28,
        "long": 6.09,
        "elev ft": 236,
        "pop est": 9466
    },
    {
        "name": "Borutu-Gbene",
        "what": "city",
        "region": "Bayelsa",
        "country": "Nigeria",
        "lat": 5.07,
        "long": 6.05,
        "elev ft": 328,
        "pop est": 23734
    },
    {
        "name": "Botokiri",
        "what": "city",
        "region": "Bayelsa",
        "country": "Nigeria",
        "lat": 4.45,
        "long": 6.5,
        "elev ft": 830,
        "pop est": 14225
    },
    {
        "name": "Boune",
        "what": "city",
        "region": "Bayelsa",
        "country": "Nigeria",
        "lat": 4.85,
        "long": 5.49,
        "elev ft": 334,
        "pop est": 7815
    },
    {
        "name": "Brass",
        "what": "city",
        "region": "Bayelsa",
        "country": "Nigeria",
        "lat": 4.31,
        "long": 6.24,
        "elev ft": 410,
        "pop est": 15721
    },
    {
        "name": "Brass Town",
        "what": "city",
        "region": "Bayelsa",
        "country": "Nigeria",
        "lat": 4.31,
        "long": 6.24,
        "elev ft": 410,
        "pop est": 15721
    },
    {
        "name": "Brokegbene",
        "what": "city",
        "region": "Bayelsa",
        "country": "Nigeria",
        "lat": 4.61,
        "long": 5.77,
        "elev ft": 830,
        "pop est": 15347
    },
    {
        "name": "Bross",
        "what": "city",
        "region": "Bayelsa",
        "country": "Nigeria",
        "lat": 4.31,
        "long": 6.24,
        "elev ft": 410,
        "pop est": 15721
    },
    {
        "name": "Buama",
        "what": "city",
        "region": "Bayelsa",
        "country": "Nigeria",
        "lat": 4.33,
        "long": 6.03,
        "elev ft": 830,
        "pop est": 19041
    },
    {
        "name": "Buldbugbene",
        "what": "city",
        "region": "Bayelsa",
        "country": "Nigeria",
        "lat": 4.95,
        "long": 5.58,
        "elev ft": 334,
        "pop est": 13410
    },
    {
        "name": "Bulworu-Gbene",
        "what": "city",
        "region": "Bayelsa",
        "country": "Nigeria",
        "lat": 5.02,
        "long": 6.05,
        "elev ft": 278,
        "pop est": 19798
    },
    {
        "name": "Bumianeba",
        "what": "city",
        "region": "Bayelsa",
        "country": "Nigeria",
        "lat": 4.85,
        "long": 5.64,
        "elev ft": 830,
        "pop est": 13844
    },
    {
        "name": "Bumodi",
        "what": "city",
        "region": "Bayelsa",
        "country": "Nigeria",
        "lat": 4.98,
        "long": 6.27,
        "elev ft": 180,
        "pop est": 25308
    },
    {
        "name": "Buodokumogbene",
        "what": "city",
        "region": "Bayelsa",
        "country": "Nigeria",
        "lat": 4.89,
        "long": 5.54,
        "elev ft": 334,
        "pop est": 13410
    },
    {
        "name": "Buoy Boko",
        "what": "city",
        "region": "Bayelsa",
        "country": "Nigeria",
        "lat": 4.32,
        "long": 6.33,
        "elev ft": 830,
        "pop est": 15859
    },
    {
        "name": "Buragbene",
        "what": "city",
        "region": "Bayelsa",
        "country": "Nigeria",
        "lat": 4.69,
        "long": 5.63,
        "elev ft": 830,
        "pop est": 15119
    },
    {
        "name": "Burukiri",
        "what": "city",
        "region": "Bayelsa",
        "country": "Nigeria",
        "lat": 4.61,
        "long": 6.3,
        "elev ft": 1236,
        "pop est": 21903
    },
    {
        "name": "Burukububo",
        "what": "city",
        "region": "Bayelsa",
        "country": "Nigeria",
        "lat": 4.68,
        "long": 5.68,
        "elev ft": 830,
        "pop est": 15347
    },
    {
        "name": "Butubogo",
        "what": "city",
        "region": "Bayelsa",
        "country": "Nigeria",
        "lat": 4.49,
        "long": 6.43,
        "elev ft": 1069,
        "pop est": 21491
    },
    {
        "name": "Bwama",
        "what": "city",
        "region": "Bayelsa",
        "country": "Nigeria",
        "lat": 4.33,
        "long": 6.03,
        "elev ft": 830,
        "pop est": 19041
    },
    {
        "name": "Captninakiri",
        "what": "city",
        "region": "Bayelsa",
        "country": "Nigeria",
        "lat": 4.43,
        "long": 6.31,
        "elev ft": 275,
        "pop est": 21903
    },
    {
        "name": "Cartonkiri",
        "what": "city",
        "region": "Bayelsa",
        "country": "Nigeria",
        "lat": 4.54,
        "long": 6.53,
        "elev ft": 242,
        "pop est": 13527
    },
    {
        "name": "Clarks-Camp",
        "what": "city",
        "region": "Bayelsa",
        "country": "Nigeria",
        "lat": 4.93,
        "long": 5.69,
        "elev ft": 830,
        "pop est": 13410
    },
    {
        "name": "Clementkiri",
        "what": "city",
        "region": "Bayelsa",
        "country": "Nigeria",
        "lat": 4.42,
        "long": 6.35,
        "elev ft": 275,
        "pop est": 21903
    },
    {
        "name": "Cousingbene",
        "what": "city",
        "region": "Bayelsa",
        "country": "Nigeria",
        "lat": 4.53,
        "long": 5.89,
        "elev ft": 830,
        "pop est": 15367
    },
    {
        "name": "Cousinigbene",
        "what": "city",
        "region": "Bayelsa",
        "country": "Nigeria",
        "lat": 4.53,
        "long": 5.89,
        "elev ft": 830,
        "pop est": 15367
    },
    {
        "name": "Cripagbene I",
        "what": "city",
        "region": "Bayelsa",
        "country": "Nigeria",
        "lat": 5.01,
        "long": 6.22,
        "elev ft": 295,
        "pop est": 25269
    },
    {
        "name": "Cripagbene II",
        "what": "city",
        "region": "Bayelsa",
        "country": "Nigeria",
        "lat": 5.01,
        "long": 6.22,
        "elev ft": 347,
        "pop est": 25269
    },
    {
        "name": "Dabasuogbene",
        "what": "city",
        "region": "Bayelsa",
        "country": "Nigeria",
        "lat": 4.58,
        "long": 5.71,
        "elev ft": 830,
        "pop est": 13947
    },
    {
        "name": "Dagana-Gbene",
        "what": "city",
        "region": "Bayelsa",
        "country": "Nigeria",
        "lat": 5.02,
        "long": 6.12,
        "elev ft": 328,
        "pop est": 21814
    },
    {
        "name": "Daganagbene",
        "what": "city",
        "region": "Bayelsa",
        "country": "Nigeria",
        "lat": 5.01,
        "long": 6.12,
        "elev ft": 328,
        "pop est": 21012
    },
    {
        "name": "Dankarogbene",
        "what": "city",
        "region": "Bayelsa",
        "country": "Nigeria",
        "lat": 4.54,
        "long": 5.72,
        "elev ft": 830,
        "pop est": 11113
    },
    {
        "name": "Dankorugbene",
        "what": "city",
        "region": "Bayelsa",
        "country": "Nigeria",
        "lat": 4.54,
        "long": 5.72,
        "elev ft": 830,
        "pop est": 11113
    },
    {
        "name": "Diaghegbene",
        "what": "city",
        "region": "Bayelsa",
        "country": "Nigeria",
        "lat": 4.77,
        "long": 5.77,
        "elev ft": 830,
        "pop est": 15347
    },
    {
        "name": "Diebor",
        "what": "city",
        "region": "Bayelsa",
        "country": "Nigeria",
        "lat": 4.87,
        "long": 5.48,
        "elev ft": 334,
        "pop est": 7639
    },
    {
        "name": "Diebu",
        "what": "city",
        "region": "Bayelsa",
        "country": "Nigeria",
        "lat": 4.62,
        "long": 6.13,
        "elev ft": 203,
        "pop est": 17670
    },
    {
        "name": "Diema",
        "what": "city",
        "region": "Bayelsa",
        "country": "Nigeria",
        "lat": 4.3,
        "long": 6.33,
        "elev ft": 0,
        "pop est": 11933
    },
    {
        "name": "Dikimatubu",
        "what": "city",
        "region": "Bayelsa",
        "country": "Nigeria",
        "lat": 4.3,
        "long": 6.28,
        "elev ft": 0,
        "pop est": 12646
    },
    {
        "name": "Dilagbene",
        "what": "city",
        "region": "Bayelsa",
        "country": "Nigeria",
        "lat": 4.81,
        "long": 5.61,
        "elev ft": 830,
        "pop est": 14172
    },
    {
        "name": "Dirikigbene",
        "what": "city",
        "region": "Bayelsa",
        "country": "Nigeria",
        "lat": 4.92,
        "long": 5.69,
        "elev ft": 830,
        "pop est": 13410
    },
    {
        "name": "Dodionogbene",
        "what": "city",
        "region": "Bayelsa",
        "country": "Nigeria",
        "lat": 4.81,
        "long": 5.57,
        "elev ft": 830,
        "pop est": 13762
    },
    {
        "name": "Dokothegbene",
        "what": "city",
        "region": "Bayelsa",
        "country": "Nigeria",
        "lat": 4.96,
        "long": 5.61,
        "elev ft": 334,
        "pop est": 13410
    },
    {
        "name": "Douglasgbene",
        "what": "city",
        "region": "Bayelsa",
        "country": "Nigeria",
        "lat": 4.58,
        "long": 5.7,
        "elev ft": 830,
        "pop est": 12494
    },
    {
        "name": "Dubagbene",
        "what": "city",
        "region": "Bayelsa",
        "country": "Nigeria",
        "lat": 4.4,
        "long": 5.87,
        "elev ft": 830,
        "pop est": 10976
    },
    {
        "name": "Dubagbene",
        "what": "city",
        "region": "Bayelsa",
        "country": "Nigeria",
        "lat": 4.41,
        "long": 5.85,
        "elev ft": 0,
        "pop est": 9720
    },
    {
        "name": "Dugbagbene",
        "what": "city",
        "region": "Bayelsa",
        "country": "Nigeria",
        "lat": 4.41,
        "long": 5.9,
        "elev ft": 879,
        "pop est": 15964
    },
    {
        "name": "Dukegbene",
        "what": "city",
        "region": "Bayelsa",
        "country": "Nigeria",
        "lat": 4.58,
        "long": 5.72,
        "elev ft": 830,
        "pop est": 14534
    },
    {
        "name": "Duokungbene",
        "what": "city",
        "region": "Bayelsa",
        "country": "Nigeria",
        "lat": 4.41,
        "long": 6.04,
        "elev ft": 219,
        "pop est": 21903
    },
    {
        "name": "Ebasikiri",
        "what": "city",
        "region": "Bayelsa",
        "country": "Nigeria",
        "lat": 4.39,
        "long": 6.26,
        "elev ft": 275,
        "pop est": 21903
    },
    {
        "name": "Ebatimagbene",
        "what": "city",
        "region": "Bayelsa",
        "country": "Nigeria",
        "lat": 4.76,
        "long": 5.76,
        "elev ft": 830,
        "pop est": 15347
    },
    {
        "name": "Ebedebri",
        "what": "city",
        "region": "Bayelsa",
        "country": "Nigeria",
        "lat": 5.14,
        "long": 6.08,
        "elev ft": 357,
        "pop est": 42685
    },
    {
        "name": "Ebekiri",
        "what": "city",
        "region": "Bayelsa",
        "country": "Nigeria",
        "lat": 4.42,
        "long": 6.33,
        "elev ft": 1213,
        "pop est": 21903
    },
    {
        "name": "Ebelibri",
        "what": "city",
        "region": "Bayelsa",
        "country": "Nigeria",
        "lat": 4.93,
        "long": 6.42,
        "elev ft": 830,
        "pop est": 29523
    },
    {
        "name": "Ebeziba",
        "what": "city",
        "region": "Bayelsa",
        "country": "Nigeria",
        "lat": 4.92,
        "long": 5.82,
        "elev ft": 830,
        "pop est": 13410
    },
    {
        "name": "Ebidargbene",
        "what": "city",
        "region": "Bayelsa",
        "country": "Nigeria",
        "lat": 4.45,
        "long": 5.86,
        "elev ft": 830,
        "pop est": 13311
    },
    {
        "name": "Ebidorgbene",
        "what": "city",
        "region": "Bayelsa",
        "country": "Nigeria",
        "lat": 4.46,
        "long": 5.8,
        "elev ft": 314,
        "pop est": 9502
    },
    {
        "name": "Ebigbene",
        "what": "city",
        "region": "Bayelsa",
        "country": "Nigeria",
        "lat": 4.99,
        "long": 5.69,
        "elev ft": 374,
        "pop est": 13337
    },
    {
        "name": "Ebikagbene",
        "what": "city",
        "region": "Bayelsa",
        "country": "Nigeria",
        "lat": 4.99,
        "long": 5.79,
        "elev ft": 830,
        "pop est": 13402
    },
    {
        "name": "Ebikogbene",
        "what": "city",
        "region": "Bayelsa",
        "country": "Nigeria",
        "lat": 4.99,
        "long": 5.79,
        "elev ft": 830,
        "pop est": 13402
    },
    {
        "name": "Ebimi-Igwe",
        "what": "city",
        "region": "Bayelsa",
        "country": "Nigeria",
        "lat": 4.94,
        "long": 5.62,
        "elev ft": 334,
        "pop est": 13410
    },
    {
        "name": "Ebinuolapo",
        "what": "city",
        "region": "Bayelsa",
        "country": "Nigeria",
        "lat": 4.83,
        "long": 5.49,
        "elev ft": 374,
        "pop est": 7739
    },
    {
        "name": "Eboakiri",
        "what": "city",
        "region": "Bayelsa",
        "country": "Nigeria",
        "lat": 4.44,
        "long": 6.44,
        "elev ft": 866,
        "pop est": 19172
    },
    {
        "name": "Edeborikiri",
        "what": "city",
        "region": "Bayelsa",
        "country": "Nigeria",
        "lat": 4.43,
        "long": 6.09,
        "elev ft": 216,
        "pop est": 21903
    },
    {
        "name": "Eekemegbene",
        "what": "city",
        "region": "Bayelsa",
        "country": "Nigeria",
        "lat": 4.83,
        "long": 5.54,
        "elev ft": 334,
        "pop est": 13040
    },
    {
        "name": "Egbedama",
        "what": "city",
        "region": "Bayelsa",
        "country": "Nigeria",
        "lat": 4.77,
        "long": 6.24,
        "elev ft": 282,
        "pop est": 21903
    },
    {
        "name": "Egbedeama",
        "what": "city",
        "region": "Bayelsa",
        "country": "Nigeria",
        "lat": 4.77,
        "long": 6.24,
        "elev ft": 282,
        "pop est": 21903
    },
    {
        "name": "Egbedi",
        "what": "city",
        "region": "Bayelsa",
        "country": "Nigeria",
        "lat": 5.02,
        "long": 6.2,
        "elev ft": 377,
        "pop est": 25187
    },
    {
        "name": "Egbediama",
        "what": "city",
        "region": "Bayelsa",
        "country": "Nigeria",
        "lat": 4.85,
        "long": 5.75,
        "elev ft": 830,
        "pop est": 14150
    },
    {
        "name": "Egbekumogbene",
        "what": "city",
        "region": "Bayelsa",
        "country": "Nigeria",
        "lat": 4.96,
        "long": 5.54,
        "elev ft": 334,
        "pop est": 13410
    },
    {
        "name": "Egbelepuo",
        "what": "city",
        "region": "Bayelsa",
        "country": "Nigeria",
        "lat": 4.4,
        "long": 6.03,
        "elev ft": 219,
        "pop est": 21903
    },
    {
        "name": "Egbelotobo",
        "what": "city",
        "region": "Bayelsa",
        "country": "Nigeria",
        "lat": 4.79,
        "long": 5.55,
        "elev ft": 830,
        "pop est": 11646
    },
    {
        "name": "Egbemangalabiri",
        "what": "city",
        "region": "Bayelsa",
        "country": "Nigeria",
        "lat": 4.88,
        "long": 5.78,
        "elev ft": 830,
        "pop est": 13500
    },
    {
        "name": "Egbemangalabiri",
        "what": "city",
        "region": "Bayelsa",
        "country": "Nigeria",
        "lat": 4.92,
        "long": 5.82,
        "elev ft": 830,
        "pop est": 13410
    },
    {
        "name": "Egbemangalabiri-Market",
        "what": "city",
        "region": "Bayelsa",
        "country": "Nigeria",
        "lat": 4.89,
        "long": 5.82,
        "elev ft": 830,
        "pop est": 13676
    },
    {
        "name": "Egbemangalabiri-Market",
        "what": "city",
        "region": "Bayelsa",
        "country": "Nigeria",
        "lat": 4.88,
        "long": 5.78,
        "elev ft": 830,
        "pop est": 13500
    },
    {
        "name": "Egbemigbene",
        "what": "city",
        "region": "Bayelsa",
        "country": "Nigeria",
        "lat": 5.0,
        "long": 5.9,
        "elev ft": 830,
        "pop est": 13445
    },
    {
        "name": "Egbemo Angalabri",
        "what": "city",
        "region": "Bayelsa",
        "country": "Nigeria",
        "lat": 4.88,
        "long": 5.78,
        "elev ft": 830,
        "pop est": 13500
    },
    {
        "name": "Egbemo-Angalabri",
        "what": "city",
        "region": "Bayelsa",
        "country": "Nigeria",
        "lat": 4.92,
        "long": 5.82,
        "elev ft": 830,
        "pop est": 13410
    },
    {
        "name": "Egbenegbene",
        "what": "city",
        "region": "Bayelsa",
        "country": "Nigeria",
        "lat": 5.07,
        "long": 5.82,
        "elev ft": 236,
        "pop est": 13224
    },
    {
        "name": "Egbepulugbene",
        "what": "city",
        "region": "Bayelsa",
        "country": "Nigeria",
        "lat": 4.85,
        "long": 6.03,
        "elev ft": 387,
        "pop est": 17620
    },
    {
        "name": "Egberilugu",
        "what": "city",
        "region": "Bayelsa",
        "country": "Nigeria",
        "lat": 4.3,
        "long": 6.04,
        "elev ft": 0,
        "pop est": 10310
    },
    {
        "name": "Egberime I",
        "what": "city",
        "region": "Bayelsa",
        "country": "Nigeria",
        "lat": 4.72,
        "long": 5.61,
        "elev ft": 830,
        "pop est": 15133
    },
    {
        "name": "Egberime II",
        "what": "city",
        "region": "Bayelsa",
        "country": "Nigeria",
        "lat": 4.72,
        "long": 5.62,
        "elev ft": 830,
        "pop est": 15344
    },
    {
        "name": "Egbidiama",
        "what": "city",
        "region": "Bayelsa",
        "country": "Nigeria",
        "lat": 4.89,
        "long": 5.82,
        "elev ft": 830,
        "pop est": 13676
    },
    {
        "name": "Egbidiama-Market",
        "what": "city",
        "region": "Bayelsa",
        "country": "Nigeria",
        "lat": 4.89,
        "long": 5.82,
        "elev ft": 830,
        "pop est": 13676
    },
    {
        "name": "Egbidiama-Market",
        "what": "city",
        "region": "Bayelsa",
        "country": "Nigeria",
        "lat": 4.88,
        "long": 5.78,
        "elev ft": 830,
        "pop est": 13500
    },
    {
        "name": "Egbomatoro",
        "what": "city",
        "region": "Bayelsa",
        "country": "Nigeria",
        "lat": 4.55,
        "long": 6.03,
        "elev ft": 830,
        "pop est": 17275
    },
    {
        "name": "Egbusuware",
        "what": "city",
        "region": "Bayelsa",
        "country": "Nigeria",
        "lat": 5.03,
        "long": 5.86,
        "elev ft": 295,
        "pop est": 13392
    },
    {
        "name": "Egdedi",
        "what": "city",
        "region": "Bayelsa",
        "country": "Nigeria",
        "lat": 5.02,
        "long": 6.2,
        "elev ft": 377,
        "pop est": 25187
    },
    {
        "name": "Egedekiri",
        "what": "city",
        "region": "Bayelsa",
        "country": "Nigeria",
        "lat": 4.33,
        "long": 6.32,
        "elev ft": 830,
        "pop est": 17856
    },
    {
        "name": "Egelama",
        "what": "city",
        "region": "Bayelsa",
        "country": "Nigeria",
        "lat": 4.75,
        "long": 6.4,
        "elev ft": 830,
        "pop est": 24156
    },
    {
        "name": "Egeleama",
        "what": "city",
        "region": "Bayelsa",
        "country": "Nigeria",
        "lat": 4.75,
        "long": 6.4,
        "elev ft": 830,
        "pop est": 24156
    },
    {
        "name": "Egelefie",
        "what": "city",
        "region": "Bayelsa",
        "country": "Nigeria",
        "lat": 4.32,
        "long": 6.17,
        "elev ft": 282,
        "pop est": 19470
    },
    {
        "name": "Egenelego",
        "what": "city",
        "region": "Bayelsa",
        "country": "Nigeria",
        "lat": 4.58,
        "long": 6.43,
        "elev ft": 1669,
        "pop est": 21896
    },
    {
        "name": "Egenkiri",
        "what": "city",
        "region": "Bayelsa",
        "country": "Nigeria",
        "lat": 4.41,
        "long": 6.34,
        "elev ft": 275,
        "pop est": 21903
    },
    {
        "name": "Egeregere",
        "what": "city",
        "region": "Bayelsa",
        "country": "Nigeria",
        "lat": 4.31,
        "long": 6.16,
        "elev ft": 305,
        "pop est": 17990
    },
    {
        "name": "Egwema",
        "what": "city",
        "region": "Bayelsa",
        "country": "Nigeria",
        "lat": 4.31,
        "long": 6.19,
        "elev ft": 282,
        "pop est": 17194
    },
    {
        "name": "Egwema",
        "what": "city",
        "region": "Bayelsa",
        "country": "Nigeria",
        "lat": 4.29,
        "long": 6.19,
        "elev ft": 0,
        "pop est": 11378
    },
    {
        "name": "Egwema Pogu",
        "what": "city",
        "region": "Bayelsa",
        "country": "Nigeria",
        "lat": 4.31,
        "long": 6.19,
        "elev ft": 282,
        "pop est": 17194
    },
    {
        "name": "Ehikeni",
        "what": "city",
        "region": "Bayelsa",
        "country": "Nigeria",
        "lat": 4.69,
        "long": 5.57,
        "elev ft": 830,
        "pop est": 8243
    },
    {
        "name": "Ekanakiri",
        "what": "city",
        "region": "Bayelsa",
        "country": "Nigeria",
        "lat": 4.43,
        "long": 6.32,
        "elev ft": 275,
        "pop est": 21903
    },
    {
        "name": "Ekau",
        "what": "city",
        "region": "Bayelsa",
        "country": "Nigeria",
        "lat": 4.7,
        "long": 6.09,
        "elev ft": 282,
        "pop est": 15347
    },
    {
        "name": "Ekeke",
        "what": "city",
        "region": "Bayelsa",
        "country": "Nigeria",
        "lat": 4.93,
        "long": 6.3,
        "elev ft": 830,
        "pop est": 24622
    },
    {
        "name": "Ekemakiri",
        "what": "city",
        "region": "Bayelsa",
        "country": "Nigeria",
        "lat": 4.43,
        "long": 6.32,
        "elev ft": 275,
        "pop est": 21903
    },
    {
        "name": "Ekembagbene",
        "what": "city",
        "region": "Bayelsa",
        "country": "Nigeria",
        "lat": 4.79,
        "long": 5.67,
        "elev ft": 830,
        "pop est": 14955
    },
    {
        "name": "Ekeme",
        "what": "city",
        "region": "Bayelsa",
        "country": "Nigeria",
        "lat": 4.69,
        "long": 5.57,
        "elev ft": 830,
        "pop est": 8243
    },
    {
        "name": "Ekene",
        "what": "city",
        "region": "Bayelsa",
        "country": "Nigeria",
        "lat": 4.69,
        "long": 5.57,
        "elev ft": 830,
        "pop est": 8243
    },
    {
        "name": "Ekenfa",
        "what": "city",
        "region": "Bayelsa",
        "country": "Nigeria",
        "lat": 5.0,
        "long": 6.38,
        "elev ft": 830,
        "pop est": 28860
    },
    {
        "name": "Ekengbene",
        "what": "city",
        "region": "Bayelsa",
        "country": "Nigeria",
        "lat": 4.99,
        "long": 5.68,
        "elev ft": 380,
        "pop est": 13340
    },
    {
        "name": "Ekeni",
        "what": "city",
        "region": "Bayelsa",
        "country": "Nigeria",
        "lat": 4.69,
        "long": 5.57,
        "elev ft": 830,
        "pop est": 8243
    },
    {
        "name": "Ekenie",
        "what": "city",
        "region": "Bayelsa",
        "country": "Nigeria",
        "lat": 4.69,
        "long": 5.57,
        "elev ft": 830,
        "pop est": 8243
    },
    {
        "name": "Ekeogbene",
        "what": "city",
        "region": "Bayelsa",
        "country": "Nigeria",
        "lat": 4.69,
        "long": 5.73,
        "elev ft": 830,
        "pop est": 15347
    },
    {
        "name": "Ekeremo",
        "what": "city",
        "region": "Bayelsa",
        "country": "Nigeria",
        "lat": 5.06,
        "long": 5.78,
        "elev ft": 167,
        "pop est": 13211
    },
    {
        "name": "Ekeremor",
        "what": "city",
        "region": "Bayelsa",
        "country": "Nigeria",
        "lat": 5.06,
        "long": 5.78,
        "elev ft": 167,
        "pop est": 13211
    },
    {
        "name": "Ekernakiri",
        "what": "city",
        "region": "Bayelsa",
        "country": "Nigeria",
        "lat": 4.43,
        "long": 6.32,
        "elev ft": 275,
        "pop est": 21903
    },
    {
        "name": "Ekesitoko",
        "what": "city",
        "region": "Bayelsa",
        "country": "Nigeria",
        "lat": 4.55,
        "long": 6.38,
        "elev ft": 1669,
        "pop est": 21903
    },
    {
        "name": "Ekeu",
        "what": "city",
        "region": "Bayelsa",
        "country": "Nigeria",
        "lat": 4.7,
        "long": 6.09,
        "elev ft": 282,
        "pop est": 15347
    },
    {
        "name": "Ekiambiri",
        "what": "city",
        "region": "Bayelsa",
        "country": "Nigeria",
        "lat": 4.67,
        "long": 6.1,
        "elev ft": 187,
        "pop est": 15347
    },
    {
        "name": "Ekinigbene",
        "what": "city",
        "region": "Bayelsa",
        "country": "Nigeria",
        "lat": 4.68,
        "long": 5.68,
        "elev ft": 830,
        "pop est": 15347
    },
    {
        "name": "Ekow",
        "what": "city",
        "region": "Bayelsa",
        "country": "Nigeria",
        "lat": 4.7,
        "long": 6.09,
        "elev ft": 282,
        "pop est": 15347
    },
    {
        "name": "Ekowe",
        "what": "city",
        "region": "Bayelsa",
        "country": "Nigeria",
        "lat": 4.7,
        "long": 6.09,
        "elev ft": 282,
        "pop est": 15347
    },
    {
        "name": "Ekpeinbiri",
        "what": "city",
        "region": "Bayelsa",
        "country": "Nigeria",
        "lat": 4.69,
        "long": 6.24,
        "elev ft": 282,
        "pop est": 21903
    },
    {
        "name": "Ekperigadagbene",
        "what": "city",
        "region": "Bayelsa",
        "country": "Nigeria",
        "lat": 4.8,
        "long": 6.0,
        "elev ft": 314,
        "pop est": 15631
    },
    {
        "name": "Ekperikiri",
        "what": "city",
        "region": "Bayelsa",
        "country": "Nigeria",
        "lat": 4.69,
        "long": 6.24,
        "elev ft": 282,
        "pop est": 21903
    },
    {
        "name": "Ekperikiri",
        "what": "city",
        "region": "Bayelsa",
        "country": "Nigeria",
        "lat": 4.64,
        "long": 6.29,
        "elev ft": 357,
        "pop est": 21903
    },
    {
        "name": "Ekpikakiri",
        "what": "city",
        "region": "Bayelsa",
        "country": "Nigeria",
        "lat": 4.47,
        "long": 6.51,
        "elev ft": 318,
        "pop est": 14403
    },
    {
        "name": "Elebele",
        "what": "city",
        "region": "Bayelsa",
        "country": "Nigeria",
        "lat": 4.86,
        "long": 6.34,
        "elev ft": 830,
        "pop est": 23597
    },
    {
        "name": "Elemuama",
        "what": "city",
        "region": "Bayelsa",
        "country": "Nigeria",
        "lat": 4.62,
        "long": 6.44,
        "elev ft": 830,
        "pop est": 20576
    },
    {
        "name": "Elepa",
        "what": "city",
        "region": "Bayelsa",
        "country": "Nigeria",
        "lat": 4.42,
        "long": 6.2,
        "elev ft": 282,
        "pop est": 21903
    },
    {
        "name": "Elogiama",
        "what": "city",
        "region": "Bayelsa",
        "country": "Nigeria",
        "lat": 4.66,
        "long": 6.23,
        "elev ft": 282,
        "pop est": 21903
    },
    {
        "name": "Emblama",
        "what": "city",
        "region": "Bayelsa",
        "country": "Nigeria",
        "lat": 5.17,
        "long": 6.3,
        "elev ft": 180,
        "pop est": 24384
    },
    {
        "name": "Emele",
        "what": "city",
        "region": "Bayelsa",
        "country": "Nigeria",
        "lat": 4.58,
        "long": 6.51,
        "elev ft": 367,
        "pop est": 14513
    },
    {
        "name": "Emette",
        "what": "city",
        "region": "Bayelsa",
        "country": "Nigeria",
        "lat": 4.74,
        "long": 6.19,
        "elev ft": 830,
        "pop est": 20525
    },
    {
        "name": "Emiemukumo",
        "what": "city",
        "region": "Bayelsa",
        "country": "Nigeria",
        "lat": 4.82,
        "long": 5.56,
        "elev ft": 830,
        "pop est": 13645
    },
    {
        "name": "Emiemukumogbene",
        "what": "city",
        "region": "Bayelsa",
        "country": "Nigeria",
        "lat": 4.82,
        "long": 5.54,
        "elev ft": 830,
        "pop est": 12430
    },
    {
        "name": "Eminiama",
        "what": "city",
        "region": "Bayelsa",
        "country": "Nigeria",
        "lat": 4.65,
        "long": 6.27,
        "elev ft": 830,
        "pop est": 21903
    },
    {
        "name": "Emuema",
        "what": "city",
        "region": "Bayelsa",
        "country": "Nigeria",
        "lat": 4.74,
        "long": 6.56,
        "elev ft": 242,
        "pop est": 24588
    },
    {
        "name": "Enienemgram",
        "what": "city",
        "region": "Bayelsa",
        "country": "Nigeria",
        "lat": 4.88,
        "long": 5.66,
        "elev ft": 830,
        "pop est": 13496
    },
    {
        "name": "Eniwari",
        "what": "city",
        "region": "Bayelsa",
        "country": "Nigeria",
        "lat": 4.74,
        "long": 6.13,
        "elev ft": 200,
        "pop est": 16465
    },
    {
        "name": "Enockgbene",
        "what": "city",
        "region": "Bayelsa",
        "country": "Nigeria",
        "lat": 4.78,
        "long": 5.62,
        "elev ft": 830,
        "pop est": 14731
    },
    {
        "name": "Enuku",
        "what": "city",
        "region": "Bayelsa",
        "country": "Nigeria",
        "lat": 4.81,
        "long": 5.6,
        "elev ft": 830,
        "pop est": 14015
    },
    {
        "name": "Enukugbene",
        "what": "city",
        "region": "Bayelsa",
        "country": "Nigeria",
        "lat": 4.82,
        "long": 5.61,
        "elev ft": 830,
        "pop est": 13950
    },
    {
        "name": "Enuwari",
        "what": "city",
        "region": "Bayelsa",
        "country": "Nigeria",
        "lat": 4.74,
        "long": 6.13,
        "elev ft": 200,
        "pop est": 16465
    },
    {
        "name": "Enyumuama",
        "what": "city",
        "region": "Bayelsa",
        "country": "Nigeria",
        "lat": 4.6,
        "long": 6.42,
        "elev ft": 1243,
        "pop est": 21857
    },
    {
        "name": "Epelpelbeleo",
        "what": "city",
        "region": "Bayelsa",
        "country": "Nigeria",
        "lat": 4.29,
        "long": 6.06,
        "elev ft": 0,
        "pop est": 9572
    },
    {
        "name": "Eputukiri",
        "what": "city",
        "region": "Bayelsa",
        "country": "Nigeria",
        "lat": 4.39,
        "long": 6.14,
        "elev ft": 236,
        "pop est": 21903
    },
    {
        "name": "Erebi",
        "what": "city",
        "region": "Bayelsa",
        "country": "Nigeria",
        "lat": 4.7,
        "long": 5.75,
        "elev ft": 830,
        "pop est": 15347
    },
    {
        "name": "Erebugbene",
        "what": "city",
        "region": "Bayelsa",
        "country": "Nigeria",
        "lat": 4.62,
        "long": 5.65,
        "elev ft": 830,
        "pop est": 12306
    },
    {
        "name": "Erereghakiri",
        "what": "city",
        "region": "Bayelsa",
        "country": "Nigeria",
        "lat": 4.36,
        "long": 6.39,
        "elev ft": 1230,
        "pop est": 20476
    },
    {
        "name": "Ereweibio",
        "what": "city",
        "region": "Bayelsa",
        "country": "Nigeria",
        "lat": 4.33,
        "long": 6.03,
        "elev ft": 830,
        "pop est": 16907
    },
    {
        "name": "Ereyefeyre",
        "what": "city",
        "region": "Bayelsa",
        "country": "Nigeria",
        "lat": 4.86,
        "long": 5.48,
        "elev ft": 334,
        "pop est": 7639
    },
    {
        "name": "Etebregbene",
        "what": "city",
        "region": "Bayelsa",
        "country": "Nigeria",
        "lat": 4.94,
        "long": 5.53,
        "elev ft": 344,
        "pop est": 13410
    },
    {
        "name": "Etemere",
        "what": "city",
        "region": "Bayelsa",
        "country": "Nigeria",
        "lat": 4.73,
        "long": 5.74,
        "elev ft": 830,
        "pop est": 15347
    },
    {
        "name": "Etiema",
        "what": "city",
        "region": "Bayelsa",
        "country": "Nigeria",
        "lat": 4.56,
        "long": 6.37,
        "elev ft": 1669,
        "pop est": 21903
    },
    {
        "name": "Etikagbene",
        "what": "city",
        "region": "Bayelsa",
        "country": "Nigeria",
        "lat": 4.88,
        "long": 5.58,
        "elev ft": 416,
        "pop est": 13410
    },
    {
        "name": "Etuenigbene",
        "what": "city",
        "region": "Bayelsa",
        "country": "Nigeria",
        "lat": 4.3,
        "long": 6.06,
        "elev ft": 213,
        "pop est": 12031
    },
    {
        "name": "Etukegbene",
        "what": "city",
        "region": "Bayelsa",
        "country": "Nigeria",
        "lat": 4.5,
        "long": 5.96,
        "elev ft": 984,
        "pop est": 17217
    },
    {
        "name": "Eturegbene",
        "what": "city",
        "region": "Bayelsa",
        "country": "Nigeria",
        "lat": 4.5,
        "long": 5.96,
        "elev ft": 984,
        "pop est": 17217
    },
    {
        "name": "Ewelesua",
        "what": "city",
        "region": "Bayelsa",
        "country": "Nigeria",
        "lat": 4.47,
        "long": 6.29,
        "elev ft": 311,
        "pop est": 21903
    },
    {
        "name": "Ewelesuo",
        "what": "city",
        "region": "Bayelsa",
        "country": "Nigeria",
        "lat": 4.47,
        "long": 6.29,
        "elev ft": 311,
        "pop est": 21903
    },
    {
        "name": "Ewelsuo",
        "what": "city",
        "region": "Bayelsa",
        "country": "Nigeria",
        "lat": 4.47,
        "long": 6.29,
        "elev ft": 311,
        "pop est": 21903
    },
    {
        "name": "Ewelusa",
        "what": "city",
        "region": "Bayelsa",
        "country": "Nigeria",
        "lat": 4.47,
        "long": 6.29,
        "elev ft": 311,
        "pop est": 21903
    },
    {
        "name": "Ewoama",
        "what": "city",
        "region": "Bayelsa",
        "country": "Nigeria",
        "lat": 4.31,
        "long": 6.27,
        "elev ft": 830,
        "pop est": 14979
    },
    {
        "name": "Ewoi",
        "what": "city",
        "region": "Bayelsa",
        "country": "Nigeria",
        "lat": 4.76,
        "long": 6.29,
        "elev ft": 830,
        "pop est": 21903
    },
    {
        "name": "Ewokiri",
        "what": "city",
        "region": "Bayelsa",
        "country": "Nigeria",
        "lat": 4.57,
        "long": 6.35,
        "elev ft": 1669,
        "pop est": 21903
    },
    {
        "name": "Ewokiri",
        "what": "city",
        "region": "Bayelsa",
        "country": "Nigeria",
        "lat": 4.61,
        "long": 6.28,
        "elev ft": 830,
        "pop est": 21903
    },
    {
        "name": "Eyefikebenagbene",
        "what": "city",
        "region": "Bayelsa",
        "country": "Nigeria",
        "lat": 4.91,
        "long": 5.59,
        "elev ft": 374,
        "pop est": 13410
    },
    {
        "name": "Ezalkiri",
        "what": "city",
        "region": "Bayelsa",
        "country": "Nigeria",
        "lat": 4.73,
        "long": 6.54,
        "elev ft": 246,
        "pop est": 23093
    },
    {
        "name": "Ezeotu",
        "what": "city",
        "region": "Bayelsa",
        "country": "Nigeria",
        "lat": 4.71,
        "long": 5.56,
        "elev ft": 830,
        "pop est": 8491
    },
    {
        "name": "Ezeotu-Zion",
        "what": "city",
        "region": "Bayelsa",
        "country": "Nigeria",
        "lat": 4.72,
        "long": 5.58,
        "elev ft": 830,
        "pop est": 11524
    },
    {
        "name": "Ezetu",
        "what": "city",
        "region": "Bayelsa",
        "country": "Nigeria",
        "lat": 4.71,
        "long": 5.56,
        "elev ft": 830,
        "pop est": 8491
    },
    {
        "name": "Falafagbene",
        "what": "city",
        "region": "Bayelsa",
        "country": "Nigeria",
        "lat": 5.13,
        "long": 6.12,
        "elev ft": 305,
        "pop est": 34261
    },
    {
        "name": "Fangbe",
        "what": "city",
        "region": "Bayelsa",
        "country": "Nigeria",
        "lat": 4.93,
        "long": 6.25,
        "elev ft": 269,
        "pop est": 25159
    },
    {
        "name": "Fantuo",
        "what": "city",
        "region": "Bayelsa",
        "country": "Nigeria",
        "lat": 4.38,
        "long": 6.32,
        "elev ft": 1056,
        "pop est": 21903
    },
    {
        "name": "Fati-Camp",
        "what": "city",
        "region": "Bayelsa",
        "country": "Nigeria",
        "lat": 5.06,
        "long": 6.07,
        "elev ft": 301,
        "pop est": 21305
    },
    {
        "name": "Fekorukiri",
        "what": "city",
        "region": "Bayelsa",
        "country": "Nigeria",
        "lat": 4.73,
        "long": 6.59,
        "elev ft": 285,
        "pop est": 21670
    },
    {
        "name": "Femi Camp",
        "what": "city",
        "region": "Bayelsa",
        "country": "Nigeria",
        "lat": 4.94,
        "long": 5.45,
        "elev ft": 374,
        "pop est": 7342
    },
    {
        "name": "Fenenegbene",
        "what": "city",
        "region": "Bayelsa",
        "country": "Nigeria",
        "lat": 4.65,
        "long": 5.74,
        "elev ft": 830,
        "pop est": 15347
    },
    {
        "name": "Feseigbene",
        "what": "city",
        "region": "Bayelsa",
        "country": "Nigeria",
        "lat": 4.82,
        "long": 5.57,
        "elev ft": 334,
        "pop est": 13762
    },
    {
        "name": "Fewaritimi",
        "what": "city",
        "region": "Bayelsa",
        "country": "Nigeria",
        "lat": 4.36,
        "long": 6.07,
        "elev ft": 209,
        "pop est": 21903
    },
    {
        "name": "Fezighagbene",
        "what": "city",
        "region": "Bayelsa",
        "country": "Nigeria",
        "lat": 4.9,
        "long": 5.53,
        "elev ft": 344,
        "pop est": 13410
    },
    {
        "name": "Fiebotegbene",
        "what": "city",
        "region": "Bayelsa",
        "country": "Nigeria",
        "lat": 4.6,
        "long": 5.89,
        "elev ft": 830,
        "pop est": 15347
    },
    {
        "name": "Fiesigbene",
        "what": "city",
        "region": "Bayelsa",
        "country": "Nigeria",
        "lat": 4.75,
        "long": 5.65,
        "elev ft": 830,
        "pop est": 15343
    },
    {
        "name": "Fikorukiri",
        "what": "city",
        "region": "Bayelsa",
        "country": "Nigeria",
        "lat": 4.62,
        "long": 6.42,
        "elev ft": 958,
        "pop est": 21792
    },
    {
        "name": "Findeoprikiri",
        "what": "city",
        "region": "Bayelsa",
        "country": "Nigeria",
        "lat": 4.34,
        "long": 6.4,
        "elev ft": 0,
        "pop est": 15634
    },
    {
        "name": "Fine Yellowgbene",
        "what": "city",
        "region": "Bayelsa",
        "country": "Nigeria",
        "lat": 4.93,
        "long": 5.58,
        "elev ft": 334,
        "pop est": 13410
    },
    {
        "name": "Fingitekiri",
        "what": "city",
        "region": "Bayelsa",
        "country": "Nigeria",
        "lat": 4.32,
        "long": 6.33,
        "elev ft": 830,
        "pop est": 15859
    },
    {
        "name": "Focadosgbene",
        "what": "city",
        "region": "Bayelsa",
        "country": "Nigeria",
        "lat": 4.76,
        "long": 5.75,
        "elev ft": 830,
        "pop est": 15347
    },
    {
        "name": "Fonibiri",
        "what": "city",
        "region": "Bayelsa",
        "country": "Nigeria",
        "lat": 4.73,
        "long": 6.15,
        "elev ft": 180,
        "pop est": 17582
    },
    {
        "name": "Foniweitoro",
        "what": "city",
        "region": "Bayelsa",
        "country": "Nigeria",
        "lat": 4.4,
        "long": 5.85,
        "elev ft": 0,
        "pop est": 7642
    },
    {
        "name": "Forcadogbene",
        "what": "city",
        "region": "Bayelsa",
        "country": "Nigeria",
        "lat": 4.76,
        "long": 5.75,
        "elev ft": 830,
        "pop est": 15347
    },
    {
        "name": "Foropa",
        "what": "city",
        "region": "Bayelsa",
        "country": "Nigeria",
        "lat": 4.6,
        "long": 5.65,
        "elev ft": 830,
        "pop est": 10642
    },
    {
        "name": "Forupa",
        "what": "city",
        "region": "Bayelsa",
        "country": "Nigeria",
        "lat": 4.6,
        "long": 5.65,
        "elev ft": 830,
        "pop est": 10642
    },
    {
        "name": "Forupafor",
        "what": "city",
        "region": "Bayelsa",
        "country": "Nigeria",
        "lat": 4.57,
        "long": 5.7,
        "elev ft": 830,
        "pop est": 12359
    },
    {
        "name": "Fotorogbene",
        "what": "city",
        "region": "Bayelsa",
        "country": "Nigeria",
        "lat": 4.97,
        "long": 6.03,
        "elev ft": 344,
        "pop est": 20280
    },
    {
        "name": "Fotorugbene",
        "what": "city",
        "region": "Bayelsa",
        "country": "Nigeria",
        "lat": 4.97,
        "long": 6.03,
        "elev ft": 344,
        "pop est": 20280
    },
    {
        "name": "Fougbene",
        "what": "city",
        "region": "Bayelsa",
        "country": "Nigeria",
        "lat": 4.92,
        "long": 5.62,
        "elev ft": 410,
        "pop est": 13410
    },
    {
        "name": "Francis Gbene",
        "what": "city",
        "region": "Bayelsa",
        "country": "Nigeria",
        "lat": 5.06,
        "long": 6.12,
        "elev ft": 301,
        "pop est": 21546
    },
    {
        "name": "Friday",
        "what": "city",
        "region": "Bayelsa",
        "country": "Nigeria",
        "lat": 4.98,
        "long": 5.64,
        "elev ft": 337,
        "pop est": 13393
    },
    {
        "name": "Friday Camp",
        "what": "city",
        "region": "Bayelsa",
        "country": "Nigeria",
        "lat": 4.98,
        "long": 5.64,
        "elev ft": 337,
        "pop est": 13393
    },
    {
        "name": "Friday Eko",
        "what": "city",
        "region": "Bayelsa",
        "country": "Nigeria",
        "lat": 4.95,
        "long": 5.62,
        "elev ft": 334,
        "pop est": 13410
    },
    {
        "name": "Frupa",
        "what": "city",
        "region": "Bayelsa",
        "country": "Nigeria",
        "lat": 4.6,
        "long": 5.65,
        "elev ft": 830,
        "pop est": 10642
    },
    {
        "name": "Fumutorutu",
        "what": "city",
        "region": "Bayelsa",
        "country": "Nigeria",
        "lat": 4.48,
        "long": 5.97,
        "elev ft": 987,
        "pop est": 19293
    },
    {
        "name": "Funamatugbene",
        "what": "city",
        "region": "Bayelsa",
        "country": "Nigeria",
        "lat": 4.96,
        "long": 5.54,
        "elev ft": 334,
        "pop est": 13410
    },
    {
        "name": "Fungbene",
        "what": "city",
        "region": "Bayelsa",
        "country": "Nigeria",
        "lat": 4.63,
        "long": 5.74,
        "elev ft": 830,
        "pop est": 15347
    },
    {
        "name": "Funtorugbene",
        "what": "city",
        "region": "Bayelsa",
        "country": "Nigeria",
        "lat": 5.1,
        "long": 6.21,
        "elev ft": 226,
        "pop est": 23672
    },
    {
        "name": "Funumu",
        "what": "city",
        "region": "Bayelsa",
        "country": "Nigeria",
        "lat": 4.32,
        "long": 6.1,
        "elev ft": 229,
        "pop est": 17998
    },
    {
        "name": "Fununu",
        "what": "city",
        "region": "Bayelsa",
        "country": "Nigeria",
        "lat": 4.32,
        "long": 6.1,
        "elev ft": 229,
        "pop est": 17998
    },
    {
        "name": "Fuopogbene",
        "what": "city",
        "region": "Bayelsa",
        "country": "Nigeria",
        "lat": 5.09,
        "long": 6.03,
        "elev ft": 390,
        "pop est": 29898
    },
    {
        "name": "Gabrielgbene",
        "what": "city",
        "region": "Bayelsa",
        "country": "Nigeria",
        "lat": 4.93,
        "long": 5.58,
        "elev ft": 334,
        "pop est": 13410
    },
    {
        "name": "Galubakiri",
        "what": "city",
        "region": "Bayelsa",
        "country": "Nigeria",
        "lat": 4.48,
        "long": 6.25,
        "elev ft": 275,
        "pop est": 21903
    },
    {
        "name": "Ganigbene",
        "what": "city",
        "region": "Bayelsa",
        "country": "Nigeria",
        "lat": 4.39,
        "long": 5.86,
        "elev ft": 0,
        "pop est": 8750
    },
    {
        "name": "Gbaboregbene",
        "what": "city",
        "region": "Bayelsa",
        "country": "Nigeria",
        "lat": 5.08,
        "long": 5.79,
        "elev ft": 104,
        "pop est": 13152
    },
    {
        "name": "Gbaghagbene",
        "what": "city",
        "region": "Bayelsa",
        "country": "Nigeria",
        "lat": 4.97,
        "long": 5.52,
        "elev ft": 354,
        "pop est": 13410
    },
    {
        "name": "Gbapugbene",
        "what": "city",
        "region": "Bayelsa",
        "country": "Nigeria",
        "lat": 4.83,
        "long": 5.57,
        "elev ft": 416,
        "pop est": 13504
    },
    {
        "name": "Gbarama",
        "what": "city",
        "region": "Bayelsa",
        "country": "Nigeria",
        "lat": 5.07,
        "long": 6.29,
        "elev ft": 213,
        "pop est": 25193
    },
    {
        "name": "Gbaran",
        "what": "city",
        "region": "Bayelsa",
        "country": "Nigeria",
        "lat": 4.79,
        "long": 5.89,
        "elev ft": 830,
        "pop est": 15347
    },
    {
        "name": "Gbaran",
        "what": "city",
        "region": "Bayelsa",
        "country": "Nigeria",
        "lat": 4.77,
        "long": 5.87,
        "elev ft": 830,
        "pop est": 15347
    },
    {
        "name": "Gbaran-Market",
        "what": "city",
        "region": "Bayelsa",
        "country": "Nigeria",
        "lat": 4.77,
        "long": 5.87,
        "elev ft": 830,
        "pop est": 15347
    },
    {
        "name": "Gbaranbiri",
        "what": "city",
        "region": "Bayelsa",
        "country": "Nigeria",
        "lat": 5.08,
        "long": 6.26,
        "elev ft": 183,
        "pop est": 25190
    },
    {
        "name": "Gbaranfor",
        "what": "city",
        "region": "Bayelsa",
        "country": "Nigeria",
        "lat": 4.77,
        "long": 5.76,
        "elev ft": 830,
        "pop est": 15347
    },
    {
        "name": "Gbarantoru",
        "what": "city",
        "region": "Bayelsa",
        "country": "Nigeria",
        "lat": 5.0,
        "long": 6.28,
        "elev ft": 232,
        "pop est": 25291
    },
    {
        "name": "Gbekegbene",
        "what": "city",
        "region": "Bayelsa",
        "country": "Nigeria",
        "lat": 4.93,
        "long": 5.52,
        "elev ft": 357,
        "pop est": 13410
    },
    {
        "name": "Gbelegbene",
        "what": "city",
        "region": "Bayelsa",
        "country": "Nigeria",
        "lat": 4.41,
        "long": 5.85,
        "elev ft": 0,
        "pop est": 9720
    },
    {
        "name": "Gbentu",
        "what": "city",
        "region": "Bayelsa",
        "country": "Nigeria",
        "lat": 4.95,
        "long": 5.45,
        "elev ft": 374,
        "pop est": 7930
    },
    {
        "name": "Gberude Camp",
        "what": "city",
        "region": "Bayelsa",
        "country": "Nigeria",
        "lat": 5.0,
        "long": 6.09,
        "elev ft": 318,
        "pop est": 19501
    },
    {
        "name": "Gbobokiri",
        "what": "city",
        "region": "Bayelsa",
        "country": "Nigeria",
        "lat": 4.31,
        "long": 6.25,
        "elev ft": 830,
        "pop est": 13567
    },
    {
        "name": "Gboro-Gbene",
        "what": "city",
        "region": "Bayelsa",
        "country": "Nigeria",
        "lat": 5.07,
        "long": 6.06,
        "elev ft": 318,
        "pop est": 22040
    },
    {
        "name": "Gbotebo",
        "what": "city",
        "region": "Bayelsa",
        "country": "Nigeria",
        "lat": 4.99,
        "long": 5.52,
        "elev ft": 334,
        "pop est": 13410
    },
    {
        "name": "Gbuwegbene",
        "what": "city",
        "region": "Bayelsa",
        "country": "Nigeria",
        "lat": 4.6,
        "long": 5.93,
        "elev ft": 892,
        "pop est": 15347
    },
    {
        "name": "Genekwekegbene",
        "what": "city",
        "region": "Bayelsa",
        "country": "Nigeria",
        "lat": 4.79,
        "long": 5.83,
        "elev ft": 830,
        "pop est": 15313
    },
    {
        "name": "Geri Gbene",
        "what": "city",
        "region": "Bayelsa",
        "country": "Nigeria",
        "lat": 5.22,
        "long": 6.24,
        "elev ft": 272,
        "pop est": 24842
    },
    {
        "name": "Geri Gbene",
        "what": "city",
        "region": "Bayelsa",
        "country": "Nigeria",
        "lat": 5.23,
        "long": 6.24,
        "elev ft": 278,
        "pop est": 23096
    },
    {
        "name": "Ghana",
        "what": "city",
        "region": "Bayelsa",
        "country": "Nigeria",
        "lat": 4.48,
        "long": 6.13,
        "elev ft": 262,
        "pop est": 21903
    },
    {
        "name": "Ginegbene",
        "what": "city",
        "region": "Bayelsa",
        "country": "Nigeria",
        "lat": 4.46,
        "long": 5.91,
        "elev ft": 830,
        "pop est": 17218
    },
    {
        "name": "Gold Coast",
        "what": "city",
        "region": "Bayelsa",
        "country": "Nigeria",
        "lat": 4.42,
        "long": 6.33,
        "elev ft": 1233,
        "pop est": 21903
    },
    {
        "name": "Golubokiri",
        "what": "city",
        "region": "Bayelsa",
        "country": "Nigeria",
        "lat": 4.48,
        "long": 6.25,
        "elev ft": 275,
        "pop est": 21903
    },
    {
        "name": "Graygbene",
        "what": "city",
        "region": "Bayelsa",
        "country": "Nigeria",
        "lat": 5.19,
        "long": 6.32,
        "elev ft": 183,
        "pop est": 23898
    },
    {
        "name": "Grey-Gbene",
        "what": "city",
        "region": "Bayelsa",
        "country": "Nigeria",
        "lat": 5.2,
        "long": 6.33,
        "elev ft": 193,
        "pop est": 23636
    },
    {
        "name": "Guaragbene",
        "what": "city",
        "region": "Bayelsa",
        "country": "Nigeria",
        "lat": 4.43,
        "long": 5.98,
        "elev ft": 830,
        "pop est": 21813
    },
    {
        "name": "Headmanbiri",
        "what": "city",
        "region": "Bayelsa",
        "country": "Nigeria",
        "lat": 5.08,
        "long": 6.27,
        "elev ft": 183,
        "pop est": 25189
    },
    {
        "name": "Heweigbene",
        "what": "city",
        "region": "Bayelsa",
        "country": "Nigeria",
        "lat": 4.61,
        "long": 5.83,
        "elev ft": 830,
        "pop est": 15347
    },
    {
        "name": "Hitlargbene",
        "what": "city",
        "region": "Bayelsa",
        "country": "Nigeria",
        "lat": 4.45,
        "long": 5.89,
        "elev ft": 830,
        "pop est": 16570
    },
    {
        "name": "Hitlergbene",
        "what": "city",
        "region": "Bayelsa",
        "country": "Nigeria",
        "lat": 4.45,
        "long": 5.89,
        "elev ft": 830,
        "pop est": 16570
    },
    {
        "name": "Ibelebiri",
        "what": "city",
        "region": "Bayelsa",
        "country": "Nigeria",
        "lat": 4.93,
        "long": 6.42,
        "elev ft": 830,
        "pop est": 29523
    },
    {
        "name": "Ibia",
        "what": "city",
        "region": "Bayelsa",
        "country": "Nigeria",
        "lat": 5.18,
        "long": 6.32,
        "elev ft": 180,
        "pop est": 24533
    },
    {
        "name": "Ibiapukiri",
        "what": "city",
        "region": "Bayelsa",
        "country": "Nigeria",
        "lat": 4.41,
        "long": 6.38,
        "elev ft": 1669,
        "pop est": 21903
    },
    {
        "name": "Ibidi",
        "what": "city",
        "region": "Bayelsa",
        "country": "Nigeria",
        "lat": 4.33,
        "long": 6.52,
        "elev ft": 0,
        "pop est": 6429
    },
    {
        "name": "Ibikologbene",
        "what": "city",
        "region": "Bayelsa",
        "country": "Nigeria",
        "lat": 4.68,
        "long": 5.59,
        "elev ft": 830,
        "pop est": 9100
    },
    {
        "name": "Ibiobio Camp",
        "what": "city",
        "region": "Bayelsa",
        "country": "Nigeria",
        "lat": 4.49,
        "long": 6.03,
        "elev ft": 180,
        "pop est": 20959
    },
    {
        "name": "Ibobio",
        "what": "city",
        "region": "Bayelsa",
        "country": "Nigeria",
        "lat": 4.68,
        "long": 6.27,
        "elev ft": 830,
        "pop est": 21903
    },
    {
        "name": "Ibohgbene",
        "what": "city",
        "region": "Bayelsa",
        "country": "Nigeria",
        "lat": 4.8,
        "long": 5.62,
        "elev ft": 830,
        "pop est": 14492
    },
    {
        "name": "Iburutorukiri",
        "what": "city",
        "region": "Bayelsa",
        "country": "Nigeria",
        "lat": 4.47,
        "long": 6.41,
        "elev ft": 1669,
        "pop est": 21903
    },
    {
        "name": "Idema",
        "what": "city",
        "region": "Bayelsa",
        "country": "Nigeria",
        "lat": 4.63,
        "long": 6.46,
        "elev ft": 830,
        "pop est": 19395
    },
    {
        "name": "Idoma",
        "what": "city",
        "region": "Bayelsa",
        "country": "Nigeria",
        "lat": 4.63,
        "long": 6.46,
        "elev ft": 830,
        "pop est": 19395
    },
    {
        "name": "Igabopiri",
        "what": "city",
        "region": "Bayelsa",
        "country": "Nigeria",
        "lat": 4.6,
        "long": 6.31,
        "elev ft": 1669,
        "pop est": 21903
    },
    {
        "name": "Igbabele",
        "what": "city",
        "region": "Bayelsa",
        "country": "Nigeria",
        "lat": 4.32,
        "long": 6.21,
        "elev ft": 275,
        "pop est": 18171
    },
    {
        "name": "Igbainwari",
        "what": "city",
        "region": "Bayelsa",
        "country": "Nigeria",
        "lat": 5.07,
        "long": 6.28,
        "elev ft": 190,
        "pop est": 25193
    },
    {
        "name": "Igbelebiekiri",
        "what": "city",
        "region": "Bayelsa",
        "country": "Nigeria",
        "lat": 4.37,
        "long": 5.98,
        "elev ft": 830,
        "pop est": 20954
    },
    {
        "name": "Igbematoro",
        "what": "city",
        "region": "Bayelsa",
        "country": "Nigeria",
        "lat": 4.55,
        "long": 6.03,
        "elev ft": 830,
        "pop est": 17275
    },
    {
        "name": "Igbematoru",
        "what": "city",
        "region": "Bayelsa",
        "country": "Nigeria",
        "lat": 4.55,
        "long": 6.03,
        "elev ft": 830,
        "pop est": 17275
    },
    {
        "name": "Igbeta",
        "what": "city",
        "region": "Bayelsa",
        "country": "Nigeria",
        "lat": 4.56,
        "long": 6.35,
        "elev ft": 1669,
        "pop est": 21903
    },
    {
        "name": "Igbeta Ewoama",
        "what": "city",
        "region": "Bayelsa",
        "country": "Nigeria",
        "lat": 4.56,
        "long": 6.35,
        "elev ft": 1669,
        "pop est": 21903
    },
    {
        "name": "Igbewi",
        "what": "city",
        "region": "Bayelsa",
        "country": "Nigeria",
        "lat": 4.8,
        "long": 5.78,
        "elev ft": 830,
        "pop est": 15088
    },
    {
        "name": "Igbikiba",
        "what": "city",
        "region": "Bayelsa",
        "country": "Nigeria",
        "lat": 4.48,
        "long": 6.11,
        "elev ft": 265,
        "pop est": 21903
    },
    {
        "name": "Igebiri",
        "what": "city",
        "region": "Bayelsa",
        "country": "Nigeria",
        "lat": 4.84,
        "long": 6.2,
        "elev ft": 265,
        "pop est": 19909
    },
    {
        "name": "Igeibiri",
        "what": "city",
        "region": "Bayelsa",
        "country": "Nigeria",
        "lat": 4.84,
        "long": 6.2,
        "elev ft": 265,
        "pop est": 19909
    },
    {
        "name": "Ijaw",
        "what": "city",
        "region": "Bayelsa",
        "country": "Nigeria",
        "lat": 4.47,
        "long": 6.26,
        "elev ft": 311,
        "pop est": 21903
    },
    {
        "name": "Ijaw Fishing Camp",
        "what": "city",
        "region": "Bayelsa",
        "country": "Nigeria",
        "lat": 4.81,
        "long": 5.8,
        "elev ft": 830,
        "pop est": 15029
    },
    {
        "name": "Ijaw Fishing Camp",
        "what": "city",
        "region": "Bayelsa",
        "country": "Nigeria",
        "lat": 4.75,
        "long": 5.8,
        "elev ft": 830,
        "pop est": 15347
    },
    {
        "name": "Ijaw Fishing Camp",
        "what": "city",
        "region": "Bayelsa",
        "country": "Nigeria",
        "lat": 4.82,
        "long": 5.84,
        "elev ft": 830,
        "pop est": 15171
    },
    {
        "name": "Ijawikiri",
        "what": "city",
        "region": "Bayelsa",
        "country": "Nigeria",
        "lat": 4.43,
        "long": 6.42,
        "elev ft": 1204,
        "pop est": 21777
    },
    {
        "name": "Ijawkiri",
        "what": "city",
        "region": "Bayelsa",
        "country": "Nigeria",
        "lat": 4.48,
        "long": 6.33,
        "elev ft": 275,
        "pop est": 21903
    },
    {
        "name": "Ijawkiri",
        "what": "city",
        "region": "Bayelsa",
        "country": "Nigeria",
        "lat": 4.47,
        "long": 6.26,
        "elev ft": 311,
        "pop est": 21903
    },
    {
        "name": "Ijawkiri",
        "what": "city",
        "region": "Bayelsa",
        "country": "Nigeria",
        "lat": 4.42,
        "long": 6.45,
        "elev ft": 971,
        "pop est": 18601
    },
    {
        "name": "Ijoweikiri",
        "what": "city",
        "region": "Bayelsa",
        "country": "Nigeria",
        "lat": 4.33,
        "long": 6.15,
        "elev ft": 269,
        "pop est": 21020
    },
    {
        "name": "Ikasikarama",
        "what": "city",
        "region": "Bayelsa",
        "country": "Nigeria",
        "lat": 4.82,
        "long": 6.26,
        "elev ft": 830,
        "pop est": 21875
    },
    {
        "name": "Ikasougbene",
        "what": "city",
        "region": "Bayelsa",
        "country": "Nigeria",
        "lat": 5.09,
        "long": 6.08,
        "elev ft": 331,
        "pop est": 24292
    },
    {
        "name": "Ikebiri",
        "what": "city",
        "region": "Bayelsa",
        "country": "Nigeria",
        "lat": 4.71,
        "long": 6.0,
        "elev ft": 830,
        "pop est": 15347
    },
    {
        "name": "Ikebiri II",
        "what": "city",
        "region": "Bayelsa",
        "country": "Nigeria",
        "lat": 4.65,
        "long": 5.91,
        "elev ft": 357,
        "pop est": 15347
    },
    {
        "name": "Ikei",
        "what": "city",
        "region": "Bayelsa",
        "country": "Nigeria",
        "lat": 4.31,
        "long": 6.36,
        "elev ft": 1118,
        "pop est": 12444
    },
    {
        "name": "Ikeinsi",
        "what": "city",
        "region": "Bayelsa",
        "country": "Nigeria",
        "lat": 4.56,
        "long": 6.46,
        "elev ft": 990,
        "pop est": 21161
    },
    {
        "name": "Ikeintabiri",
        "what": "city",
        "region": "Bayelsa",
        "country": "Nigeria",
        "lat": 4.72,
        "long": 5.99,
        "elev ft": 314,
        "pop est": 15347
    },
    {
        "name": "Ikeinyabiri",
        "what": "city",
        "region": "Bayelsa",
        "country": "Nigeria",
        "lat": 4.72,
        "long": 5.99,
        "elev ft": 314,
        "pop est": 15347
    },
    {
        "name": "Ikianbiri",
        "what": "city",
        "region": "Bayelsa",
        "country": "Nigeria",
        "lat": 4.67,
        "long": 6.1,
        "elev ft": 187,
        "pop est": 15347
    },
    {
        "name": "Ikibiri",
        "what": "city",
        "region": "Bayelsa",
        "country": "Nigeria",
        "lat": 4.91,
        "long": 6.2,
        "elev ft": 180,
        "pop est": 24309
    },
    {
        "name": "Ikodu",
        "what": "city",
        "region": "Bayelsa",
        "country": "Nigeria",
        "lat": 4.94,
        "long": 6.23,
        "elev ft": 282,
        "pop est": 25328
    },
    {
        "name": "Ikolo",
        "what": "city",
        "region": "Bayelsa",
        "country": "Nigeria",
        "lat": 4.94,
        "long": 6.23,
        "elev ft": 282,
        "pop est": 25328
    },
    {
        "name": "Ikorumogbene",
        "what": "city",
        "region": "Bayelsa",
        "country": "Nigeria",
        "lat": 4.58,
        "long": 6.07,
        "elev ft": 180,
        "pop est": 17064
    },
    {
        "name": "Ikubio",
        "what": "city",
        "region": "Bayelsa",
        "country": "Nigeria",
        "lat": 4.69,
        "long": 5.84,
        "elev ft": 830,
        "pop est": 15347
    },
    {
        "name": "Ilas",
        "what": "city",
        "region": "Bayelsa",
        "country": "Nigeria",
        "lat": 4.95,
        "long": 5.63,
        "elev ft": 337,
        "pop est": 13410
    },
    {
        "name": "Ileweigbene",
        "what": "city",
        "region": "Bayelsa",
        "country": "Nigeria",
        "lat": 4.61,
        "long": 5.83,
        "elev ft": 830,
        "pop est": 15347
    },
    {
        "name": "Ilogiama",
        "what": "city",
        "region": "Bayelsa",
        "country": "Nigeria",
        "lat": 4.66,
        "long": 6.23,
        "elev ft": 282,
        "pop est": 21903
    },
    {
        "name": "Imbikiri",
        "what": "city",
        "region": "Bayelsa",
        "country": "Nigeria",
        "lat": 4.32,
        "long": 6.25,
        "elev ft": 830,
        "pop est": 17260
    },
    {
        "name": "Ime",
        "what": "city",
        "region": "Bayelsa",
        "country": "Nigeria",
        "lat": 4.99,
        "long": 5.62,
        "elev ft": 288,
        "pop est": 13399
    },
    {
        "name": "Ime Camp",
        "what": "city",
        "region": "Bayelsa",
        "country": "Nigeria",
        "lat": 4.99,
        "long": 5.62,
        "elev ft": 288,
        "pop est": 13399
    },
    {
        "name": "Imiringi",
        "what": "city",
        "region": "Bayelsa",
        "country": "Nigeria",
        "lat": 4.85,
        "long": 6.37,
        "elev ft": 830,
        "pop est": 25207
    },
    {
        "name": "Ipirigbene",
        "what": "city",
        "region": "Bayelsa",
        "country": "Nigeria",
        "lat": 4.69,
        "long": 6.16,
        "elev ft": 396,
        "pop est": 18250
    },
    {
        "name": "Iputuframokiri",
        "what": "city",
        "region": "Bayelsa",
        "country": "Nigeria",
        "lat": 4.4,
        "long": 6.3,
        "elev ft": 830,
        "pop est": 21903
    },
    {
        "name": "Isaacgbene",
        "what": "city",
        "region": "Bayelsa",
        "country": "Nigeria",
        "lat": 4.83,
        "long": 5.61,
        "elev ft": 334,
        "pop est": 13814
    },
    {
        "name": "Isampo",
        "what": "city",
        "region": "Bayelsa",
        "country": "Nigeria",
        "lat": 5.06,
        "long": 5.85,
        "elev ft": 246,
        "pop est": 13288
    },
    {
        "name": "Isampou",
        "what": "city",
        "region": "Bayelsa",
        "country": "Nigeria",
        "lat": 5.06,
        "long": 5.85,
        "elev ft": 246,
        "pop est": 13288
    },
    {
        "name": "Isarotebe",
        "what": "city",
        "region": "Bayelsa",
        "country": "Nigeria",
        "lat": 4.88,
        "long": 5.55,
        "elev ft": 344,
        "pop est": 13410
    },
    {
        "name": "Iseleogono",
        "what": "city",
        "region": "Bayelsa",
        "country": "Nigeria",
        "lat": 4.57,
        "long": 6.44,
        "elev ft": 1223,
        "pop est": 21842
    },
    {
        "name": "Iserekiri",
        "what": "city",
        "region": "Bayelsa",
        "country": "Nigeria",
        "lat": 4.74,
        "long": 6.59,
        "elev ft": 232,
        "pop est": 23044
    },
    {
        "name": "Isoko Fishing Camp",
        "what": "city",
        "region": "Bayelsa",
        "country": "Nigeria",
        "lat": 5.03,
        "long": 6.16,
        "elev ft": 370,
        "pop est": 23688
    },
    {
        "name": "Isoni",
        "what": "city",
        "region": "Bayelsa",
        "country": "Nigeria",
        "lat": 4.88,
        "long": 6.0,
        "elev ft": 830,
        "pop est": 19629
    },
    {
        "name": "Isowegbene",
        "what": "city",
        "region": "Bayelsa",
        "country": "Nigeria",
        "lat": 4.41,
        "long": 6.08,
        "elev ft": 213,
        "pop est": 21903
    },
    {
        "name": "Iwiekpenigbene",
        "what": "city",
        "region": "Bayelsa",
        "country": "Nigeria",
        "lat": 4.96,
        "long": 5.56,
        "elev ft": 324,
        "pop est": 13410
    },
    {
        "name": "Iwoama",
        "what": "city",
        "region": "Bayelsa",
        "country": "Nigeria",
        "lat": 4.62,
        "long": 6.27,
        "elev ft": 374,
        "pop est": 21903
    },
    {
        "name": "Iwogbene",
        "what": "city",
        "region": "Bayelsa",
        "country": "Nigeria",
        "lat": 4.41,
        "long": 6.09,
        "elev ft": 213,
        "pop est": 21903
    },
    {
        "name": "Iyalakiri",
        "what": "city",
        "region": "Bayelsa",
        "country": "Nigeria",
        "lat": 4.67,
        "long": 6.27,
        "elev ft": 830,
        "pop est": 21903
    },
    {
        "name": "Izanzagbene",
        "what": "city",
        "region": "Bayelsa",
        "country": "Nigeria",
        "lat": 4.53,
        "long": 5.81,
        "elev ft": 367,
        "pop est": 15367
    },
    {
        "name": "Izonogbene",
        "what": "city",
        "region": "Bayelsa",
        "country": "Nigeria",
        "lat": 4.53,
        "long": 5.81,
        "elev ft": 367,
        "pop est": 15367
    },
    {
        "name": "Jakarino",
        "what": "city",
        "region": "Bayelsa",
        "country": "Nigeria",
        "lat": 4.98,
        "long": 5.65,
        "elev ft": 341,
        "pop est": 13376
    },
    {
        "name": "Jekegbene",
        "what": "city",
        "region": "Bayelsa",
        "country": "Nigeria",
        "lat": 4.45,
        "long": 6.1,
        "elev ft": 242,
        "pop est": 21903
    },
    {
        "name": "Jelkiri",
        "what": "city",
        "region": "Bayelsa",
        "country": "Nigeria",
        "lat": 4.39,
        "long": 6.31,
        "elev ft": 830,
        "pop est": 21903
    },
    {
        "name": "Jinuare",
        "what": "city",
        "region": "Bayelsa",
        "country": "Nigeria",
        "lat": 4.99,
        "long": 5.63,
        "elev ft": 334,
        "pop est": 13379
    },
    {
        "name": "Jituagbene",
        "what": "city",
        "region": "Bayelsa",
        "country": "Nigeria",
        "lat": 4.54,
        "long": 5.72,
        "elev ft": 830,
        "pop est": 10104
    },
    {
        "name": "Johnkiri",
        "what": "city",
        "region": "Bayelsa",
        "country": "Nigeria",
        "lat": 4.32,
        "long": 6.51,
        "elev ft": 0,
        "pop est": 5760
    },
    {
        "name": "Johnson Camp",
        "what": "city",
        "region": "Bayelsa",
        "country": "Nigeria",
        "lat": 5.02,
        "long": 6.08,
        "elev ft": 298,
        "pop est": 19681
    },
    {
        "name": "Jolo Camp",
        "what": "city",
        "region": "Bayelsa",
        "country": "Nigeria",
        "lat": 4.93,
        "long": 5.45,
        "elev ft": 370,
        "pop est": 7342
    },
    {
        "name": "Jombokiri",
        "what": "city",
        "region": "Bayelsa",
        "country": "Nigeria",
        "lat": 4.33,
        "long": 6.51,
        "elev ft": 830,
        "pop est": 6767
    },
    {
        "name": "Joseph Gbene",
        "what": "city",
        "region": "Bayelsa",
        "country": "Nigeria",
        "lat": 5.06,
        "long": 6.1,
        "elev ft": 282,
        "pop est": 21069
    },
    {
        "name": "Junfiama",
        "what": "city",
        "region": "Bayelsa",
        "country": "Nigeria",
        "lat": 4.8,
        "long": 5.69,
        "elev ft": 830,
        "pop est": 14896
    },
    {
        "name": "Kabiama",
        "what": "city",
        "region": "Bayelsa",
        "country": "Nigeria",
        "lat": 5.04,
        "long": 6.09,
        "elev ft": 278,
        "pop est": 19911
    },
    {
        "name": "Kabiana",
        "what": "city",
        "region": "Bayelsa",
        "country": "Nigeria",
        "lat": 5.04,
        "long": 6.09,
        "elev ft": 278,
        "pop est": 19911
    },
    {
        "name": "Kaiama",
        "what": "city",
        "region": "Bayelsa",
        "country": "Nigeria",
        "lat": 5.12,
        "long": 6.3,
        "elev ft": 180,
        "pop est": 25181
    },
    {
        "name": "Kaizagbene",
        "what": "city",
        "region": "Bayelsa",
        "country": "Nigeria",
        "lat": 4.79,
        "long": 5.67,
        "elev ft": 830,
        "pop est": 15111
    },
    {
        "name": "Kakaingbene",
        "what": "city",
        "region": "Bayelsa",
        "country": "Nigeria",
        "lat": 4.44,
        "long": 5.99,
        "elev ft": 849,
        "pop est": 21847
    },
    {
        "name": "Kala Emeya",
        "what": "city",
        "region": "Bayelsa",
        "country": "Nigeria",
        "lat": 4.83,
        "long": 6.35,
        "elev ft": 830,
        "pop est": 24403
    },
    {
        "name": "Kala Kolo",
        "what": "city",
        "region": "Bayelsa",
        "country": "Nigeria",
        "lat": 4.8,
        "long": 6.38,
        "elev ft": 406,
        "pop est": 25527
    },
    {
        "name": "Kala Orubou",
        "what": "city",
        "region": "Bayelsa",
        "country": "Nigeria",
        "lat": 4.39,
        "long": 6.24,
        "elev ft": 275,
        "pop est": 21903
    },
    {
        "name": "Kalabari",
        "what": "city",
        "region": "Bayelsa",
        "country": "Nigeria",
        "lat": 4.98,
        "long": 5.62,
        "elev ft": 318,
        "pop est": 13410
    },
    {
        "name": "Kalabari",
        "what": "city",
        "region": "Bayelsa",
        "country": "Nigeria",
        "lat": 5.0,
        "long": 5.61,
        "elev ft": 226,
        "pop est": 13390
    },
    {
        "name": "Kalabari Camp",
        "what": "city",
        "region": "Bayelsa",
        "country": "Nigeria",
        "lat": 5.0,
        "long": 5.61,
        "elev ft": 226,
        "pop est": 13390
    },
    {
        "name": "Kalabilema",
        "what": "city",
        "region": "Bayelsa",
        "country": "Nigeria",
        "lat": 4.47,
        "long": 6.36,
        "elev ft": 1669,
        "pop est": 21903
    },
    {
        "name": "Kalabotugbene",
        "what": "city",
        "region": "Bayelsa",
        "country": "Nigeria",
        "lat": 4.83,
        "long": 5.57,
        "elev ft": 410,
        "pop est": 13424
    },
    {
        "name": "Kalagbene",
        "what": "city",
        "region": "Bayelsa",
        "country": "Nigeria",
        "lat": 4.56,
        "long": 5.78,
        "elev ft": 830,
        "pop est": 15349
    },
    {
        "name": "Kalama",
        "what": "city",
        "region": "Bayelsa",
        "country": "Nigeria",
        "lat": 5.13,
        "long": 6.34,
        "elev ft": 203,
        "pop est": 25181
    },
    {
        "name": "Kalaragbene",
        "what": "city",
        "region": "Bayelsa",
        "country": "Nigeria",
        "lat": 4.47,
        "long": 5.82,
        "elev ft": 380,
        "pop est": 13041
    },
    {
        "name": "Kalarogbene",
        "what": "city",
        "region": "Bayelsa",
        "country": "Nigeria",
        "lat": 4.47,
        "long": 5.82,
        "elev ft": 380,
        "pop est": 13041
    },
    {
        "name": "Kalawarigbene",
        "what": "city",
        "region": "Bayelsa",
        "country": "Nigeria",
        "lat": 4.65,
        "long": 5.91,
        "elev ft": 357,
        "pop est": 15347
    },
    {
        "name": "Kalebilema",
        "what": "city",
        "region": "Bayelsa",
        "country": "Nigeria",
        "lat": 4.47,
        "long": 6.36,
        "elev ft": 1669,
        "pop est": 21903
    },
    {
        "name": "Kallah",
        "what": "city",
        "region": "Bayelsa",
        "country": "Nigeria",
        "lat": 4.39,
        "long": 6.24,
        "elev ft": 275,
        "pop est": 21903
    },
    {
        "name": "Kamabiama",
        "what": "city",
        "region": "Bayelsa",
        "country": "Nigeria",
        "lat": 4.8,
        "long": 5.95,
        "elev ft": 830,
        "pop est": 15350
    },
    {
        "name": "Kambora",
        "what": "city",
        "region": "Bayelsa",
        "country": "Nigeria",
        "lat": 4.48,
        "long": 5.92,
        "elev ft": 938,
        "pop est": 16633
    },
    {
        "name": "Kamborra",
        "what": "city",
        "region": "Bayelsa",
        "country": "Nigeria",
        "lat": 4.48,
        "long": 5.92,
        "elev ft": 938,
        "pop est": 16633
    },
    {
        "name": "Kamebiama",
        "what": "city",
        "region": "Bayelsa",
        "country": "Nigeria",
        "lat": 4.8,
        "long": 5.95,
        "elev ft": 830,
        "pop est": 15350
    },
    {
        "name": "Kanbo",
        "what": "city",
        "region": "Bayelsa",
        "country": "Nigeria",
        "lat": 4.86,
        "long": 5.64,
        "elev ft": 830,
        "pop est": 13539
    },
    {
        "name": "Kanu",
        "what": "city",
        "region": "Bayelsa",
        "country": "Nigeria",
        "lat": 5.01,
        "long": 5.99,
        "elev ft": 830,
        "pop est": 19708
    },
    {
        "name": "Kanusikiri",
        "what": "city",
        "region": "Bayelsa",
        "country": "Nigeria",
        "lat": 4.36,
        "long": 6.26,
        "elev ft": 275,
        "pop est": 21823
    },
    {
        "name": "Kanuskiri",
        "what": "city",
        "region": "Bayelsa",
        "country": "Nigeria",
        "lat": 4.36,
        "long": 6.26,
        "elev ft": 275,
        "pop est": 21823
    },
    {
        "name": "Karabapogu",
        "what": "city",
        "region": "Bayelsa",
        "country": "Nigeria",
        "lat": 4.3,
        "long": 6.32,
        "elev ft": 0,
        "pop est": 12103
    },
    {
        "name": "Karama Kolo",
        "what": "city",
        "region": "Bayelsa",
        "country": "Nigeria",
        "lat": 4.81,
        "long": 6.38,
        "elev ft": 406,
        "pop est": 25781
    },
    {
        "name": "Kasama",
        "what": "city",
        "region": "Bayelsa",
        "country": "Nigeria",
        "lat": 4.87,
        "long": 5.97,
        "elev ft": 830,
        "pop est": 17656
    },
    {
        "name": "Kassama",
        "what": "city",
        "region": "Bayelsa",
        "country": "Nigeria",
        "lat": 4.87,
        "long": 5.97,
        "elev ft": 830,
        "pop est": 17656
    },
    {
        "name": "Kassikarama",
        "what": "city",
        "region": "Bayelsa",
        "country": "Nigeria",
        "lat": 4.82,
        "long": 6.26,
        "elev ft": 830,
        "pop est": 21875
    },
    {
        "name": "Katagbene",
        "what": "city",
        "region": "Bayelsa",
        "country": "Nigeria",
        "lat": 4.4,
        "long": 5.87,
        "elev ft": 866,
        "pop est": 10976
    },
    {
        "name": "Kayan-Iwakade",
        "what": "city",
        "region": "Bayelsa",
        "country": "Nigeria",
        "lat": 5.22,
        "long": 6.33,
        "elev ft": 183,
        "pop est": 23278
    },
    {
        "name": "Ke wetgbene",
        "what": "city",
        "region": "Bayelsa",
        "country": "Nigeria",
        "lat": 4.63,
        "long": 5.78,
        "elev ft": 830,
        "pop est": 15347
    },
    {
        "name": "Keleigbene",
        "what": "city",
        "region": "Bayelsa",
        "country": "Nigeria",
        "lat": 4.4,
        "long": 5.87,
        "elev ft": 866,
        "pop est": 10976
    },
    {
        "name": "Keletobugbene",
        "what": "city",
        "region": "Bayelsa",
        "country": "Nigeria",
        "lat": 4.62,
        "long": 5.81,
        "elev ft": 830,
        "pop est": 15347
    },
    {
        "name": "Keleweigbene",
        "what": "city",
        "region": "Bayelsa",
        "country": "Nigeria",
        "lat": 4.63,
        "long": 5.78,
        "elev ft": 830,
        "pop est": 15347
    },
    {
        "name": "Keme-Ebiama",
        "what": "city",
        "region": "Bayelsa",
        "country": "Nigeria",
        "lat": 4.8,
        "long": 5.95,
        "elev ft": 830,
        "pop est": 15350
    },
    {
        "name": "Kemesuodegbene",
        "what": "city",
        "region": "Bayelsa",
        "country": "Nigeria",
        "lat": 4.88,
        "long": 5.54,
        "elev ft": 341,
        "pop est": 13410
    },
    {
        "name": "Kemibiama",
        "what": "city",
        "region": "Bayelsa",
        "country": "Nigeria",
        "lat": 4.8,
        "long": 5.95,
        "elev ft": 830,
        "pop est": 15350
    },
    {
        "name": "Kemmers Town",
        "what": "city",
        "region": "Bayelsa",
        "country": "Nigeria",
        "lat": 4.32,
        "long": 6.24,
        "elev ft": 390,
        "pop est": 17260
    },
    {
        "name": "Kerubonimukiri",
        "what": "city",
        "region": "Bayelsa",
        "country": "Nigeria",
        "lat": 4.32,
        "long": 6.49,
        "elev ft": 0,
        "pop est": 6757
    },
    {
        "name": "Kerubu-Suoto",
        "what": "city",
        "region": "Bayelsa",
        "country": "Nigeria",
        "lat": 4.85,
        "long": 5.48,
        "elev ft": 334,
        "pop est": 7135
    },
    {
        "name": "Keyanbiri",
        "what": "city",
        "region": "Bayelsa",
        "country": "Nigeria",
        "lat": 4.72,
        "long": 5.99,
        "elev ft": 314,
        "pop est": 15347
    },
    {
        "name": "Kimigbene",
        "what": "city",
        "region": "Bayelsa",
        "country": "Nigeria",
        "lat": 4.66,
        "long": 6.15,
        "elev ft": 390,
        "pop est": 17895
    },
    {
        "name": "Kingbene",
        "what": "city",
        "region": "Bayelsa",
        "country": "Nigeria",
        "lat": 4.81,
        "long": 5.57,
        "elev ft": 830,
        "pop est": 13912
    },
    {
        "name": "Kinkiamabugo",
        "what": "city",
        "region": "Bayelsa",
        "country": "Nigeria",
        "lat": 4.45,
        "long": 6.34,
        "elev ft": 275,
        "pop est": 21903
    },
    {
        "name": "Kinkimabugo",
        "what": "city",
        "region": "Bayelsa",
        "country": "Nigeria",
        "lat": 4.45,
        "long": 6.34,
        "elev ft": 275,
        "pop est": 21903
    },
    {
        "name": "Kirikakiri",
        "what": "city",
        "region": "Bayelsa",
        "country": "Nigeria",
        "lat": 4.33,
        "long": 6.25,
        "elev ft": 830,
        "pop est": 18645
    },
    {
        "name": "Kituagbene",
        "what": "city",
        "region": "Bayelsa",
        "country": "Nigeria",
        "lat": 4.57,
        "long": 5.7,
        "elev ft": 830,
        "pop est": 12359
    },
    {
        "name": "Kogbene",
        "what": "city",
        "region": "Bayelsa",
        "country": "Nigeria",
        "lat": 4.66,
        "long": 5.93,
        "elev ft": 374,
        "pop est": 15347
    },
    {
        "name": "Koikumogbene",
        "what": "city",
        "region": "Bayelsa",
        "country": "Nigeria",
        "lat": 4.78,
        "long": 5.61,
        "elev ft": 830,
        "pop est": 14574
    },
    {
        "name": "Kokologbene",
        "what": "city",
        "region": "Bayelsa",
        "country": "Nigeria",
        "lat": 4.76,
        "long": 5.91,
        "elev ft": 830,
        "pop est": 15347
    },
    {
        "name": "Kokotegbene",
        "what": "city",
        "region": "Bayelsa",
        "country": "Nigeria",
        "lat": 4.84,
        "long": 5.55,
        "elev ft": 334,
        "pop est": 13411
    },
    {
        "name": "Kola-Emeya",
        "what": "city",
        "region": "Bayelsa",
        "country": "Nigeria",
        "lat": 4.83,
        "long": 6.35,
        "elev ft": 830,
        "pop est": 24403
    },
    {
        "name": "Kolagbene",
        "what": "city",
        "region": "Bayelsa",
        "country": "Nigeria",
        "lat": 4.56,
        "long": 5.78,
        "elev ft": 830,
        "pop est": 15349
    },
    {
        "name": "Kolawarigbene",
        "what": "city",
        "region": "Bayelsa",
        "country": "Nigeria",
        "lat": 4.65,
        "long": 5.91,
        "elev ft": 357,
        "pop est": 15347
    },
    {
        "name": "Koluama I",
        "what": "city",
        "region": "Bayelsa",
        "country": "Nigeria",
        "lat": 4.47,
        "long": 5.77,
        "elev ft": 314,
        "pop est": 7864
    },
    {
        "name": "Koluama II",
        "what": "city",
        "region": "Bayelsa",
        "country": "Nigeria",
        "lat": 4.43,
        "long": 5.83,
        "elev ft": 830,
        "pop est": 8783
    },
    {
        "name": "Komagbene",
        "what": "city",
        "region": "Bayelsa",
        "country": "Nigeria",
        "lat": 4.85,
        "long": 5.83,
        "elev ft": 830,
        "pop est": 14543
    },
    {
        "name": "Komoforufagbene",
        "what": "city",
        "region": "Bayelsa",
        "country": "Nigeria",
        "lat": 4.53,
        "long": 5.88,
        "elev ft": 830,
        "pop est": 15363
    },
    {
        "name": "Komotorufagbene",
        "what": "city",
        "region": "Bayelsa",
        "country": "Nigeria",
        "lat": 4.53,
        "long": 5.88,
        "elev ft": 830,
        "pop est": 15363
    },
    {
        "name": "Komuwegbene",
        "what": "city",
        "region": "Bayelsa",
        "country": "Nigeria",
        "lat": 4.82,
        "long": 5.57,
        "elev ft": 334,
        "pop est": 13624
    },
    {
        "name": "Konga",
        "what": "city",
        "region": "Bayelsa",
        "country": "Nigeria",
        "lat": 4.33,
        "long": 6.06,
        "elev ft": 232,
        "pop est": 19973
    },
    {
        "name": "Kongo",
        "what": "city",
        "region": "Bayelsa",
        "country": "Nigeria",
        "lat": 4.33,
        "long": 6.06,
        "elev ft": 232,
        "pop est": 19973
    },
    {
        "name": "Konkongbene",
        "what": "city",
        "region": "Bayelsa",
        "country": "Nigeria",
        "lat": 4.81,
        "long": 5.58,
        "elev ft": 830,
        "pop est": 13825
    },
    {
        "name": "Korama",
        "what": "city",
        "region": "Bayelsa",
        "country": "Nigeria",
        "lat": 5.04,
        "long": 6.3,
        "elev ft": 259,
        "pop est": 25227
    },
    {
        "name": "Korokorosei",
        "what": "city",
        "region": "Bayelsa",
        "country": "Nigeria",
        "lat": 4.75,
        "long": 6.01,
        "elev ft": 314,
        "pop est": 15347
    },
    {
        "name": "Korugbaba",
        "what": "city",
        "region": "Bayelsa",
        "country": "Nigeria",
        "lat": 4.36,
        "long": 6.27,
        "elev ft": 830,
        "pop est": 21822
    },
    {
        "name": "Korugbene",
        "what": "city",
        "region": "Bayelsa",
        "country": "Nigeria",
        "lat": 4.74,
        "long": 5.62,
        "elev ft": 830,
        "pop est": 15333
    },
    {
        "name": "Kpansia",
        "what": "city",
        "region": "Bayelsa",
        "country": "Nigeria",
        "lat": 4.93,
        "long": 6.31,
        "elev ft": 830,
        "pop est": 24392
    },
    {
        "name": "Kpominegbene",
        "what": "city",
        "region": "Bayelsa",
        "country": "Nigeria",
        "lat": 4.89,
        "long": 5.54,
        "elev ft": 334,
        "pop est": 13410
    },
    {
        "name": "Kpongbokiri",
        "what": "city",
        "region": "Bayelsa",
        "country": "Nigeria",
        "lat": 4.4,
        "long": 6.28,
        "elev ft": 275,
        "pop est": 21903
    },
    {
        "name": "Kubuke",
        "what": "city",
        "region": "Bayelsa",
        "country": "Nigeria",
        "lat": 4.48,
        "long": 6.12,
        "elev ft": 265,
        "pop est": 21903
    },
    {
        "name": "Kugbogbene",
        "what": "city",
        "region": "Bayelsa",
        "country": "Nigeria",
        "lat": 4.62,
        "long": 5.95,
        "elev ft": 830,
        "pop est": 15347
    },
    {
        "name": "Kulaingbene",
        "what": "city",
        "region": "Bayelsa",
        "country": "Nigeria",
        "lat": 4.43,
        "long": 5.85,
        "elev ft": 830,
        "pop est": 10678
    },
    {
        "name": "Kulaiperigbene",
        "what": "city",
        "region": "Bayelsa",
        "country": "Nigeria",
        "lat": 4.74,
        "long": 5.71,
        "elev ft": 830,
        "pop est": 15347
    },
    {
        "name": "Kulakiri",
        "what": "city",
        "region": "Bayelsa",
        "country": "Nigeria",
        "lat": 4.33,
        "long": 6.54,
        "elev ft": 0,
        "pop est": 5896
    },
    {
        "name": "Kulama",
        "what": "city",
        "region": "Bayelsa",
        "country": "Nigeria",
        "lat": 4.43,
        "long": 5.83,
        "elev ft": 830,
        "pop est": 8783
    },
    {
        "name": "Kulama",
        "what": "city",
        "region": "Bayelsa",
        "country": "Nigeria",
        "lat": 4.47,
        "long": 5.77,
        "elev ft": 314,
        "pop est": 7864
    },
    {
        "name": "Kulama II",
        "what": "city",
        "region": "Bayelsa",
        "country": "Nigeria",
        "lat": 4.43,
        "long": 5.83,
        "elev ft": 830,
        "pop est": 8783
    },
    {
        "name": "Kunupogu",
        "what": "city",
        "region": "Bayelsa",
        "country": "Nigeria",
        "lat": 4.3,
        "long": 6.28,
        "elev ft": 0,
        "pop est": 12646
    },
    {
        "name": "Kuonubogbene",
        "what": "city",
        "region": "Bayelsa",
        "country": "Nigeria",
        "lat": 5.22,
        "long": 6.21,
        "elev ft": 275,
        "pop est": 31948
    },
    {
        "name": "Kurogbene",
        "what": "city",
        "region": "Bayelsa",
        "country": "Nigeria",
        "lat": 4.93,
        "long": 5.55,
        "elev ft": 334,
        "pop est": 13410
    },
    {
        "name": "Kurugbaba",
        "what": "city",
        "region": "Bayelsa",
        "country": "Nigeria",
        "lat": 4.36,
        "long": 6.27,
        "elev ft": 830,
        "pop est": 21822
    },
    {
        "name": "Kwosigbene",
        "what": "city",
        "region": "Bayelsa",
        "country": "Nigeria",
        "lat": 4.84,
        "long": 5.63,
        "elev ft": 830,
        "pop est": 13718
    },
    {
        "name": "Lafamagbene",
        "what": "city",
        "region": "Bayelsa",
        "country": "Nigeria",
        "lat": 4.66,
        "long": 5.6,
        "elev ft": 0,
        "pop est": 7871
    },
    {
        "name": "Lalagbene",
        "what": "city",
        "region": "Bayelsa",
        "country": "Nigeria",
        "lat": 5.04,
        "long": 5.93,
        "elev ft": 269,
        "pop est": 15908
    },
    {
        "name": "Lasgbene",
        "what": "city",
        "region": "Bayelsa",
        "country": "Nigeria",
        "lat": 4.49,
        "long": 6.02,
        "elev ft": 311,
        "pop est": 20244
    },
    {
        "name": "Lasotu",
        "what": "city",
        "region": "Bayelsa",
        "country": "Nigeria",
        "lat": 4.59,
        "long": 5.65,
        "elev ft": 830,
        "pop est": 7767
    },
    {
        "name": "Lasukugbene",
        "what": "city",
        "region": "Bayelsa",
        "country": "Nigeria",
        "lat": 4.53,
        "long": 6.06,
        "elev ft": 242,
        "pop est": 19584
    },
    {
        "name": "Leigbene",
        "what": "city",
        "region": "Bayelsa",
        "country": "Nigeria",
        "lat": 4.55,
        "long": 5.69,
        "elev ft": 830,
        "pop est": 9402
    },
    {
        "name": "Lengikiri",
        "what": "city",
        "region": "Bayelsa",
        "country": "Nigeria",
        "lat": 4.57,
        "long": 6.29,
        "elev ft": 1187,
        "pop est": 21903
    },
    {
        "name": "Letugbene",
        "what": "city",
        "region": "Bayelsa",
        "country": "Nigeria",
        "lat": 4.84,
        "long": 5.55,
        "elev ft": 334,
        "pop est": 13292
    },
    {
        "name": "Liama",
        "what": "city",
        "region": "Bayelsa",
        "country": "Nigeria",
        "lat": 4.31,
        "long": 6.17,
        "elev ft": 298,
        "pop est": 17816
    },
    {
        "name": "Liama",
        "what": "city",
        "region": "Bayelsa",
        "country": "Nigeria",
        "lat": 4.29,
        "long": 6.18,
        "elev ft": 0,
        "pop est": 11715
    },
    {
        "name": "Livergbene",
        "what": "city",
        "region": "Bayelsa",
        "country": "Nigeria",
        "lat": 4.61,
        "long": 5.99,
        "elev ft": 1177,
        "pop est": 15347
    },
    {
        "name": "Lobia",
        "what": "city",
        "region": "Bayelsa",
        "country": "Nigeria",
        "lat": 4.66,
        "long": 5.81,
        "elev ft": 830,
        "pop est": 15347
    },
    {
        "name": "Lobia Market",
        "what": "city",
        "region": "Bayelsa",
        "country": "Nigeria",
        "lat": 4.64,
        "long": 5.82,
        "elev ft": 830,
        "pop est": 15347
    },
    {
        "name": "Lofamagbene",
        "what": "city",
        "region": "Bayelsa",
        "country": "Nigeria",
        "lat": 4.66,
        "long": 5.6,
        "elev ft": 0,
        "pop est": 7871
    },
    {
        "name": "Logogbene",
        "what": "city",
        "region": "Bayelsa",
        "country": "Nigeria",
        "lat": 4.4,
        "long": 5.92,
        "elev ft": 1013,
        "pop est": 18323
    },
    {
        "name": "Loinbirikibi",
        "what": "city",
        "region": "Bayelsa",
        "country": "Nigeria",
        "lat": 4.66,
        "long": 5.59,
        "elev ft": 0,
        "pop est": 8671
    },
    {
        "name": "Loinbirikiri",
        "what": "city",
        "region": "Bayelsa",
        "country": "Nigeria",
        "lat": 4.66,
        "long": 5.59,
        "elev ft": 0,
        "pop est": 8671
    },
    {
        "name": "London Camp",
        "what": "city",
        "region": "Bayelsa",
        "country": "Nigeria",
        "lat": 5.06,
        "long": 6.07,
        "elev ft": 301,
        "pop est": 20308
    },
    {
        "name": "London Gbene",
        "what": "city",
        "region": "Bayelsa",
        "country": "Nigeria",
        "lat": 5.06,
        "long": 6.12,
        "elev ft": 278,
        "pop est": 22005
    },
    {
        "name": "Lovedaykiri",
        "what": "city",
        "region": "Bayelsa",
        "country": "Nigeria",
        "lat": 4.35,
        "long": 6.38,
        "elev ft": 1230,
        "pop est": 19832
    },
    {
        "name": "Luckygbene",
        "what": "city",
        "region": "Bayelsa",
        "country": "Nigeria",
        "lat": 4.75,
        "long": 6.06,
        "elev ft": 830,
        "pop est": 15347
    },
    {
        "name": "Luduon",
        "what": "city",
        "region": "Bayelsa",
        "country": "Nigeria",
        "lat": 4.8,
        "long": 6.13,
        "elev ft": 209,
        "pop est": 15645
    },
    {
        "name": "Lulugbene",
        "what": "city",
        "region": "Bayelsa",
        "country": "Nigeria",
        "lat": 4.79,
        "long": 5.61,
        "elev ft": 830,
        "pop est": 14574
    },
    {
        "name": "Mabarakiri",
        "what": "city",
        "region": "Bayelsa",
        "country": "Nigeria",
        "lat": 4.29,
        "long": 6.09,
        "elev ft": 219,
        "pop est": 11474
    },
    {
        "name": "Mabokubo",
        "what": "city",
        "region": "Bayelsa",
        "country": "Nigeria",
        "lat": 4.45,
        "long": 6.37,
        "elev ft": 1669,
        "pop est": 21903
    },
    {
        "name": "Macaulay",
        "what": "city",
        "region": "Bayelsa",
        "country": "Nigeria",
        "lat": 5.2,
        "long": 6.21,
        "elev ft": 275,
        "pop est": 34706
    },
    {
        "name": "Macus",
        "what": "city",
        "region": "Bayelsa",
        "country": "Nigeria",
        "lat": 4.98,
        "long": 5.64,
        "elev ft": 334,
        "pop est": 13384
    },
    {
        "name": "Macus Camp",
        "what": "city",
        "region": "Bayelsa",
        "country": "Nigeria",
        "lat": 4.98,
        "long": 5.64,
        "elev ft": 334,
        "pop est": 13384
    },
    {
        "name": "Maghogbene",
        "what": "city",
        "region": "Bayelsa",
        "country": "Nigeria",
        "lat": 4.77,
        "long": 5.77,
        "elev ft": 830,
        "pop est": 15347
    },
    {
        "name": "Mamwatagbene",
        "what": "city",
        "region": "Bayelsa",
        "country": "Nigeria",
        "lat": 4.97,
        "long": 5.54,
        "elev ft": 334,
        "pop est": 13410
    },
    {
        "name": "Manizagbene",
        "what": "city",
        "region": "Bayelsa",
        "country": "Nigeria",
        "lat": 4.91,
        "long": 5.6,
        "elev ft": 387,
        "pop est": 13410
    },
    {
        "name": "Mansionkiri",
        "what": "city",
        "region": "Bayelsa",
        "country": "Nigeria",
        "lat": 4.44,
        "long": 6.2,
        "elev ft": 275,
        "pop est": 21903
    },
    {
        "name": "Martinkiri",
        "what": "city",
        "region": "Bayelsa",
        "country": "Nigeria",
        "lat": 4.32,
        "long": 6.46,
        "elev ft": 0,
        "pop est": 6635
    },
    {
        "name": "Mbasikiri",
        "what": "city",
        "region": "Bayelsa",
        "country": "Nigeria",
        "lat": 4.46,
        "long": 6.26,
        "elev ft": 311,
        "pop est": 21903
    },
    {
        "name": "Mbiakpaba",
        "what": "city",
        "region": "Bayelsa",
        "country": "Nigeria",
        "lat": 4.57,
        "long": 6.27,
        "elev ft": 383,
        "pop est": 21903
    },
    {
        "name": "Mbokokiri",
        "what": "city",
        "region": "Bayelsa",
        "country": "Nigeria",
        "lat": 4.32,
        "long": 6.51,
        "elev ft": 0,
        "pop est": 6131
    },
    {
        "name": "Miebigbene",
        "what": "city",
        "region": "Bayelsa",
        "country": "Nigeria",
        "lat": 4.56,
        "long": 5.82,
        "elev ft": 410,
        "pop est": 15351
    },
    {
        "name": "Miebotugbene",
        "what": "city",
        "region": "Bayelsa",
        "country": "Nigeria",
        "lat": 4.83,
        "long": 5.57,
        "elev ft": 410,
        "pop est": 13504
    },
    {
        "name": "Miepougbene",
        "what": "city",
        "region": "Bayelsa",
        "country": "Nigeria",
        "lat": 4.87,
        "long": 5.55,
        "elev ft": 347,
        "pop est": 13410
    },
    {
        "name": "Mileonkiri",
        "what": "city",
        "region": "Bayelsa",
        "country": "Nigeria",
        "lat": 4.42,
        "long": 6.14,
        "elev ft": 282,
        "pop est": 21903
    },
    {
        "name": "Minibeleu",
        "what": "city",
        "region": "Bayelsa",
        "country": "Nigeria",
        "lat": 4.31,
        "long": 6.06,
        "elev ft": 213,
        "pop est": 15893
    },
    {
        "name": "Minibio",
        "what": "city",
        "region": "Bayelsa",
        "country": "Nigeria",
        "lat": 4.31,
        "long": 6.05,
        "elev ft": 308,
        "pop est": 13394
    },
    {
        "name": "Minkakiri",
        "what": "city",
        "region": "Bayelsa",
        "country": "Nigeria",
        "lat": 4.45,
        "long": 6.23,
        "elev ft": 282,
        "pop est": 21903
    },
    {
        "name": "Misakkiri",
        "what": "city",
        "region": "Bayelsa",
        "country": "Nigeria",
        "lat": 4.45,
        "long": 6.38,
        "elev ft": 1669,
        "pop est": 21903
    },
    {
        "name": "Monikiri",
        "what": "city",
        "region": "Bayelsa",
        "country": "Nigeria",
        "lat": 4.4,
        "long": 6.3,
        "elev ft": 830,
        "pop est": 21903
    },
    {
        "name": "Munighakiri",
        "what": "city",
        "region": "Bayelsa",
        "country": "Nigeria",
        "lat": 4.43,
        "long": 6.32,
        "elev ft": 275,
        "pop est": 21903
    },
    {
        "name": "Ndiama",
        "what": "city",
        "region": "Bayelsa",
        "country": "Nigeria",
        "lat": 5.16,
        "long": 6.2,
        "elev ft": 275,
        "pop est": 31971
    },
    {
        "name": "Ndiemazi",
        "what": "city",
        "region": "Bayelsa",
        "country": "Nigeria",
        "lat": 5.16,
        "long": 6.2,
        "elev ft": 275,
        "pop est": 31971
    },
    {
        "name": "Ndutiri",
        "what": "city",
        "region": "Bayelsa",
        "country": "Nigeria",
        "lat": 4.53,
        "long": 6.54,
        "elev ft": 232,
        "pop est": 12841
    },
    {
        "name": "Nembe",
        "what": "city",
        "region": "Bayelsa",
        "country": "Nigeria",
        "lat": 4.54,
        "long": 6.4,
        "elev ft": 1669,
        "pop est": 21903
    },
    {
        "name": "Nenemafie",
        "what": "city",
        "region": "Bayelsa",
        "country": "Nigeria",
        "lat": 4.36,
        "long": 6.18,
        "elev ft": 282,
        "pop est": 21903
    },
    {
        "name": "Nengigbene",
        "what": "city",
        "region": "Bayelsa",
        "country": "Nigeria",
        "lat": 4.71,
        "long": 6.1,
        "elev ft": 334,
        "pop est": 15386
    },
    {
        "name": "New Amatu",
        "what": "city",
        "region": "Bayelsa",
        "country": "Nigeria",
        "lat": 4.89,
        "long": 5.47,
        "elev ft": 334,
        "pop est": 7873
    },
    {
        "name": "New Yeargbene",
        "what": "city",
        "region": "Bayelsa",
        "country": "Nigeria",
        "lat": 5.12,
        "long": 6.07,
        "elev ft": 367,
        "pop est": 37380
    },
    {
        "name": "Ngbokoro",
        "what": "city",
        "region": "Bayelsa",
        "country": "Nigeria",
        "lat": 4.53,
        "long": 5.82,
        "elev ft": 344,
        "pop est": 15367
    },
    {
        "name": "Ngolobagbene",
        "what": "city",
        "region": "Bayelsa",
        "country": "Nigeria",
        "lat": 4.92,
        "long": 5.92,
        "elev ft": 830,
        "pop est": 14263
    },
    {
        "name": "Ngukulagbene",
        "what": "city",
        "region": "Bayelsa",
        "country": "Nigeria",
        "lat": 4.47,
        "long": 5.93,
        "elev ft": 928,
        "pop est": 17689
    },
    {
        "name": "Nguseyegbene",
        "what": "city",
        "region": "Bayelsa",
        "country": "Nigeria",
        "lat": 4.6,
        "long": 5.71,
        "elev ft": 830,
        "pop est": 15290
    },
    {
        "name": "Nidugo",
        "what": "city",
        "region": "Bayelsa",
        "country": "Nigeria",
        "lat": 5.05,
        "long": 6.35,
        "elev ft": 354,
        "pop est": 25208
    },
    {
        "name": "Nimbi",
        "what": "city",
        "region": "Bayelsa",
        "country": "Nigeria",
        "lat": 4.54,
        "long": 6.4,
        "elev ft": 1669,
        "pop est": 21903
    },
    {
        "name": "Nimbogbene",
        "what": "city",
        "region": "Bayelsa",
        "country": "Nigeria",
        "lat": 4.55,
        "long": 5.82,
        "elev ft": 393,
        "pop est": 15354
    },
    {
        "name": "Nogbene",
        "what": "city",
        "region": "Bayelsa",
        "country": "Nigeria",
        "lat": 4.99,
        "long": 5.78,
        "elev ft": 830,
        "pop est": 13398
    },
    {
        "name": "Norgbene",
        "what": "city",
        "region": "Bayelsa",
        "country": "Nigeria",
        "lat": 4.99,
        "long": 5.78,
        "elev ft": 830,
        "pop est": 13398
    },
    {
        "name": "Numagbene",
        "what": "city",
        "region": "Bayelsa",
        "country": "Nigeria",
        "lat": 4.58,
        "long": 5.93,
        "elev ft": 862,
        "pop est": 15347
    },
    {
        "name": "Paina",
        "what": "city",
        "region": "Bayelsa",
        "country": "Nigeria",
        "lat": 4.74,
        "long": 5.6,
        "elev ft": 830,
        "pop est": 14812
    },
    {
        "name": "Paliabebe",
        "what": "city",
        "region": "Bayelsa",
        "country": "Nigeria",
        "lat": 4.88,
        "long": 5.68,
        "elev ft": 830,
        "pop est": 13457
    },
    {
        "name": "Paratubo",
        "what": "city",
        "region": "Bayelsa",
        "country": "Nigeria",
        "lat": 4.78,
        "long": 5.85,
        "elev ft": 830,
        "pop est": 15347
    },
    {
        "name": "Pepegbene",
        "what": "city",
        "region": "Bayelsa",
        "country": "Nigeria",
        "lat": 4.48,
        "long": 5.75,
        "elev ft": 0,
        "pop est": 5993
    },
    {
        "name": "Pepelegbene",
        "what": "city",
        "region": "Bayelsa",
        "country": "Nigeria",
        "lat": 4.61,
        "long": 5.71,
        "elev ft": 830,
        "pop est": 15347
    },
    {
        "name": "Perebia",
        "what": "city",
        "region": "Bayelsa",
        "country": "Nigeria",
        "lat": 4.33,
        "long": 6.18,
        "elev ft": 282,
        "pop est": 20471
    },
    {
        "name": "Peremabiri",
        "what": "city",
        "region": "Bayelsa",
        "country": "Nigeria",
        "lat": 4.64,
        "long": 6.08,
        "elev ft": 196,
        "pop est": 15347
    },
    {
        "name": "Peresisofogbene",
        "what": "city",
        "region": "Bayelsa",
        "country": "Nigeria",
        "lat": 4.71,
        "long": 5.72,
        "elev ft": 830,
        "pop est": 15347
    },
    {
        "name": "Peretoregbene",
        "what": "city",
        "region": "Bayelsa",
        "country": "Nigeria",
        "lat": 4.97,
        "long": 5.64,
        "elev ft": 337,
        "pop est": 13398
    },
    {
        "name": "Peretorugbene",
        "what": "city",
        "region": "Bayelsa",
        "country": "Nigeria",
        "lat": 4.97,
        "long": 5.64,
        "elev ft": 337,
        "pop est": 13398
    },
    {
        "name": "Perewarigbene",
        "what": "city",
        "region": "Bayelsa",
        "country": "Nigeria",
        "lat": 4.45,
        "long": 5.89,
        "elev ft": 830,
        "pop est": 17065
    },
    {
        "name": "Periwarigbene",
        "what": "city",
        "region": "Bayelsa",
        "country": "Nigeria",
        "lat": 4.45,
        "long": 5.89,
        "elev ft": 830,
        "pop est": 17065
    },
    {
        "name": "Permobiri",
        "what": "city",
        "region": "Bayelsa",
        "country": "Nigeria",
        "lat": 4.64,
        "long": 6.08,
        "elev ft": 196,
        "pop est": 15347
    },
    {
        "name": "Permobri",
        "what": "city",
        "region": "Bayelsa",
        "country": "Nigeria",
        "lat": 4.64,
        "long": 6.08,
        "elev ft": 196,
        "pop est": 15347
    },
    {
        "name": "Peruyale",
        "what": "city",
        "region": "Bayelsa",
        "country": "Nigeria",
        "lat": 4.89,
        "long": 5.7,
        "elev ft": 830,
        "pop est": 13438
    },
    {
        "name": "Peruyale Camp",
        "what": "city",
        "region": "Bayelsa",
        "country": "Nigeria",
        "lat": 4.89,
        "long": 5.7,
        "elev ft": 830,
        "pop est": 13438
    },
    {
        "name": "Pirigbene",
        "what": "city",
        "region": "Bayelsa",
        "country": "Nigeria",
        "lat": 4.63,
        "long": 6.17,
        "elev ft": 387,
        "pop est": 19987
    },
    {
        "name": "Pisegbene",
        "what": "city",
        "region": "Bayelsa",
        "country": "Nigeria",
        "lat": 4.48,
        "long": 5.92,
        "elev ft": 944,
        "pop est": 16689
    },
    {
        "name": "Podigbene",
        "what": "city",
        "region": "Bayelsa",
        "country": "Nigeria",
        "lat": 4.8,
        "long": 5.61,
        "elev ft": 830,
        "pop est": 14249
    },
    {
        "name": "Pogifie",
        "what": "city",
        "region": "Bayelsa",
        "country": "Nigeria",
        "lat": 4.38,
        "long": 6.2,
        "elev ft": 282,
        "pop est": 21903
    },
    {
        "name": "Polaku",
        "what": "city",
        "region": "Bayelsa",
        "country": "Nigeria",
        "lat": 5.03,
        "long": 6.28,
        "elev ft": 180,
        "pop est": 25242
    },
    {
        "name": "Polobogo",
        "what": "city",
        "region": "Bayelsa",
        "country": "Nigeria",
        "lat": 4.69,
        "long": 6.12,
        "elev ft": 272,
        "pop est": 16163
    },
    {
        "name": "Polobogu",
        "what": "city",
        "region": "Bayelsa",
        "country": "Nigeria",
        "lat": 4.69,
        "long": 6.12,
        "elev ft": 272,
        "pop est": 16163
    },
    {
        "name": "Polobugo",
        "what": "city",
        "region": "Bayelsa",
        "country": "Nigeria",
        "lat": 4.69,
        "long": 6.12,
        "elev ft": 272,
        "pop est": 16163
    },
    {
        "name": "Port Harcourtgbene",
        "what": "city",
        "region": "Bayelsa",
        "country": "Nigeria",
        "lat": 4.46,
        "long": 5.95,
        "elev ft": 908,
        "pop est": 19325
    },
    {
        "name": "Portharcourtgbene",
        "what": "city",
        "region": "Bayelsa",
        "country": "Nigeria",
        "lat": 4.46,
        "long": 5.95,
        "elev ft": 908,
        "pop est": 19325
    },
    {
        "name": "Precogbene",
        "what": "city",
        "region": "Bayelsa",
        "country": "Nigeria",
        "lat": 5.15,
        "long": 6.19,
        "elev ft": 278,
        "pop est": 31217
    },
    {
        "name": "Putugbene",
        "what": "city",
        "region": "Bayelsa",
        "country": "Nigeria",
        "lat": 4.68,
        "long": 5.76,
        "elev ft": 830,
        "pop est": 15347
    },
    {
        "name": "Raya",
        "what": "city",
        "region": "Bayelsa",
        "country": "Nigeria",
        "lat": 4.81,
        "long": 5.56,
        "elev ft": 334,
        "pop est": 13645
    },
    {
        "name": "Raya Camp",
        "what": "city",
        "region": "Bayelsa",
        "country": "Nigeria",
        "lat": 4.81,
        "long": 5.56,
        "elev ft": 334,
        "pop est": 13645
    },
    {
        "name": "Rituagbene",
        "what": "city",
        "region": "Bayelsa",
        "country": "Nigeria",
        "lat": 4.54,
        "long": 5.72,
        "elev ft": 830,
        "pop est": 10104
    },
    {
        "name": "Sabarugbene",
        "what": "city",
        "region": "Bayelsa",
        "country": "Nigeria",
        "lat": 4.55,
        "long": 5.96,
        "elev ft": 1092,
        "pop est": 15351
    },
    {
        "name": "Sabatoru",
        "what": "city",
        "region": "Bayelsa",
        "country": "Nigeria",
        "lat": 4.6,
        "long": 6.33,
        "elev ft": 1669,
        "pop est": 21903
    },
    {
        "name": "Sagbama",
        "what": "city",
        "region": "Bayelsa",
        "country": "Nigeria",
        "lat": 5.16,
        "long": 6.2,
        "elev ft": 275,
        "pop est": 31971
    },
    {
        "name": "Sagbama I",
        "what": "city",
        "region": "Bayelsa",
        "country": "Nigeria",
        "lat": 5.19,
        "long": 6.21,
        "elev ft": 275,
        "pop est": 30380
    },
    {
        "name": "Sagbama II",
        "what": "city",
        "region": "Bayelsa",
        "country": "Nigeria",
        "lat": 5.18,
        "long": 6.21,
        "elev ft": 275,
        "pop est": 29373
    },
    {
        "name": "Sagbama III",
        "what": "city",
        "region": "Bayelsa",
        "country": "Nigeria",
        "lat": 5.18,
        "long": 6.21,
        "elev ft": 275,
        "pop est": 29373
    },
    {
        "name": "Sagbarugbene",
        "what": "city",
        "region": "Bayelsa",
        "country": "Nigeria",
        "lat": 4.55,
        "long": 5.96,
        "elev ft": 1092,
        "pop est": 15351
    },
    {
        "name": "Sagbatorugbene",
        "what": "city",
        "region": "Bayelsa",
        "country": "Nigeria",
        "lat": 4.55,
        "long": 5.96,
        "elev ft": 1092,
        "pop est": 15351
    },
    {
        "name": "Sakiri",
        "what": "city",
        "region": "Bayelsa",
        "country": "Nigeria",
        "lat": 4.45,
        "long": 6.35,
        "elev ft": 1243,
        "pop est": 21903
    },
    {
        "name": "Sampor",
        "what": "city",
        "region": "Bayelsa",
        "country": "Nigeria",
        "lat": 5.15,
        "long": 6.36,
        "elev ft": 209,
        "pop est": 25181
    },
    {
        "name": "Samsonkiri",
        "what": "city",
        "region": "Bayelsa",
        "country": "Nigeria",
        "lat": 4.42,
        "long": 6.3,
        "elev ft": 275,
        "pop est": 21903
    },
    {
        "name": "Sanatobo",
        "what": "city",
        "region": "Bayelsa",
        "country": "Nigeria",
        "lat": 4.93,
        "long": 5.72,
        "elev ft": 830,
        "pop est": 13410
    },
    {
        "name": "Sangabama",
        "what": "city",
        "region": "Bayelsa",
        "country": "Nigeria",
        "lat": 4.8,
        "long": 6.24,
        "elev ft": 351,
        "pop est": 21883
    },
    {
        "name": "Sangagbene",
        "what": "city",
        "region": "Bayelsa",
        "country": "Nigeria",
        "lat": 4.61,
        "long": 5.75,
        "elev ft": 830,
        "pop est": 15347
    },
    {
        "name": "Sangakubu",
        "what": "city",
        "region": "Bayelsa",
        "country": "Nigeria",
        "lat": 4.58,
        "long": 6.23,
        "elev ft": 380,
        "pop est": 21903
    },
    {
        "name": "Sangama",
        "what": "city",
        "region": "Bayelsa",
        "country": "Nigeria",
        "lat": 4.33,
        "long": 5.99,
        "elev ft": 830,
        "pop est": 15008
    },
    {
        "name": "Sangana",
        "what": "city",
        "region": "Bayelsa",
        "country": "Nigeria",
        "lat": 4.33,
        "long": 5.99,
        "elev ft": 830,
        "pop est": 15008
    },
    {
        "name": "Sangapiri",
        "what": "city",
        "region": "Bayelsa",
        "country": "Nigeria",
        "lat": 4.56,
        "long": 6.49,
        "elev ft": 830,
        "pop est": 16940
    },
    {
        "name": "Sangatama",
        "what": "city",
        "region": "Bayelsa",
        "country": "Nigeria",
        "lat": 4.8,
        "long": 6.24,
        "elev ft": 351,
        "pop est": 21883
    },
    {
        "name": "Sangogbene",
        "what": "city",
        "region": "Bayelsa",
        "country": "Nigeria",
        "lat": 4.61,
        "long": 5.75,
        "elev ft": 830,
        "pop est": 15347
    },
    {
        "name": "Sebekiri",
        "what": "city",
        "region": "Bayelsa",
        "country": "Nigeria",
        "lat": 4.32,
        "long": 6.4,
        "elev ft": 1669,
        "pop est": 12046
    },
    {
        "name": "Segpe",
        "what": "city",
        "region": "Bayelsa",
        "country": "Nigeria",
        "lat": 4.55,
        "long": 5.82,
        "elev ft": 393,
        "pop est": 15351
    },
    {
        "name": "Seibiri",
        "what": "city",
        "region": "Bayelsa",
        "country": "Nigeria",
        "lat": 4.72,
        "long": 6.15,
        "elev ft": 410,
        "pop est": 17701
    },
    {
        "name": "Seibokorogha",
        "what": "city",
        "region": "Bayelsa",
        "country": "Nigeria",
        "lat": 5.03,
        "long": 6.25,
        "elev ft": 180,
        "pop est": 25242
    },
    {
        "name": "Seidogbene",
        "what": "city",
        "region": "Bayelsa",
        "country": "Nigeria",
        "lat": 4.79,
        "long": 5.7,
        "elev ft": 830,
        "pop est": 15047
    },
    {
        "name": "Sekikiri",
        "what": "city",
        "region": "Bayelsa",
        "country": "Nigeria",
        "lat": 4.47,
        "long": 6.24,
        "elev ft": 291,
        "pop est": 21903
    },
    {
        "name": "Sekingbene",
        "what": "city",
        "region": "Bayelsa",
        "country": "Nigeria",
        "lat": 5.23,
        "long": 6.23,
        "elev ft": 278,
        "pop est": 26763
    },
    {
        "name": "Semewata",
        "what": "city",
        "region": "Bayelsa",
        "country": "Nigeria",
        "lat": 4.86,
        "long": 5.48,
        "elev ft": 334,
        "pop est": 7639
    },
    {
        "name": "Senekubo",
        "what": "city",
        "region": "Bayelsa",
        "country": "Nigeria",
        "lat": 4.43,
        "long": 6.05,
        "elev ft": 183,
        "pop est": 21903
    },
    {
        "name": "Sengana",
        "what": "city",
        "region": "Bayelsa",
        "country": "Nigeria",
        "lat": 4.33,
        "long": 5.99,
        "elev ft": 830,
        "pop est": 15008
    },
    {
        "name": "Sesumogbene",
        "what": "city",
        "region": "Bayelsa",
        "country": "Nigeria",
        "lat": 4.62,
        "long": 5.81,
        "elev ft": 830,
        "pop est": 15347
    },
    {
        "name": "Shellkiri",
        "what": "city",
        "region": "Bayelsa",
        "country": "Nigeria",
        "lat": 4.54,
        "long": 6.53,
        "elev ft": 242,
        "pop est": 13527
    },
    {
        "name": "Sonamadingbene",
        "what": "city",
        "region": "Bayelsa",
        "country": "Nigeria",
        "lat": 4.62,
        "long": 5.66,
        "elev ft": 830,
        "pop est": 12306
    },
    {
        "name": "Sonomadungbene",
        "what": "city",
        "region": "Bayelsa",
        "country": "Nigeria",
        "lat": 4.62,
        "long": 5.66,
        "elev ft": 830,
        "pop est": 12306
    },
    {
        "name": "Sonotubogbene",
        "what": "city",
        "region": "Bayelsa",
        "country": "Nigeria",
        "lat": 4.49,
        "long": 5.95,
        "elev ft": 961,
        "pop est": 18077
    },
    {
        "name": "Soubar",
        "what": "city",
        "region": "Bayelsa",
        "country": "Nigeria",
        "lat": 4.84,
        "long": 5.75,
        "elev ft": 830,
        "pop est": 14330
    },
    {
        "name": "Sounkiri",
        "what": "city",
        "region": "Bayelsa",
        "country": "Nigeria",
        "lat": 4.61,
        "long": 6.26,
        "elev ft": 830,
        "pop est": 21903
    },
    {
        "name": "Spiff's Town",
        "what": "city",
        "region": "Bayelsa",
        "country": "Nigeria",
        "lat": 4.31,
        "long": 6.25,
        "elev ft": 830,
        "pop est": 13567
    },
    {
        "name": "Spiff\u2019s Town",
        "what": "city",
        "region": "Bayelsa",
        "country": "Nigeria",
        "lat": 4.31,
        "long": 6.25,
        "elev ft": 830,
        "pop est": 13567
    },
    {
        "name": "Sunmoun",
        "what": "city",
        "region": "Bayelsa",
        "country": "Nigeria",
        "lat": 4.95,
        "long": 5.84,
        "elev ft": 830,
        "pop est": 13410
    },
    {
        "name": "Suwadumagbene",
        "what": "city",
        "region": "Bayelsa",
        "country": "Nigeria",
        "lat": 4.76,
        "long": 5.75,
        "elev ft": 830,
        "pop est": 15347
    },
    {
        "name": "Swali",
        "what": "city",
        "region": "Bayelsa",
        "country": "Nigeria",
        "lat": 4.91,
        "long": 6.27,
        "elev ft": 351,
        "pop est": 24388
    },
    {
        "name": "Talagbene",
        "what": "city",
        "region": "Bayelsa",
        "country": "Nigeria",
        "lat": 4.6,
        "long": 5.89,
        "elev ft": 830,
        "pop est": 15347
    },
    {
        "name": "Talagbene",
        "what": "city",
        "region": "Bayelsa",
        "country": "Nigeria",
        "lat": 4.56,
        "long": 5.86,
        "elev ft": 354,
        "pop est": 15350
    },
    {
        "name": "Tamogbene",
        "what": "city",
        "region": "Bayelsa",
        "country": "Nigeria",
        "lat": 4.98,
        "long": 5.75,
        "elev ft": 830,
        "pop est": 13384
    },
    {
        "name": "Tana",
        "what": "city",
        "region": "Bayelsa",
        "country": "Nigeria",
        "lat": 4.49,
        "long": 6.15,
        "elev ft": 288,
        "pop est": 21903
    },
    {
        "name": "Tangagbene",
        "what": "city",
        "region": "Bayelsa",
        "country": "Nigeria",
        "lat": 4.56,
        "long": 5.7,
        "elev ft": 830,
        "pop est": 10487
    },
    {
        "name": "Tangbene",
        "what": "city",
        "region": "Bayelsa",
        "country": "Nigeria",
        "lat": 4.56,
        "long": 5.7,
        "elev ft": 830,
        "pop est": 10487
    },
    {
        "name": "Tebeteboikiri",
        "what": "city",
        "region": "Bayelsa",
        "country": "Nigeria",
        "lat": 4.46,
        "long": 6.39,
        "elev ft": 1669,
        "pop est": 21903
    },
    {
        "name": "Tebidaba",
        "what": "city",
        "region": "Bayelsa",
        "country": "Nigeria",
        "lat": 4.58,
        "long": 5.97,
        "elev ft": 1131,
        "pop est": 15347
    },
    {
        "name": "Tebidaba Market",
        "what": "city",
        "region": "Bayelsa",
        "country": "Nigeria",
        "lat": 4.52,
        "long": 5.93,
        "elev ft": 997,
        "pop est": 15790
    },
    {
        "name": "Tebitaba",
        "what": "city",
        "region": "Bayelsa",
        "country": "Nigeria",
        "lat": 4.58,
        "long": 5.97,
        "elev ft": 1131,
        "pop est": 15347
    },
    {
        "name": "Tebitabator",
        "what": "city",
        "region": "Bayelsa",
        "country": "Nigeria",
        "lat": 4.48,
        "long": 5.92,
        "elev ft": 938,
        "pop est": 16633
    },
    {
        "name": "Tebitubator",
        "what": "city",
        "region": "Bayelsa",
        "country": "Nigeria",
        "lat": 4.48,
        "long": 5.92,
        "elev ft": 938,
        "pop est": 16633
    },
    {
        "name": "Tefic",
        "what": "city",
        "region": "Bayelsa",
        "country": "Nigeria",
        "lat": 4.32,
        "long": 6.45,
        "elev ft": 0,
        "pop est": 7377
    },
    {
        "name": "Teinmerenighagbene",
        "what": "city",
        "region": "Bayelsa",
        "country": "Nigeria",
        "lat": 4.99,
        "long": 5.62,
        "elev ft": 298,
        "pop est": 13380
    },
    {
        "name": "Telosegbene",
        "what": "city",
        "region": "Bayelsa",
        "country": "Nigeria",
        "lat": 4.78,
        "long": 5.66,
        "elev ft": 830,
        "pop est": 15115
    },
    {
        "name": "Tenfiaso",
        "what": "city",
        "region": "Bayelsa",
        "country": "Nigeria",
        "lat": 4.73,
        "long": 5.6,
        "elev ft": 830,
        "pop est": 14156
    },
    {
        "name": "Tengikiri",
        "what": "city",
        "region": "Bayelsa",
        "country": "Nigeria",
        "lat": 4.57,
        "long": 6.29,
        "elev ft": 1187,
        "pop est": 21903
    },
    {
        "name": "Terminus Settlement",
        "what": "city",
        "region": "Bayelsa",
        "country": "Nigeria",
        "lat": 4.3,
        "long": 6.24,
        "elev ft": 0,
        "pop est": 11793
    },
    {
        "name": "Tesigbene",
        "what": "city",
        "region": "Bayelsa",
        "country": "Nigeria",
        "lat": 4.98,
        "long": 5.65,
        "elev ft": 337,
        "pop est": 13384
    },
    {
        "name": "Tetiere",
        "what": "city",
        "region": "Bayelsa",
        "country": "Nigeria",
        "lat": 4.9,
        "long": 5.55,
        "elev ft": 334,
        "pop est": 13410
    },
    {
        "name": "Theophiluskiri",
        "what": "city",
        "region": "Bayelsa",
        "country": "Nigeria",
        "lat": 4.32,
        "long": 6.53,
        "elev ft": 0,
        "pop est": 5155
    },
    {
        "name": "Tibitaba",
        "what": "city",
        "region": "Bayelsa",
        "country": "Nigeria",
        "lat": 4.58,
        "long": 5.97,
        "elev ft": 1131,
        "pop est": 15347
    },
    {
        "name": "Tibogbene",
        "what": "city",
        "region": "Bayelsa",
        "country": "Nigeria",
        "lat": 4.69,
        "long": 5.77,
        "elev ft": 830,
        "pop est": 15347
    },
    {
        "name": "Tipama",
        "what": "city",
        "region": "Bayelsa",
        "country": "Nigeria",
        "lat": 4.41,
        "long": 5.9,
        "elev ft": 879,
        "pop est": 15964
    },
    {
        "name": "Tlajekiri",
        "what": "city",
        "region": "Bayelsa",
        "country": "Nigeria",
        "lat": 4.3,
        "long": 6.28,
        "elev ft": 0,
        "pop est": 10442
    },
    {
        "name": "Tobugbene",
        "what": "city",
        "region": "Bayelsa",
        "country": "Nigeria",
        "lat": 4.83,
        "long": 5.78,
        "elev ft": 830,
        "pop est": 14609
    },
    {
        "name": "Todogbene",
        "what": "city",
        "region": "Bayelsa",
        "country": "Nigeria",
        "lat": 4.69,
        "long": 5.58,
        "elev ft": 830,
        "pop est": 8687
    },
    {
        "name": "Tokogbene",
        "what": "city",
        "region": "Bayelsa",
        "country": "Nigeria",
        "lat": 4.63,
        "long": 6.15,
        "elev ft": 367,
        "pop est": 18976
    },
    {
        "name": "Tombia",
        "what": "city",
        "region": "Bayelsa",
        "country": "Nigeria",
        "lat": 5.0,
        "long": 6.27,
        "elev ft": 187,
        "pop est": 25277
    },
    {
        "name": "Tomkiri",
        "what": "city",
        "region": "Bayelsa",
        "country": "Nigeria",
        "lat": 4.41,
        "long": 6.25,
        "elev ft": 275,
        "pop est": 21903
    },
    {
        "name": "Tomogbene",
        "what": "city",
        "region": "Bayelsa",
        "country": "Nigeria",
        "lat": 4.98,
        "long": 5.75,
        "elev ft": 830,
        "pop est": 13384
    },
    {
        "name": "Tomykiri",
        "what": "city",
        "region": "Bayelsa",
        "country": "Nigeria",
        "lat": 4.41,
        "long": 6.25,
        "elev ft": 275,
        "pop est": 21903
    },
    {
        "name": "Tono",
        "what": "city",
        "region": "Bayelsa",
        "country": "Nigeria",
        "lat": 4.99,
        "long": 5.51,
        "elev ft": 337,
        "pop est": 13410
    },
    {
        "name": "Toru-Ndoro",
        "what": "city",
        "region": "Bayelsa",
        "country": "Nigeria",
        "lat": 5.04,
        "long": 5.6,
        "elev ft": 3,
        "pop est": 13293
    },
    {
        "name": "Toru-Orua",
        "what": "city",
        "region": "Bayelsa",
        "country": "Nigeria",
        "lat": 5.1,
        "long": 6.06,
        "elev ft": 360,
        "pop est": 29231
    },
    {
        "name": "Torugbene",
        "what": "city",
        "region": "Bayelsa",
        "country": "Nigeria",
        "lat": 4.98,
        "long": 6.08,
        "elev ft": 259,
        "pop est": 18848
    },
    {
        "name": "Toruibene",
        "what": "city",
        "region": "Bayelsa",
        "country": "Nigeria",
        "lat": 4.98,
        "long": 6.08,
        "elev ft": 259,
        "pop est": 18848
    },
    {
        "name": "Torukirigbene",
        "what": "city",
        "region": "Bayelsa",
        "country": "Nigeria",
        "lat": 4.89,
        "long": 5.72,
        "elev ft": 830,
        "pop est": 13410
    },
    {
        "name": "Torunbubo Camp III",
        "what": "city",
        "region": "Bayelsa",
        "country": "Nigeria",
        "lat": 5.21,
        "long": 6.2,
        "elev ft": 278,
        "pop est": 37108
    },
    {
        "name": "Totoigbene",
        "what": "city",
        "region": "Bayelsa",
        "country": "Nigeria",
        "lat": 4.76,
        "long": 5.76,
        "elev ft": 830,
        "pop est": 15347
    },
    {
        "name": "Tubobubo",
        "what": "city",
        "region": "Bayelsa",
        "country": "Nigeria",
        "lat": 4.67,
        "long": 5.8,
        "elev ft": 830,
        "pop est": 15347
    },
    {
        "name": "Tubokoroya",
        "what": "city",
        "region": "Bayelsa",
        "country": "Nigeria",
        "lat": 4.44,
        "long": 5.86,
        "elev ft": 830,
        "pop est": 13394
    },
    {
        "name": "Tubuama",
        "what": "city",
        "region": "Bayelsa",
        "country": "Nigeria",
        "lat": 4.31,
        "long": 6.17,
        "elev ft": 298,
        "pop est": 17816
    },
    {
        "name": "Tuimpeigagbene",
        "what": "city",
        "region": "Bayelsa",
        "country": "Nigeria",
        "lat": 4.4,
        "long": 5.87,
        "elev ft": 830,
        "pop est": 10976
    },
    {
        "name": "Tuinpega",
        "what": "city",
        "region": "Bayelsa",
        "country": "Nigeria",
        "lat": 4.41,
        "long": 5.9,
        "elev ft": 879,
        "pop est": 15964
    },
    {
        "name": "Tuinpega",
        "what": "city",
        "region": "Bayelsa",
        "country": "Nigeria",
        "lat": 4.56,
        "long": 5.7,
        "elev ft": 830,
        "pop est": 10487
    },
    {
        "name": "Tukogbene",
        "what": "city",
        "region": "Bayelsa",
        "country": "Nigeria",
        "lat": 4.63,
        "long": 6.15,
        "elev ft": 367,
        "pop est": 18976
    },
    {
        "name": "Tukoru",
        "what": "city",
        "region": "Bayelsa",
        "country": "Nigeria",
        "lat": 4.89,
        "long": 5.51,
        "elev ft": 357,
        "pop est": 12940
    },
    {
        "name": "Tukorugbene",
        "what": "city",
        "region": "Bayelsa",
        "country": "Nigeria",
        "lat": 4.94,
        "long": 5.55,
        "elev ft": 334,
        "pop est": 13410
    },
    {
        "name": "Tukugbene",
        "what": "city",
        "region": "Bayelsa",
        "country": "Nigeria",
        "lat": 4.42,
        "long": 5.85,
        "elev ft": 830,
        "pop est": 9677
    },
    {
        "name": "Tuluama",
        "what": "city",
        "region": "Bayelsa",
        "country": "Nigeria",
        "lat": 4.31,
        "long": 6.17,
        "elev ft": 298,
        "pop est": 17816
    },
    {
        "name": "Tumgbo Camp I",
        "what": "city",
        "region": "Bayelsa",
        "country": "Nigeria",
        "lat": 5.12,
        "long": 6.16,
        "elev ft": 275,
        "pop est": 28784
    },
    {
        "name": "Tumgbo Camp II",
        "what": "city",
        "region": "Bayelsa",
        "country": "Nigeria",
        "lat": 5.12,
        "long": 6.17,
        "elev ft": 275,
        "pop est": 28784
    },
    {
        "name": "Tumgbo III",
        "what": "city",
        "region": "Bayelsa",
        "country": "Nigeria",
        "lat": 5.12,
        "long": 6.16,
        "elev ft": 278,
        "pop est": 26589
    },
    {
        "name": "Tumgbo IV",
        "what": "city",
        "region": "Bayelsa",
        "country": "Nigeria",
        "lat": 5.11,
        "long": 6.15,
        "elev ft": 278,
        "pop est": 27108
    },
    {
        "name": "Tumgbo V",
        "what": "city",
        "region": "Bayelsa",
        "country": "Nigeria",
        "lat": 5.12,
        "long": 6.15,
        "elev ft": 278,
        "pop est": 27337
    },
    {
        "name": "Tungbo",
        "what": "city",
        "region": "Bayelsa",
        "country": "Nigeria",
        "lat": 5.12,
        "long": 6.17,
        "elev ft": 275,
        "pop est": 28004
    },
    {
        "name": "Tunu",
        "what": "city",
        "region": "Bayelsa",
        "country": "Nigeria",
        "lat": 5.11,
        "long": 5.45,
        "elev ft": 3,
        "pop est": 13297
    },
    {
        "name": "Turu",
        "what": "city",
        "region": "Bayelsa",
        "country": "Nigeria",
        "lat": 4.94,
        "long": 5.53,
        "elev ft": 344,
        "pop est": 13410
    },
    {
        "name": "Twon",
        "what": "city",
        "region": "Bayelsa",
        "country": "Nigeria",
        "lat": 4.32,
        "long": 6.24,
        "elev ft": 390,
        "pop est": 15478
    },
    {
        "name": "Twon-Brass",
        "what": "city",
        "region": "Bayelsa",
        "country": "Nigeria",
        "lat": 4.31,
        "long": 6.24,
        "elev ft": 410,
        "pop est": 15721
    },
    {
        "name": "Twonkubu",
        "what": "city",
        "region": "Bayelsa",
        "country": "Nigeria",
        "lat": 4.33,
        "long": 6.25,
        "elev ft": 830,
        "pop est": 18861
    },
    {
        "name": "Udotomi",
        "what": "city",
        "region": "Bayelsa",
        "country": "Nigeria",
        "lat": 4.98,
        "long": 5.67,
        "elev ft": 344,
        "pop est": 13344
    },
    {
        "name": "Ufort",
        "what": "city",
        "region": "Bayelsa",
        "country": "Nigeria",
        "lat": 4.97,
        "long": 5.71,
        "elev ft": 830,
        "pop est": 13377
    },
    {
        "name": "Ufort Camp",
        "what": "city",
        "region": "Bayelsa",
        "country": "Nigeria",
        "lat": 4.97,
        "long": 5.71,
        "elev ft": 830,
        "pop est": 13377
    },
    {
        "name": "Ukpatatube",
        "what": "city",
        "region": "Bayelsa",
        "country": "Nigeria",
        "lat": 4.78,
        "long": 5.85,
        "elev ft": 830,
        "pop est": 15347
    },
    {
        "name": "Ukubio",
        "what": "city",
        "region": "Bayelsa",
        "country": "Nigeria",
        "lat": 4.69,
        "long": 5.84,
        "elev ft": 830,
        "pop est": 15347
    },
    {
        "name": "Umbugbene",
        "what": "city",
        "region": "Bayelsa",
        "country": "Nigeria",
        "lat": 4.81,
        "long": 6.02,
        "elev ft": 406,
        "pop est": 15900
    },
    {
        "name": "Umuodumu",
        "what": "city",
        "region": "Bayelsa",
        "country": "Nigeria",
        "lat": 5.13,
        "long": 6.15,
        "elev ft": 278,
        "pop est": 32608
    },
    {
        "name": "Urhegbene",
        "what": "city",
        "region": "Bayelsa",
        "country": "Nigeria",
        "lat": 4.99,
        "long": 5.69,
        "elev ft": 374,
        "pop est": 13317
    },
    {
        "name": "Urhobo Camp",
        "what": "city",
        "region": "Bayelsa",
        "country": "Nigeria",
        "lat": 4.94,
        "long": 5.9,
        "elev ft": 830,
        "pop est": 13502
    },
    {
        "name": "Urhobo Settlement",
        "what": "city",
        "region": "Bayelsa",
        "country": "Nigeria",
        "lat": 4.55,
        "long": 5.69,
        "elev ft": 830,
        "pop est": 9402
    },
    {
        "name": "Urhobo-Camp",
        "what": "city",
        "region": "Bayelsa",
        "country": "Nigeria",
        "lat": 5.23,
        "long": 6.24,
        "elev ft": 278,
        "pop est": 23096
    },
    {
        "name": "Urhobo-Camp",
        "what": "city",
        "region": "Bayelsa",
        "country": "Nigeria",
        "lat": 5.22,
        "long": 6.24,
        "elev ft": 278,
        "pop est": 24842
    },
    {
        "name": "Uruama",
        "what": "city",
        "region": "Bayelsa",
        "country": "Nigeria",
        "lat": 4.92,
        "long": 6.42,
        "elev ft": 830,
        "pop est": 28123
    },
    {
        "name": "Wagana",
        "what": "city",
        "region": "Bayelsa",
        "country": "Nigeria",
        "lat": 4.97,
        "long": 5.62,
        "elev ft": 334,
        "pop est": 13410
    },
    {
        "name": "Wagetie",
        "what": "city",
        "region": "Bayelsa",
        "country": "Nigeria",
        "lat": 4.32,
        "long": 6.14,
        "elev ft": 275,
        "pop est": 19849
    },
    {
        "name": "Walterkiri",
        "what": "city",
        "region": "Bayelsa",
        "country": "Nigeria",
        "lat": 4.41,
        "long": 6.26,
        "elev ft": 282,
        "pop est": 21903
    },
    {
        "name": "Walterkiri",
        "what": "city",
        "region": "Bayelsa",
        "country": "Nigeria",
        "lat": 4.42,
        "long": 6.32,
        "elev ft": 1000,
        "pop est": 21903
    },
    {
        "name": "Waribokiri",
        "what": "city",
        "region": "Bayelsa",
        "country": "Nigeria",
        "lat": 4.66,
        "long": 6.49,
        "elev ft": 298,
        "pop est": 17174
    },
    {
        "name": "Waribugama",
        "what": "city",
        "region": "Bayelsa",
        "country": "Nigeria",
        "lat": 4.72,
        "long": 6.35,
        "elev ft": 830,
        "pop est": 21903
    },
    {
        "name": "Waribugoama",
        "what": "city",
        "region": "Bayelsa",
        "country": "Nigeria",
        "lat": 4.72,
        "long": 6.35,
        "elev ft": 830,
        "pop est": 21903
    },
    {
        "name": "Waribugogbene",
        "what": "city",
        "region": "Bayelsa",
        "country": "Nigeria",
        "lat": 4.61,
        "long": 5.98,
        "elev ft": 1217,
        "pop est": 15347
    },
    {
        "name": "Warri",
        "what": "city",
        "region": "Bayelsa",
        "country": "Nigeria",
        "lat": 4.32,
        "long": 6.25,
        "elev ft": 830,
        "pop est": 17260
    },
    {
        "name": "Watchmangbene",
        "what": "city",
        "region": "Bayelsa",
        "country": "Nigeria",
        "lat": 4.79,
        "long": 5.95,
        "elev ft": 830,
        "pop est": 15347
    },
    {
        "name": "Welsenkingbogbene",
        "what": "city",
        "region": "Bayelsa",
        "country": "Nigeria",
        "lat": 4.59,
        "long": 5.95,
        "elev ft": 1079,
        "pop est": 15347
    },
    {
        "name": "Welson Kinbogbene",
        "what": "city",
        "region": "Bayelsa",
        "country": "Nigeria",
        "lat": 4.59,
        "long": 5.95,
        "elev ft": 1079,
        "pop est": 15347
    },
    {
        "name": "Womoposigbene",
        "what": "city",
        "region": "Bayelsa",
        "country": "Nigeria",
        "lat": 4.81,
        "long": 5.58,
        "elev ft": 830,
        "pop est": 13983
    },
    {
        "name": "Yedogbene",
        "what": "city",
        "region": "Bayelsa",
        "country": "Nigeria",
        "lat": 4.56,
        "long": 5.82,
        "elev ft": 410,
        "pop est": 15351
    },
    {
        "name": "Yedorgbene",
        "what": "city",
        "region": "Bayelsa",
        "country": "Nigeria",
        "lat": 4.56,
        "long": 5.82,
        "elev ft": 410,
        "pop est": 15351
    },
    {
        "name": "Yellowgbene",
        "what": "city",
        "region": "Bayelsa",
        "country": "Nigeria",
        "lat": 4.95,
        "long": 5.55,
        "elev ft": 334,
        "pop est": 13410
    },
    {
        "name": "Yenagoa",
        "what": "city",
        "region": "Bayelsa",
        "country": "Nigeria",
        "lat": 4.93,
        "long": 6.27,
        "elev ft": 295,
        "pop est": 24908
    },
    {
        "name": "Yenaka",
        "what": "city",
        "region": "Bayelsa",
        "country": "Nigeria",
        "lat": 4.95,
        "long": 6.25,
        "elev ft": 282,
        "pop est": 25328
    },
    {
        "name": "Yenegoa",
        "what": "city",
        "region": "Bayelsa",
        "country": "Nigeria",
        "lat": 4.93,
        "long": 6.27,
        "elev ft": 295,
        "pop est": 24908
    },
    {
        "name": "Yenegwe",
        "what": "city",
        "region": "Bayelsa",
        "country": "Nigeria",
        "lat": 5.02,
        "long": 6.4,
        "elev ft": 321,
        "pop est": 30615
    },
    {
        "name": "Yenizue Epie",
        "what": "city",
        "region": "Bayelsa",
        "country": "Nigeria",
        "lat": 4.93,
        "long": 6.3,
        "elev ft": 830,
        "pop est": 24513
    },
    {
        "name": "Yomugbegbene",
        "what": "city",
        "region": "Bayelsa",
        "country": "Nigeria",
        "lat": 4.83,
        "long": 5.6,
        "elev ft": 334,
        "pop est": 13732
    },
    {
        "name": "Ziakedegbene",
        "what": "city",
        "region": "Bayelsa",
        "country": "Nigeria",
        "lat": 4.98,
        "long": 5.61,
        "elev ft": 308,
        "pop est": 13410
    },
    {
        "name": "Zigbene",
        "what": "city",
        "region": "Bayelsa",
        "country": "Nigeria",
        "lat": 4.81,
        "long": 5.59,
        "elev ft": 830,
        "pop est": 14046
    },
    {
        "name": "Zorbogbene",
        "what": "city",
        "region": "Bayelsa",
        "country": "Nigeria",
        "lat": 4.58,
        "long": 5.87,
        "elev ft": 314,
        "pop est": 15347
    },
    {
        "name": "Zumangbene",
        "what": "city",
        "region": "Bayelsa",
        "country": "Nigeria",
        "lat": 5.13,
        "long": 6.11,
        "elev ft": 305,
        "pop est": 38552
    }
]