[
    {
        "name": "Abaji",
        "what": "city",
        "region": "Federal Capital Territory",
        "country": "Nigeria",
        "lat": 8.47,
        "long": 6.94,
        "elev ft": 830,
        "pop est": 5313
    },
    {
        "name": "Abod\u017ea",
        "what": "city",
        "region": "Federal Capital Territory",
        "country": "Nigeria",
        "lat": 9.08,
        "long": 7.53,
        "elev ft": 2552,
        "pop est": 13708
    },
    {
        "name": "Abouja",
        "what": "city",
        "region": "Federal Capital Territory",
        "country": "Nigeria",
        "lat": 9.08,
        "long": 7.53,
        "elev ft": 2552,
        "pop est": 13708
    },
    {
        "name": "Abuca",
        "what": "city",
        "region": "Federal Capital Territory",
        "country": "Nigeria",
        "lat": 9.08,
        "long": 7.53,
        "elev ft": 2552,
        "pop est": 13708
    },
    {
        "name": "Abud\u017ca",
        "what": "city",
        "region": "Federal Capital Territory",
        "country": "Nigeria",
        "lat": 9.08,
        "long": 7.53,
        "elev ft": 2552,
        "pop est": 13708
    },
    {
        "name": "Abud\u017e",
        "what": "city",
        "region": "Federal Capital Territory",
        "country": "Nigeria",
        "lat": 9.08,
        "long": 7.53,
        "elev ft": 2552,
        "pop est": 13708
    },
    {
        "name": "Abugia",
        "what": "city",
        "region": "Federal Capital Territory",
        "country": "Nigeria",
        "lat": 9.08,
        "long": 7.53,
        "elev ft": 2552,
        "pop est": 13708
    },
    {
        "name": "Abuja",
        "what": "city",
        "region": "Federal Capital Territory",
        "country": "Nigeria",
        "lat": 9.25,
        "long": 6.93,
        "elev ft": 830,
        "pop est": 938
    },
    {
        "name": "Abuja",
        "what": "city",
        "region": "Federal Capital Territory",
        "country": "Nigeria",
        "lat": 9.08,
        "long": 7.53,
        "elev ft": 2552,
        "pop est": 13708
    },
    {
        "name": "Abu\u011do",
        "what": "city",
        "region": "Federal Capital Territory",
        "country": "Nigeria",
        "lat": 9.08,
        "long": 7.53,
        "elev ft": 2552,
        "pop est": 13708
    },
    {
        "name": "Ab\u00fatja",
        "what": "city",
        "region": "Federal Capital Territory",
        "country": "Nigeria",
        "lat": 9.08,
        "long": 7.53,
        "elev ft": 2552,
        "pop est": 13708
    },
    {
        "name": "Adadu",
        "what": "city",
        "region": "Federal Capital Territory",
        "country": "Nigeria",
        "lat": 8.86,
        "long": 7.14,
        "elev ft": 1994,
        "pop est": 7137
    },
    {
        "name": "Agwai",
        "what": "city",
        "region": "Federal Capital Territory",
        "country": "Nigeria",
        "lat": 8.56,
        "long": 7.23,
        "elev ft": 1000,
        "pop est": 5662
    },
    {
        "name": "Aji",
        "what": "city",
        "region": "Federal Capital Territory",
        "country": "Nigeria",
        "lat": 9.29,
        "long": 7.33,
        "elev ft": 1735,
        "pop est": 9877
    },
    {
        "name": "Anagada",
        "what": "city",
        "region": "Federal Capital Territory",
        "country": "Nigeria",
        "lat": 9.04,
        "long": 7.17,
        "elev ft": 994,
        "pop est": 8268
    },
    {
        "name": "Anagbaki",
        "what": "city",
        "region": "Federal Capital Territory",
        "country": "Nigeria",
        "lat": 8.46,
        "long": 7.08,
        "elev ft": 830,
        "pop est": 5538
    },
    {
        "name": "Anka",
        "what": "city",
        "region": "Federal Capital Territory",
        "country": "Nigeria",
        "lat": 8.92,
        "long": 7.55,
        "elev ft": 1669,
        "pop est": 13068
    },
    {
        "name": "Ankuru",
        "what": "city",
        "region": "Federal Capital Territory",
        "country": "Nigeria",
        "lat": 9.06,
        "long": 7.46,
        "elev ft": 1692,
        "pop est": 13708
    },
    {
        "name": "Aso",
        "what": "city",
        "region": "Federal Capital Territory",
        "country": "Nigeria",
        "lat": 9.04,
        "long": 7.52,
        "elev ft": 1886,
        "pop est": 13708
    },
    {
        "name": "Aso",
        "what": "city",
        "region": "Federal Capital Territory",
        "country": "Nigeria",
        "lat": 9.05,
        "long": 7.53,
        "elev ft": 1902,
        "pop est": 13708
    },
    {
        "name": "Asokoro",
        "what": "city",
        "region": "Federal Capital Territory",
        "country": "Nigeria",
        "lat": 9.05,
        "long": 7.53,
        "elev ft": 1902,
        "pop est": 13708
    },
    {
        "name": "Atako",
        "what": "city",
        "region": "Federal Capital Territory",
        "country": "Nigeria",
        "lat": 8.46,
        "long": 7.01,
        "elev ft": 830,
        "pop est": 5691
    },
    {
        "name": "Awa",
        "what": "city",
        "region": "Federal Capital Territory",
        "country": "Nigeria",
        "lat": 8.75,
        "long": 7.48,
        "elev ft": 1669,
        "pop est": 9947
    },
    {
        "name": "Baban-Rafi",
        "what": "city",
        "region": "Federal Capital Territory",
        "country": "Nigeria",
        "lat": 9.3,
        "long": 7.59,
        "elev ft": 2509,
        "pop est": 12949
    },
    {
        "name": "Babban Tsauni",
        "what": "city",
        "region": "Federal Capital Territory",
        "country": "Nigeria",
        "lat": 9.16,
        "long": 6.96,
        "elev ft": 1000,
        "pop est": 5418
    },
    {
        "name": "Bambo",
        "what": "city",
        "region": "Federal Capital Territory",
        "country": "Nigeria",
        "lat": 8.57,
        "long": 7.39,
        "elev ft": 1062,
        "pop est": 5753
    },
    {
        "name": "Bangwo",
        "what": "city",
        "region": "Federal Capital Territory",
        "country": "Nigeria",
        "lat": 9.09,
        "long": 7.17,
        "elev ft": 997,
        "pop est": 47319
    },
    {
        "name": "Barari",
        "what": "city",
        "region": "Federal Capital Territory",
        "country": "Nigeria",
        "lat": 8.81,
        "long": 7.22,
        "elev ft": 964,
        "pop est": 6668
    },
    {
        "name": "Bassa",
        "what": "city",
        "region": "Federal Capital Territory",
        "country": "Nigeria",
        "lat": 8.96,
        "long": 7.13,
        "elev ft": 830,
        "pop est": 8909
    },
    {
        "name": "Bogu",
        "what": "city",
        "region": "Federal Capital Territory",
        "country": "Nigeria",
        "lat": 8.64,
        "long": 7.4,
        "elev ft": 1204,
        "pop est": 6153
    },
    {
        "name": "Boi",
        "what": "city",
        "region": "Federal Capital Territory",
        "country": "Nigeria",
        "lat": 9.01,
        "long": 7.56,
        "elev ft": 1732,
        "pop est": 19592
    },
    {
        "name": "Budupe",
        "what": "city",
        "region": "Federal Capital Territory",
        "country": "Nigeria",
        "lat": 9.19,
        "long": 7.47,
        "elev ft": 2509,
        "pop est": 13316
    },
    {
        "name": "Burum",
        "what": "city",
        "region": "Federal Capital Territory",
        "country": "Nigeria",
        "lat": 8.91,
        "long": 7.49,
        "elev ft": 1669,
        "pop est": 13116
    },
    {
        "name": "Buzai Tudai",
        "what": "city",
        "region": "Federal Capital Territory",
        "country": "Nigeria",
        "lat": 8.57,
        "long": 7.18,
        "elev ft": 984,
        "pop est": 5662
    },
    {
        "name": "Bwari",
        "what": "city",
        "region": "Federal Capital Territory",
        "country": "Nigeria",
        "lat": 9.28,
        "long": 7.38,
        "elev ft": 1945,
        "pop est": 12623
    },
    {
        "name": "Bwom",
        "what": "city",
        "region": "Federal Capital Territory",
        "country": "Nigeria",
        "lat": 9.24,
        "long": 7.28,
        "elev ft": 1945,
        "pop est": 16554
    },
    {
        "name": "Chigwai",
        "what": "city",
        "region": "Federal Capital Territory",
        "country": "Nigeria",
        "lat": 8.72,
        "long": 7.13,
        "elev ft": 830,
        "pop est": 5631
    },
    {
        "name": "Cukumi",
        "what": "city",
        "region": "Federal Capital Territory",
        "country": "Nigeria",
        "lat": 9.34,
        "long": 7.52,
        "elev ft": 2509,
        "pop est": 8232
    },
    {
        "name": "Dadabiri",
        "what": "city",
        "region": "Federal Capital Territory",
        "country": "Nigeria",
        "lat": 9.21,
        "long": 6.98,
        "elev ft": 830,
        "pop est": 3177
    },
    {
        "name": "Dafa",
        "what": "city",
        "region": "Federal Capital Territory",
        "country": "Nigeria",
        "lat": 8.77,
        "long": 7.02,
        "elev ft": 830,
        "pop est": 5811
    },
    {
        "name": "Dakaa",
        "what": "city",
        "region": "Federal Capital Territory",
        "country": "Nigeria",
        "lat": 9.39,
        "long": 7.61,
        "elev ft": 2509,
        "pop est": 6368
    },
    {
        "name": "Dakibiu",
        "what": "city",
        "region": "Federal Capital Territory",
        "country": "Nigeria",
        "lat": 9.06,
        "long": 7.43,
        "elev ft": 1669,
        "pop est": 13708
    },
    {
        "name": "Dakiliko",
        "what": "city",
        "region": "Federal Capital Territory",
        "country": "Nigeria",
        "lat": 9.06,
        "long": 7.2,
        "elev ft": 1030,
        "pop est": 34458
    },
    {
        "name": "Dako",
        "what": "city",
        "region": "Federal Capital Territory",
        "country": "Nigeria",
        "lat": 9.01,
        "long": 6.88,
        "elev ft": 830,
        "pop est": 5571
    },
    {
        "name": "Dakwa",
        "what": "city",
        "region": "Federal Capital Territory",
        "country": "Nigeria",
        "lat": 9.11,
        "long": 7.23,
        "elev ft": 1669,
        "pop est": 71883
    },
    {
        "name": "Dawari",
        "what": "city",
        "region": "Federal Capital Territory",
        "country": "Nigeria",
        "lat": 9.03,
        "long": 6.93,
        "elev ft": 830,
        "pop est": 5802
    },
    {
        "name": "Dawliko",
        "what": "city",
        "region": "Federal Capital Territory",
        "country": "Nigeria",
        "lat": 9.06,
        "long": 7.2,
        "elev ft": 1030,
        "pop est": 34458
    },
    {
        "name": "Dewu",
        "what": "city",
        "region": "Federal Capital Territory",
        "country": "Nigeria",
        "lat": 9.24,
        "long": 6.92,
        "elev ft": 830,
        "pop est": 1420
    },
    {
        "name": "Dobi",
        "what": "city",
        "region": "Federal Capital Territory",
        "country": "Nigeria",
        "lat": 9.06,
        "long": 6.99,
        "elev ft": 830,
        "pop est": 5811
    },
    {
        "name": "Durumi",
        "what": "city",
        "region": "Federal Capital Territory",
        "country": "Nigeria",
        "lat": 9.17,
        "long": 7.5,
        "elev ft": 2509,
        "pop est": 13424
    },
    {
        "name": "Dushekoro",
        "what": "city",
        "region": "Federal Capital Territory",
        "country": "Nigeria",
        "lat": 9.14,
        "long": 7.37,
        "elev ft": 1912,
        "pop est": 13652
    },
    {
        "name": "Dushepe",
        "what": "city",
        "region": "Federal Capital Territory",
        "country": "Nigeria",
        "lat": 9.15,
        "long": 7.37,
        "elev ft": 1912,
        "pop est": 13620
    },
    {
        "name": "Ebwa",
        "what": "city",
        "region": "Federal Capital Territory",
        "country": "Nigeria",
        "lat": 9.07,
        "long": 7.06,
        "elev ft": 830,
        "pop est": 5811
    },
    {
        "name": "Eka",
        "what": "city",
        "region": "Federal Capital Territory",
        "country": "Nigeria",
        "lat": 9.03,
        "long": 7.06,
        "elev ft": 830,
        "pop est": 5811
    },
    {
        "name": "Ekpa",
        "what": "city",
        "region": "Federal Capital Territory",
        "country": "Nigeria",
        "lat": 9.09,
        "long": 7.21,
        "elev ft": 1669,
        "pop est": 60962
    },
    {
        "name": "Foroko",
        "what": "city",
        "region": "Federal Capital Territory",
        "country": "Nigeria",
        "lat": 9.0,
        "long": 7.54,
        "elev ft": 1761,
        "pop est": 14280
    },
    {
        "name": "Fuka",
        "what": "city",
        "region": "Federal Capital Territory",
        "country": "Nigeria",
        "lat": 9.21,
        "long": 6.81,
        "elev ft": 1105,
        "pop est": 1337
    },
    {
        "name": "Furah",
        "what": "city",
        "region": "Federal Capital Territory",
        "country": "Nigeria",
        "lat": 9.03,
        "long": 7.35,
        "elev ft": 1207,
        "pop est": 13520
    },
    {
        "name": "Gaba",
        "what": "city",
        "region": "Federal Capital Territory",
        "country": "Nigeria",
        "lat": 9.27,
        "long": 7.43,
        "elev ft": 2096,
        "pop est": 13012
    },
    {
        "name": "Gaba",
        "what": "city",
        "region": "Federal Capital Territory",
        "country": "Nigeria",
        "lat": 9.28,
        "long": 7.42,
        "elev ft": 2083,
        "pop est": 12312
    },
    {
        "name": "Gada",
        "what": "city",
        "region": "Federal Capital Territory",
        "country": "Nigeria",
        "lat": 9.12,
        "long": 7.02,
        "elev ft": 830,
        "pop est": 5811
    },
    {
        "name": "Gadara",
        "what": "city",
        "region": "Federal Capital Territory",
        "country": "Nigeria",
        "lat": 8.66,
        "long": 7.24,
        "elev ft": 971,
        "pop est": 5575
    },
    {
        "name": "Gaida",
        "what": "city",
        "region": "Federal Capital Territory",
        "country": "Nigeria",
        "lat": 8.65,
        "long": 7.41,
        "elev ft": 1220,
        "pop est": 6111
    },
    {
        "name": "Gajabe",
        "what": "city",
        "region": "Federal Capital Territory",
        "country": "Nigeria",
        "lat": 9.13,
        "long": 6.89,
        "elev ft": 830,
        "pop est": 5553
    },
    {
        "name": "Gajambe",
        "what": "city",
        "region": "Federal Capital Territory",
        "country": "Nigeria",
        "lat": 9.13,
        "long": 6.89,
        "elev ft": 830,
        "pop est": 5553
    },
    {
        "name": "Galadima",
        "what": "city",
        "region": "Federal Capital Territory",
        "country": "Nigeria",
        "lat": 8.98,
        "long": 7.43,
        "elev ft": 1669,
        "pop est": 13540
    },
    {
        "name": "Gao",
        "what": "city",
        "region": "Federal Capital Territory",
        "country": "Nigeria",
        "lat": 8.73,
        "long": 7.18,
        "elev ft": 908,
        "pop est": 5555
    },
    {
        "name": "Garki",
        "what": "city",
        "region": "Federal Capital Territory",
        "country": "Nigeria",
        "lat": 9.0,
        "long": 7.5,
        "elev ft": 1686,
        "pop est": 13596
    },
    {
        "name": "Garu",
        "what": "city",
        "region": "Federal Capital Territory",
        "country": "Nigeria",
        "lat": 9.21,
        "long": 7.52,
        "elev ft": 2509,
        "pop est": 13232
    },
    {
        "name": "Garui",
        "what": "city",
        "region": "Federal Capital Territory",
        "country": "Nigeria",
        "lat": 9.2,
        "long": 7.5,
        "elev ft": 2509,
        "pop est": 13236
    },
    {
        "name": "Gasakba",
        "what": "city",
        "region": "Federal Capital Territory",
        "country": "Nigeria",
        "lat": 9.14,
        "long": 6.87,
        "elev ft": 830,
        "pop est": 5350
    },
    {
        "name": "Gasakba",
        "what": "city",
        "region": "Federal Capital Territory",
        "country": "Nigeria",
        "lat": 9.12,
        "long": 6.87,
        "elev ft": 830,
        "pop est": 5389
    },
    {
        "name": "Gasakpa",
        "what": "city",
        "region": "Federal Capital Territory",
        "country": "Nigeria",
        "lat": 9.12,
        "long": 6.87,
        "elev ft": 830,
        "pop est": 5389
    },
    {
        "name": "Gasakwa",
        "what": "city",
        "region": "Federal Capital Territory",
        "country": "Nigeria",
        "lat": 9.12,
        "long": 6.87,
        "elev ft": 830,
        "pop est": 5389
    },
    {
        "name": "Gaubi",
        "what": "city",
        "region": "Federal Capital Territory",
        "country": "Nigeria",
        "lat": 8.81,
        "long": 7.32,
        "elev ft": 1164,
        "pop est": 10499
    },
    {
        "name": "Gawu",
        "what": "city",
        "region": "Federal Capital Territory",
        "country": "Nigeria",
        "lat": 9.21,
        "long": 6.85,
        "elev ft": 951,
        "pop est": 2508
    },
    {
        "name": "Gawu Dabara",
        "what": "city",
        "region": "Federal Capital Territory",
        "country": "Nigeria",
        "lat": 9.21,
        "long": 6.86,
        "elev ft": 875,
        "pop est": 2403
    },
    {
        "name": "Gazarago",
        "what": "city",
        "region": "Federal Capital Territory",
        "country": "Nigeria",
        "lat": 8.73,
        "long": 7.44,
        "elev ft": 1669,
        "pop est": 6397
    },
    {
        "name": "Gbongbon",
        "what": "city",
        "region": "Federal Capital Territory",
        "country": "Nigeria",
        "lat": 9.09,
        "long": 6.92,
        "elev ft": 830,
        "pop est": 5716
    },
    {
        "name": "Gerki",
        "what": "city",
        "region": "Federal Capital Territory",
        "country": "Nigeria",
        "lat": 9.02,
        "long": 7.49,
        "elev ft": 1725,
        "pop est": 13684
    },
    {
        "name": "Ghamgwa",
        "what": "city",
        "region": "Federal Capital Territory",
        "country": "Nigeria",
        "lat": 9.09,
        "long": 6.92,
        "elev ft": 830,
        "pop est": 5716
    },
    {
        "name": "Gidan Gogo",
        "what": "city",
        "region": "Federal Capital Territory",
        "country": "Nigeria",
        "lat": 9.2,
        "long": 7.56,
        "elev ft": 2509,
        "pop est": 12844
    },
    {
        "name": "Gidan Nbora",
        "what": "city",
        "region": "Federal Capital Territory",
        "country": "Nigeria",
        "lat": 9.06,
        "long": 7.39,
        "elev ft": 1669,
        "pop est": 13648
    },
    {
        "name": "Gidan Pawa",
        "what": "city",
        "region": "Federal Capital Territory",
        "country": "Nigeria",
        "lat": 9.3,
        "long": 7.43,
        "elev ft": 2020,
        "pop est": 11138
    },
    {
        "name": "Gidan Shaba",
        "what": "city",
        "region": "Federal Capital Territory",
        "country": "Nigeria",
        "lat": 9.17,
        "long": 6.88,
        "elev ft": 830,
        "pop est": 5331
    },
    {
        "name": "Gidan-Bijimi",
        "what": "city",
        "region": "Federal Capital Territory",
        "country": "Nigeria",
        "lat": 9.36,
        "long": 7.66,
        "elev ft": 2509,
        "pop est": 6537
    },
    {
        "name": "Gidan-Dutse",
        "what": "city",
        "region": "Federal Capital Territory",
        "country": "Nigeria",
        "lat": 9.39,
        "long": 7.68,
        "elev ft": 2509,
        "pop est": 5382
    },
    {
        "name": "Gidanbi",
        "what": "city",
        "region": "Federal Capital Territory",
        "country": "Nigeria",
        "lat": 9.02,
        "long": 6.88,
        "elev ft": 830,
        "pop est": 5503
    },
    {
        "name": "Ginda",
        "what": "city",
        "region": "Federal Capital Territory",
        "country": "Nigeria",
        "lat": 8.94,
        "long": 7.51,
        "elev ft": 1669,
        "pop est": 13180
    },
    {
        "name": "Gnuto",
        "what": "city",
        "region": "Federal Capital Territory",
        "country": "Nigeria",
        "lat": 9.27,
        "long": 7.38,
        "elev ft": 1916,
        "pop est": 12960
    },
    {
        "name": "Gora",
        "what": "city",
        "region": "Federal Capital Territory",
        "country": "Nigeria",
        "lat": 9.34,
        "long": 7.72,
        "elev ft": 2509,
        "pop est": 5822
    },
    {
        "name": "Guako",
        "what": "city",
        "region": "Federal Capital Territory",
        "country": "Nigeria",
        "lat": 9.03,
        "long": 7.19,
        "elev ft": 997,
        "pop est": 10441
    },
    {
        "name": "Gunrafia",
        "what": "city",
        "region": "Federal Capital Territory",
        "country": "Nigeria",
        "lat": 8.97,
        "long": 7.03,
        "elev ft": 830,
        "pop est": 5811
    },
    {
        "name": "Gurfata",
        "what": "city",
        "region": "Federal Capital Territory",
        "country": "Nigeria",
        "lat": 9.13,
        "long": 7.06,
        "elev ft": 830,
        "pop est": 5687
    },
    {
        "name": "Gurushe",
        "what": "city",
        "region": "Federal Capital Territory",
        "country": "Nigeria",
        "lat": 9.13,
        "long": 7.51,
        "elev ft": 2509,
        "pop est": 13672
    },
    {
        "name": "Gwagwa",
        "what": "city",
        "region": "Federal Capital Territory",
        "country": "Nigeria",
        "lat": 9.09,
        "long": 7.32,
        "elev ft": 1246,
        "pop est": 13360
    },
    {
        "name": "Gwagwa Rafi",
        "what": "city",
        "region": "Federal Capital Territory",
        "country": "Nigeria",
        "lat": 9.06,
        "long": 7.59,
        "elev ft": 1863,
        "pop est": 23260
    },
    {
        "name": "Gwagwa Rafi",
        "what": "city",
        "region": "Federal Capital Territory",
        "country": "Nigeria",
        "lat": 9.07,
        "long": 7.58,
        "elev ft": 1899,
        "pop est": 20951
    },
    {
        "name": "Gwagwalada",
        "what": "city",
        "region": "Federal Capital Territory",
        "country": "Nigeria",
        "lat": 8.94,
        "long": 7.08,
        "elev ft": 830,
        "pop est": 6575
    },
    {
        "name": "Gwagwaldda",
        "what": "city",
        "region": "Federal Capital Territory",
        "country": "Nigeria",
        "lat": 8.94,
        "long": 7.08,
        "elev ft": 830,
        "pop est": 6575
    },
    {
        "name": "Gwai",
        "what": "city",
        "region": "Federal Capital Territory",
        "country": "Nigeria",
        "lat": 9.19,
        "long": 6.92,
        "elev ft": 830,
        "pop est": 3872
    },
    {
        "name": "Gwamgwam",
        "what": "city",
        "region": "Federal Capital Territory",
        "country": "Nigeria",
        "lat": 9.09,
        "long": 6.92,
        "elev ft": 830,
        "pop est": 5716
    },
    {
        "name": "Gwaragwada",
        "what": "city",
        "region": "Federal Capital Territory",
        "country": "Nigeria",
        "lat": 8.47,
        "long": 7.13,
        "elev ft": 830,
        "pop est": 5636
    },
    {
        "name": "Gwargwada",
        "what": "city",
        "region": "Federal Capital Territory",
        "country": "Nigeria",
        "lat": 8.47,
        "long": 7.13,
        "elev ft": 830,
        "pop est": 5636
    },
    {
        "name": "Gwari",
        "what": "city",
        "region": "Federal Capital Territory",
        "country": "Nigeria",
        "lat": 9.01,
        "long": 7.2,
        "elev ft": 892,
        "pop est": 11862
    },
    {
        "name": "Gwari",
        "what": "city",
        "region": "Federal Capital Territory",
        "country": "Nigeria",
        "lat": 9.11,
        "long": 7.21,
        "elev ft": 1669,
        "pop est": 84044
    },
    {
        "name": "Gwarinpa",
        "what": "city",
        "region": "Federal Capital Territory",
        "country": "Nigeria",
        "lat": 9.1,
        "long": 7.41,
        "elev ft": 1870,
        "pop est": 13700
    },
    {
        "name": "Gwau",
        "what": "city",
        "region": "Federal Capital Territory",
        "country": "Nigeria",
        "lat": 8.86,
        "long": 7.34,
        "elev ft": 1253,
        "pop est": 13112
    },
    {
        "name": "Gwi",
        "what": "city",
        "region": "Federal Capital Territory",
        "country": "Nigeria",
        "lat": 8.93,
        "long": 7.2,
        "elev ft": 830,
        "pop est": 13143
    },
    {
        "name": "Gwoi",
        "what": "city",
        "region": "Federal Capital Territory",
        "country": "Nigeria",
        "lat": 9.19,
        "long": 6.92,
        "elev ft": 830,
        "pop est": 3872
    },
    {
        "name": "Gwoi-Obere",
        "what": "city",
        "region": "Federal Capital Territory",
        "country": "Nigeria",
        "lat": 9.15,
        "long": 6.88,
        "elev ft": 830,
        "pop est": 5390
    },
    {
        "name": "Gwombe",
        "what": "city",
        "region": "Federal Capital Territory",
        "country": "Nigeria",
        "lat": 8.52,
        "long": 7.13,
        "elev ft": 921,
        "pop est": 5662
    },
    {
        "name": "Ibabban Tsuani",
        "what": "city",
        "region": "Federal Capital Territory",
        "country": "Nigeria",
        "lat": 9.16,
        "long": 6.96,
        "elev ft": 1000,
        "pop est": 5418
    },
    {
        "name": "Idogwari",
        "what": "city",
        "region": "Federal Capital Territory",
        "country": "Nigeria",
        "lat": 9.08,
        "long": 7.36,
        "elev ft": 1669,
        "pop est": 13596
    },
    {
        "name": "Idon Bisa",
        "what": "city",
        "region": "Federal Capital Territory",
        "country": "Nigeria",
        "lat": 8.97,
        "long": 7.21,
        "elev ft": 862,
        "pop est": 13120
    },
    {
        "name": "Idon Kasa",
        "what": "city",
        "region": "Federal Capital Territory",
        "country": "Nigeria",
        "lat": 8.99,
        "long": 7.21,
        "elev ft": 915,
        "pop est": 12736
    },
    {
        "name": "Idu",
        "what": "city",
        "region": "Federal Capital Territory",
        "country": "Nigeria",
        "lat": 9.07,
        "long": 7.35,
        "elev ft": 1669,
        "pop est": 13536
    },
    {
        "name": "Igu",
        "what": "city",
        "region": "Federal Capital Territory",
        "country": "Nigeria",
        "lat": 9.28,
        "long": 7.47,
        "elev ft": 2509,
        "pop est": 12709
    },
    {
        "name": "Ija",
        "what": "city",
        "region": "Federal Capital Territory",
        "country": "Nigeria",
        "lat": 9.24,
        "long": 7.28,
        "elev ft": 1945,
        "pop est": 20455
    },
    {
        "name": "Ija Gwari",
        "what": "city",
        "region": "Federal Capital Territory",
        "country": "Nigeria",
        "lat": 9.24,
        "long": 7.28,
        "elev ft": 1945,
        "pop est": 20455
    },
    {
        "name": "Isuanin Kura",
        "what": "city",
        "region": "Federal Capital Territory",
        "country": "Nigeria",
        "lat": 9.06,
        "long": 7.06,
        "elev ft": 830,
        "pop est": 5811
    },
    {
        "name": "Jabi",
        "what": "city",
        "region": "Federal Capital Territory",
        "country": "Nigeria",
        "lat": 9.06,
        "long": 7.42,
        "elev ft": 1669,
        "pop est": 13708
    },
    {
        "name": "Jahi",
        "what": "city",
        "region": "Federal Capital Territory",
        "country": "Nigeria",
        "lat": 9.1,
        "long": 7.44,
        "elev ft": 1863,
        "pop est": 13704
    },
    {
        "name": "Jakoro",
        "what": "city",
        "region": "Federal Capital Territory",
        "country": "Nigeria",
        "lat": 9.24,
        "long": 7.29,
        "elev ft": 1978,
        "pop est": 12704
    },
    {
        "name": "Jidu",
        "what": "city",
        "region": "Federal Capital Territory",
        "country": "Nigeria",
        "lat": 9.02,
        "long": 7.38,
        "elev ft": 1227,
        "pop est": 13576
    },
    {
        "name": "Jigapa",
        "what": "city",
        "region": "Federal Capital Territory",
        "country": "Nigeria",
        "lat": 9.09,
        "long": 7.12,
        "elev ft": 889,
        "pop est": 7758
    },
    {
        "name": "Jigape",
        "what": "city",
        "region": "Federal Capital Territory",
        "country": "Nigeria",
        "lat": 9.09,
        "long": 7.12,
        "elev ft": 889,
        "pop est": 7758
    },
    {
        "name": "Jigape",
        "what": "city",
        "region": "Federal Capital Territory",
        "country": "Nigeria",
        "lat": 9.09,
        "long": 7.1,
        "elev ft": 830,
        "pop est": 5810
    },
    {
        "name": "Jikakuchi",
        "what": "city",
        "region": "Federal Capital Territory",
        "country": "Nigeria",
        "lat": 9.11,
        "long": 7.56,
        "elev ft": 2509,
        "pop est": 13774
    },
    {
        "name": "Jikoko",
        "what": "city",
        "region": "Federal Capital Territory",
        "country": "Nigeria",
        "lat": 9.14,
        "long": 7.47,
        "elev ft": 2509,
        "pop est": 13628
    },
    {
        "name": "Jimpe",
        "what": "city",
        "region": "Federal Capital Territory",
        "country": "Nigeria",
        "lat": 9.2,
        "long": 7.54,
        "elev ft": 2509,
        "pop est": 13172
    },
    {
        "name": "Jiru",
        "what": "city",
        "region": "Federal Capital Territory",
        "country": "Nigeria",
        "lat": 9.12,
        "long": 7.46,
        "elev ft": 1988,
        "pop est": 13688
    },
    {
        "name": "Juwa",
        "what": "city",
        "region": "Federal Capital Territory",
        "country": "Nigeria",
        "lat": 9.08,
        "long": 7.31,
        "elev ft": 1220,
        "pop est": 13360
    },
    {
        "name": "Kaba",
        "what": "city",
        "region": "Federal Capital Territory",
        "country": "Nigeria",
        "lat": 9.12,
        "long": 7.3,
        "elev ft": 1669,
        "pop est": 15062
    },
    {
        "name": "Kabi",
        "what": "city",
        "region": "Federal Capital Territory",
        "country": "Nigeria",
        "lat": 8.72,
        "long": 7.31,
        "elev ft": 1099,
        "pop est": 5513
    },
    {
        "name": "Kabusu Koro",
        "what": "city",
        "region": "Federal Capital Territory",
        "country": "Nigeria",
        "lat": 9.18,
        "long": 7.6,
        "elev ft": 2509,
        "pop est": 9656
    },
    {
        "name": "Kado",
        "what": "city",
        "region": "Federal Capital Territory",
        "country": "Nigeria",
        "lat": 9.11,
        "long": 7.42,
        "elev ft": 1889,
        "pop est": 13692
    },
    {
        "name": "Kadobunkuro",
        "what": "city",
        "region": "Federal Capital Territory",
        "country": "Nigeria",
        "lat": 9.1,
        "long": 7.42,
        "elev ft": 1811,
        "pop est": 13708
    },
    {
        "name": "Kagini",
        "what": "city",
        "region": "Federal Capital Territory",
        "country": "Nigeria",
        "lat": 9.14,
        "long": 7.29,
        "elev ft": 1669,
        "pop est": 13420
    },
    {
        "name": "Kaida",
        "what": "city",
        "region": "Federal Capital Territory",
        "country": "Nigeria",
        "lat": 9.04,
        "long": 6.94,
        "elev ft": 830,
        "pop est": 5810
    },
    {
        "name": "Karako",
        "what": "city",
        "region": "Federal Capital Territory",
        "country": "Nigeria",
        "lat": 9.25,
        "long": 7.55,
        "elev ft": 2509,
        "pop est": 12984
    },
    {
        "name": "Karimu",
        "what": "city",
        "region": "Federal Capital Territory",
        "country": "Nigeria",
        "lat": 9.06,
        "long": 7.38,
        "elev ft": 1669,
        "pop est": 13616
    },
    {
        "name": "Karonmajigi",
        "what": "city",
        "region": "Federal Capital Territory",
        "country": "Nigeria",
        "lat": 9.02,
        "long": 7.42,
        "elev ft": 1669,
        "pop est": 13696
    },
    {
        "name": "Karsana",
        "what": "city",
        "region": "Federal Capital Territory",
        "country": "Nigeria",
        "lat": 9.11,
        "long": 7.35,
        "elev ft": 1669,
        "pop est": 13636
    },
    {
        "name": "Karsana",
        "what": "city",
        "region": "Federal Capital Territory",
        "country": "Nigeria",
        "lat": 9.12,
        "long": 7.34,
        "elev ft": 1669,
        "pop est": 13564
    },
    {
        "name": "Karu",
        "what": "city",
        "region": "Federal Capital Territory",
        "country": "Nigeria",
        "lat": 9.01,
        "long": 7.58,
        "elev ft": 1699,
        "pop est": 20265
    },
    {
        "name": "Karum",
        "what": "city",
        "region": "Federal Capital Territory",
        "country": "Nigeria",
        "lat": 9.06,
        "long": 7.38,
        "elev ft": 1669,
        "pop est": 13616
    },
    {
        "name": "Karumo",
        "what": "city",
        "region": "Federal Capital Territory",
        "country": "Nigeria",
        "lat": 9.06,
        "long": 7.38,
        "elev ft": 1669,
        "pop est": 13616
    },
    {
        "name": "Kashimoro",
        "what": "city",
        "region": "Federal Capital Territory",
        "country": "Nigeria",
        "lat": 8.57,
        "long": 7.37,
        "elev ft": 1082,
        "pop est": 5662
    },
    {
        "name": "Kata",
        "what": "city",
        "region": "Federal Capital Territory",
        "country": "Nigeria",
        "lat": 9.24,
        "long": 7.3,
        "elev ft": 1984,
        "pop est": 10961
    },
    {
        "name": "Katambe",
        "what": "city",
        "region": "Federal Capital Territory",
        "country": "Nigeria",
        "lat": 9.01,
        "long": 7.59,
        "elev ft": 1722,
        "pop est": 19654
    },
    {
        "name": "Katambe",
        "what": "city",
        "region": "Federal Capital Territory",
        "country": "Nigeria",
        "lat": 9.12,
        "long": 7.51,
        "elev ft": 2509,
        "pop est": 13696
    },
    {
        "name": "Kato",
        "what": "city",
        "region": "Federal Capital Territory",
        "country": "Nigeria",
        "lat": 9.24,
        "long": 7.3,
        "elev ft": 1984,
        "pop est": 10961
    },
    {
        "name": "Kau",
        "what": "city",
        "region": "Federal Capital Territory",
        "country": "Nigeria",
        "lat": 9.31,
        "long": 7.58,
        "elev ft": 2509,
        "pop est": 12304
    },
    {
        "name": "Kaudisi",
        "what": "city",
        "region": "Federal Capital Territory",
        "country": "Nigeria",
        "lat": 9.33,
        "long": 7.53,
        "elev ft": 2509,
        "pop est": 9117
    },
    {
        "name": "Kazarago",
        "what": "city",
        "region": "Federal Capital Territory",
        "country": "Nigeria",
        "lat": 8.73,
        "long": 7.44,
        "elev ft": 1669,
        "pop est": 6397
    },
    {
        "name": "Ketti",
        "what": "city",
        "region": "Federal Capital Territory",
        "country": "Nigeria",
        "lat": 8.9,
        "long": 7.38,
        "elev ft": 1669,
        "pop est": 13156
    },
    {
        "name": "Kogi",
        "what": "city",
        "region": "Federal Capital Territory",
        "country": "Nigeria",
        "lat": 9.18,
        "long": 7.47,
        "elev ft": 2509,
        "pop est": 13316
    },
    {
        "name": "Koroko",
        "what": "city",
        "region": "Federal Capital Territory",
        "country": "Nigeria",
        "lat": 8.79,
        "long": 6.99,
        "elev ft": 830,
        "pop est": 5811
    },
    {
        "name": "Kpeyi",
        "what": "city",
        "region": "Federal Capital Territory",
        "country": "Nigeria",
        "lat": 8.95,
        "long": 7.56,
        "elev ft": 1669,
        "pop est": 12456
    },
    {
        "name": "Kubabo",
        "what": "city",
        "region": "Federal Capital Territory",
        "country": "Nigeria",
        "lat": 9.11,
        "long": 7.53,
        "elev ft": 2509,
        "pop est": 13664
    },
    {
        "name": "Kuchbuni",
        "what": "city",
        "region": "Federal Capital Territory",
        "country": "Nigeria",
        "lat": 9.22,
        "long": 7.35,
        "elev ft": 1669,
        "pop est": 13196
    },
    {
        "name": "Kuchi-Buhi",
        "what": "city",
        "region": "Federal Capital Territory",
        "country": "Nigeria",
        "lat": 9.22,
        "long": 7.35,
        "elev ft": 1669,
        "pop est": 13196
    },
    {
        "name": "Kudiri",
        "what": "city",
        "region": "Federal Capital Territory",
        "country": "Nigeria",
        "lat": 9.41,
        "long": 7.67,
        "elev ft": 2509,
        "pop est": 5364
    },
    {
        "name": "Kuduri",
        "what": "city",
        "region": "Federal Capital Territory",
        "country": "Nigeria",
        "lat": 9.41,
        "long": 7.67,
        "elev ft": 2509,
        "pop est": 5364
    },
    {
        "name": "Kugo",
        "what": "city",
        "region": "Federal Capital Territory",
        "country": "Nigeria",
        "lat": 9.02,
        "long": 7.55,
        "elev ft": 1827,
        "pop est": 14373
    },
    {
        "name": "Kujakwa",
        "what": "city",
        "region": "Federal Capital Territory",
        "country": "Nigeria",
        "lat": 8.58,
        "long": 7.4,
        "elev ft": 1105,
        "pop est": 5972
    },
    {
        "name": "Kuje",
        "what": "city",
        "region": "Federal Capital Territory",
        "country": "Nigeria",
        "lat": 8.88,
        "long": 7.23,
        "elev ft": 1007,
        "pop est": 11545
    },
    {
        "name": "Kukwaba",
        "what": "city",
        "region": "Federal Capital Territory",
        "country": "Nigeria",
        "lat": 9.04,
        "long": 7.46,
        "elev ft": 1669,
        "pop est": 13708
    },
    {
        "name": "Kumao",
        "what": "city",
        "region": "Federal Capital Territory",
        "country": "Nigeria",
        "lat": 8.6,
        "long": 7.3,
        "elev ft": 1036,
        "pop est": 5656
    },
    {
        "name": "Kunkwaba",
        "what": "city",
        "region": "Federal Capital Territory",
        "country": "Nigeria",
        "lat": 9.04,
        "long": 7.46,
        "elev ft": 1669,
        "pop est": 13708
    },
    {
        "name": "Kurmin-Daudu",
        "what": "city",
        "region": "Federal Capital Territory",
        "country": "Nigeria",
        "lat": 9.3,
        "long": 7.65,
        "elev ft": 2509,
        "pop est": 9377
    },
    {
        "name": "Kurudu",
        "what": "city",
        "region": "Federal Capital Territory",
        "country": "Nigeria",
        "lat": 8.93,
        "long": 7.55,
        "elev ft": 1669,
        "pop est": 12788
    },
    {
        "name": "Kurunduma",
        "what": "city",
        "region": "Federal Capital Territory",
        "country": "Nigeria",
        "lat": 9.02,
        "long": 7.53,
        "elev ft": 1807,
        "pop est": 13636
    },
    {
        "name": "Kusafe",
        "what": "city",
        "region": "Federal Capital Territory",
        "country": "Nigeria",
        "lat": 9.02,
        "long": 7.52,
        "elev ft": 1801,
        "pop est": 13672
    },
    {
        "name": "Kusaki",
        "what": "city",
        "region": "Federal Capital Territory",
        "country": "Nigeria",
        "lat": 8.79,
        "long": 7.43,
        "elev ft": 1669,
        "pop est": 10939
    },
    {
        "name": "Kwaku",
        "what": "city",
        "region": "Federal Capital Territory",
        "country": "Nigeria",
        "lat": 8.7,
        "long": 7.18,
        "elev ft": 856,
        "pop est": 5528
    },
    {
        "name": "Kwali",
        "what": "city",
        "region": "Federal Capital Territory",
        "country": "Nigeria",
        "lat": 8.88,
        "long": 7.02,
        "elev ft": 830,
        "pop est": 5811
    },
    {
        "name": "Kwarana",
        "what": "city",
        "region": "Federal Capital Territory",
        "country": "Nigeria",
        "lat": 9.22,
        "long": 7.57,
        "elev ft": 2509,
        "pop est": 12092
    },
    {
        "name": "Kwaye",
        "what": "city",
        "region": "Federal Capital Territory",
        "country": "Nigeria",
        "lat": 8.84,
        "long": 7.5,
        "elev ft": 1669,
        "pop est": 13112
    },
    {
        "name": "Kwonkashe",
        "what": "city",
        "region": "Federal Capital Territory",
        "country": "Nigeria",
        "lat": 9.13,
        "long": 7.21,
        "elev ft": 1669,
        "pop est": 104154
    },
    {
        "name": "Kworro",
        "what": "city",
        "region": "Federal Capital Territory",
        "country": "Nigeria",
        "lat": 8.49,
        "long": 7.07,
        "elev ft": 830,
        "pop est": 5662
    },
    {
        "name": "Kyawu",
        "what": "city",
        "region": "Federal Capital Territory",
        "country": "Nigeria",
        "lat": 9.13,
        "long": 6.88,
        "elev ft": 830,
        "pop est": 5453
    },
    {
        "name": "Lafia Mbaka",
        "what": "city",
        "region": "Federal Capital Territory",
        "country": "Nigeria",
        "lat": 9.01,
        "long": 7.05,
        "elev ft": 830,
        "pop est": 5811
    },
    {
        "name": "Ledi",
        "what": "city",
        "region": "Federal Capital Territory",
        "country": "Nigeria",
        "lat": 9.12,
        "long": 6.99,
        "elev ft": 853,
        "pop est": 5804
    },
    {
        "name": "Ligwai",
        "what": "city",
        "region": "Federal Capital Territory",
        "country": "Nigeria",
        "lat": 8.9,
        "long": 7.32,
        "elev ft": 1190,
        "pop est": 13228
    },
    {
        "name": "Mabushipe",
        "what": "city",
        "region": "Federal Capital Territory",
        "country": "Nigeria",
        "lat": 9.08,
        "long": 7.47,
        "elev ft": 1788,
        "pop est": 13708
    },
    {
        "name": "Madala",
        "what": "city",
        "region": "Federal Capital Territory",
        "country": "Nigeria",
        "lat": 9.1,
        "long": 7.21,
        "elev ft": 1669,
        "pop est": 76196
    },
    {
        "name": "Madalla",
        "what": "city",
        "region": "Federal Capital Territory",
        "country": "Nigeria",
        "lat": 9.1,
        "long": 7.21,
        "elev ft": 1669,
        "pop est": 76196
    },
    {
        "name": "Madna",
        "what": "city",
        "region": "Federal Capital Territory",
        "country": "Nigeria",
        "lat": 9.24,
        "long": 7.47,
        "elev ft": 2509,
        "pop est": 13112
    },
    {
        "name": "Mahapa",
        "what": "city",
        "region": "Federal Capital Territory",
        "country": "Nigeria",
        "lat": 9.16,
        "long": 7.48,
        "elev ft": 2053,
        "pop est": 13480
    },
    {
        "name": "Maitama",
        "what": "city",
        "region": "Federal Capital Territory",
        "country": "Nigeria",
        "lat": 9.1,
        "long": 7.5,
        "elev ft": 1899,
        "pop est": 13708
    },
    {
        "name": "Maje",
        "what": "city",
        "region": "Federal Capital Territory",
        "country": "Nigeria",
        "lat": 9.1,
        "long": 6.89,
        "elev ft": 830,
        "pop est": 5570
    },
    {
        "name": "Mape",
        "what": "city",
        "region": "Federal Capital Territory",
        "country": "Nigeria",
        "lat": 9.14,
        "long": 7.49,
        "elev ft": 2053,
        "pop est": 13640
    },
    {
        "name": "Marke",
        "what": "city",
        "region": "Federal Capital Territory",
        "country": "Nigeria",
        "lat": 9.4,
        "long": 7.68,
        "elev ft": 2509,
        "pop est": 5364
    },
    {
        "name": "Mashapa",
        "what": "city",
        "region": "Federal Capital Territory",
        "country": "Nigeria",
        "lat": 9.16,
        "long": 7.48,
        "elev ft": 2053,
        "pop est": 13480
    },
    {
        "name": "Mobushipe",
        "what": "city",
        "region": "Federal Capital Territory",
        "country": "Nigeria",
        "lat": 9.08,
        "long": 7.47,
        "elev ft": 1788,
        "pop est": 13708
    },
    {
        "name": "Mpape",
        "what": "city",
        "region": "Federal Capital Territory",
        "country": "Nigeria",
        "lat": 9.14,
        "long": 7.5,
        "elev ft": 2509,
        "pop est": 13640
    },
    {
        "name": "Munafe",
        "what": "city",
        "region": "Federal Capital Territory",
        "country": "Nigeria",
        "lat": 8.84,
        "long": 7.5,
        "elev ft": 1669,
        "pop est": 13112
    },
    {
        "name": "Nagpakuku",
        "what": "city",
        "region": "Federal Capital Territory",
        "country": "Nigeria",
        "lat": 9.07,
        "long": 6.81,
        "elev ft": 830,
        "pop est": 5062
    },
    {
        "name": "Nakwakuku",
        "what": "city",
        "region": "Federal Capital Territory",
        "country": "Nigeria",
        "lat": 9.07,
        "long": 6.81,
        "elev ft": 830,
        "pop est": 5062
    },
    {
        "name": "Nukuchi",
        "what": "city",
        "region": "Federal Capital Territory",
        "country": "Nigeria",
        "lat": 9.17,
        "long": 7.53,
        "elev ft": 2509,
        "pop est": 13392
    },
    {
        "name": "Padan-Gwari",
        "what": "city",
        "region": "Federal Capital Territory",
        "country": "Nigeria",
        "lat": 9.33,
        "long": 7.71,
        "elev ft": 2509,
        "pop est": 6087
    },
    {
        "name": "Paikon Kore",
        "what": "city",
        "region": "Federal Capital Territory",
        "country": "Nigeria",
        "lat": 8.99,
        "long": 7.02,
        "elev ft": 830,
        "pop est": 5811
    },
    {
        "name": "Paipe",
        "what": "city",
        "region": "Federal Capital Territory",
        "country": "Nigeria",
        "lat": 9.03,
        "long": 7.37,
        "elev ft": 1246,
        "pop est": 13548
    },
    {
        "name": "Panpanpi",
        "what": "city",
        "region": "Federal Capital Territory",
        "country": "Nigeria",
        "lat": 9.22,
        "long": 6.88,
        "elev ft": 830,
        "pop est": 2339
    },
    {
        "name": "Paputache",
        "what": "city",
        "region": "Federal Capital Territory",
        "country": "Nigeria",
        "lat": 9.03,
        "long": 7.59,
        "elev ft": 1755,
        "pop est": 19801
    },
    {
        "name": "Pasere",
        "what": "city",
        "region": "Federal Capital Territory",
        "country": "Nigeria",
        "lat": 9.0,
        "long": 7.16,
        "elev ft": 830,
        "pop est": 8349
    },
    {
        "name": "Pashi",
        "what": "city",
        "region": "Federal Capital Territory",
        "country": "Nigeria",
        "lat": 9.03,
        "long": 6.93,
        "elev ft": 830,
        "pop est": 5780
    },
    {
        "name": "Pate",
        "what": "city",
        "region": "Federal Capital Territory",
        "country": "Nigeria",
        "lat": 9.03,
        "long": 6.88,
        "elev ft": 830,
        "pop est": 5497
    },
    {
        "name": "Pewi",
        "what": "city",
        "region": "Federal Capital Territory",
        "country": "Nigeria",
        "lat": 9.18,
        "long": 7.45,
        "elev ft": 2001,
        "pop est": 13376
    },
    {
        "name": "Piowe",
        "what": "city",
        "region": "Federal Capital Territory",
        "country": "Nigeria",
        "lat": 9.23,
        "long": 6.89,
        "elev ft": 830,
        "pop est": 1891
    },
    {
        "name": "Piri",
        "what": "city",
        "region": "Federal Capital Territory",
        "country": "Nigeria",
        "lat": 8.71,
        "long": 7.02,
        "elev ft": 830,
        "pop est": 5811
    },
    {
        "name": "Pmadna",
        "what": "city",
        "region": "Federal Capital Territory",
        "country": "Nigeria",
        "lat": 9.18,
        "long": 7.54,
        "elev ft": 2509,
        "pop est": 13324
    },
    {
        "name": "Rada",
        "what": "city",
        "region": "Federal Capital Territory",
        "country": "Nigeria",
        "lat": 8.71,
        "long": 7.08,
        "elev ft": 830,
        "pop est": 5748
    },
    {
        "name": "Rafin Pa",
        "what": "city",
        "region": "Federal Capital Territory",
        "country": "Nigeria",
        "lat": 8.99,
        "long": 7.15,
        "elev ft": 830,
        "pop est": 9108
    },
    {
        "name": "Reda",
        "what": "city",
        "region": "Federal Capital Territory",
        "country": "Nigeria",
        "lat": 8.71,
        "long": 7.08,
        "elev ft": 830,
        "pop est": 5748
    },
    {
        "name": "Rubochi",
        "what": "city",
        "region": "Federal Capital Territory",
        "country": "Nigeria",
        "lat": 8.55,
        "long": 7.05,
        "elev ft": 830,
        "pop est": 5699
    },
    {
        "name": "Rubuchi",
        "what": "city",
        "region": "Federal Capital Territory",
        "country": "Nigeria",
        "lat": 8.99,
        "long": 7.32,
        "elev ft": 1049,
        "pop est": 13568
    },
    {
        "name": "Runji",
        "what": "city",
        "region": "Federal Capital Territory",
        "country": "Nigeria",
        "lat": 9.34,
        "long": 7.56,
        "elev ft": 2509,
        "pop est": 10045
    },
    {
        "name": "Sabo",
        "what": "city",
        "region": "Federal Capital Territory",
        "country": "Nigeria",
        "lat": 8.83,
        "long": 7.21,
        "elev ft": 908,
        "pop est": 7096
    },
    {
        "name": "Sabo Kukwaba",
        "what": "city",
        "region": "Federal Capital Territory",
        "country": "Nigeria",
        "lat": 9.02,
        "long": 7.42,
        "elev ft": 1669,
        "pop est": 13696
    },
    {
        "name": "Sabojibi",
        "what": "city",
        "region": "Federal Capital Territory",
        "country": "Nigeria",
        "lat": 9.11,
        "long": 7.26,
        "elev ft": 1669,
        "pop est": 43557
    },
    {
        "name": "Sabokarumo",
        "what": "city",
        "region": "Federal Capital Territory",
        "country": "Nigeria",
        "lat": 9.07,
        "long": 7.36,
        "elev ft": 1669,
        "pop est": 13572
    },
    {
        "name": "Sabon Gari",
        "what": "city",
        "region": "Federal Capital Territory",
        "country": "Nigeria",
        "lat": 9.27,
        "long": 7.37,
        "elev ft": 1886,
        "pop est": 13080
    },
    {
        "name": "Sabon-Gida",
        "what": "city",
        "region": "Federal Capital Territory",
        "country": "Nigeria",
        "lat": 8.7,
        "long": 7.0,
        "elev ft": 830,
        "pop est": 5811
    },
    {
        "name": "Sagwari",
        "what": "city",
        "region": "Federal Capital Territory",
        "country": "Nigeria",
        "lat": 9.17,
        "long": 7.38,
        "elev ft": 1922,
        "pop est": 13468
    },
    {
        "name": "Salirulu",
        "what": "city",
        "region": "Federal Capital Territory",
        "country": "Nigeria",
        "lat": 9.24,
        "long": 6.9,
        "elev ft": 830,
        "pop est": 1433
    },
    {
        "name": "Sankache",
        "what": "city",
        "region": "Federal Capital Territory",
        "country": "Nigeria",
        "lat": 8.55,
        "long": 7.23,
        "elev ft": 1000,
        "pop est": 5662
    },
    {
        "name": "Sape",
        "what": "city",
        "region": "Federal Capital Territory",
        "country": "Nigeria",
        "lat": 8.9,
        "long": 7.51,
        "elev ft": 1669,
        "pop est": 13112
    },
    {
        "name": "Saupe",
        "what": "city",
        "region": "Federal Capital Territory",
        "country": "Nigeria",
        "lat": 9.25,
        "long": 7.43,
        "elev ft": 2089,
        "pop est": 13112
    },
    {
        "name": "Shara",
        "what": "city",
        "region": "Federal Capital Territory",
        "country": "Nigeria",
        "lat": 9.09,
        "long": 6.89,
        "elev ft": 830,
        "pop est": 5516
    },
    {
        "name": "Share",
        "what": "city",
        "region": "Federal Capital Territory",
        "country": "Nigeria",
        "lat": 9.23,
        "long": 7.5,
        "elev ft": 2509,
        "pop est": 13116
    },
    {
        "name": "Shebona",
        "what": "city",
        "region": "Federal Capital Territory",
        "country": "Nigeria",
        "lat": 9.14,
        "long": 7.03,
        "elev ft": 830,
        "pop est": 5774
    },
    {
        "name": "Shenagu",
        "what": "city",
        "region": "Federal Capital Territory",
        "country": "Nigeria",
        "lat": 9.08,
        "long": 7.15,
        "elev ft": 967,
        "pop est": 17201
    },
    {
        "name": "Shere",
        "what": "city",
        "region": "Federal Capital Territory",
        "country": "Nigeria",
        "lat": 9.23,
        "long": 7.5,
        "elev ft": 2509,
        "pop est": 13116
    },
    {
        "name": "Sherete",
        "what": "city",
        "region": "Federal Capital Territory",
        "country": "Nigeria",
        "lat": 8.9,
        "long": 7.44,
        "elev ft": 1669,
        "pop est": 13112
    },
    {
        "name": "Shesoko",
        "what": "city",
        "region": "Federal Capital Territory",
        "country": "Nigeria",
        "lat": 9.26,
        "long": 7.58,
        "elev ft": 2509,
        "pop est": 12246
    },
    {
        "name": "Shimbo",
        "what": "city",
        "region": "Federal Capital Territory",
        "country": "Nigeria",
        "lat": 9.1,
        "long": 6.89,
        "elev ft": 830,
        "pop est": 5570
    },
    {
        "name": "Shishipe",
        "what": "city",
        "region": "Federal Capital Territory",
        "country": "Nigeria",
        "lat": 9.16,
        "long": 7.52,
        "elev ft": 2509,
        "pop est": 13464
    },
    {
        "name": "Sota",
        "what": "city",
        "region": "Federal Capital Territory",
        "country": "Nigeria",
        "lat": 9.19,
        "long": 6.86,
        "elev ft": 830,
        "pop est": 3541
    },
    {
        "name": "Sukuku",
        "what": "city",
        "region": "Federal Capital Territory",
        "country": "Nigeria",
        "lat": 8.84,
        "long": 7.0,
        "elev ft": 830,
        "pop est": 5811
    },
    {
        "name": "Tabe",
        "what": "city",
        "region": "Federal Capital Territory",
        "country": "Nigeria",
        "lat": 9.11,
        "long": 6.96,
        "elev ft": 830,
        "pop est": 5805
    },
    {
        "name": "Tagwai",
        "what": "city",
        "region": "Federal Capital Territory",
        "country": "Nigeria",
        "lat": 8.65,
        "long": 7.33,
        "elev ft": 1056,
        "pop est": 5588
    },
    {
        "name": "Tagwar",
        "what": "city",
        "region": "Federal Capital Territory",
        "country": "Nigeria",
        "lat": 8.65,
        "long": 7.33,
        "elev ft": 1056,
        "pop est": 5588
    },
    {
        "name": "Takworiki",
        "what": "city",
        "region": "Federal Capital Territory",
        "country": "Nigeria",
        "lat": 8.55,
        "long": 7.33,
        "elev ft": 1053,
        "pop est": 5662
    },
    {
        "name": "Tando",
        "what": "city",
        "region": "Federal Capital Territory",
        "country": "Nigeria",
        "lat": 9.21,
        "long": 6.84,
        "elev ft": 971,
        "pop est": 2170
    },
    {
        "name": "Tasha",
        "what": "city",
        "region": "Federal Capital Territory",
        "country": "Nigeria",
        "lat": 9.08,
        "long": 7.32,
        "elev ft": 1253,
        "pop est": 13400
    },
    {
        "name": "Tudai",
        "what": "city",
        "region": "Federal Capital Territory",
        "country": "Nigeria",
        "lat": 8.57,
        "long": 7.18,
        "elev ft": 984,
        "pop est": 5662
    },
    {
        "name": "Tudar",
        "what": "city",
        "region": "Federal Capital Territory",
        "country": "Nigeria",
        "lat": 8.52,
        "long": 7.19,
        "elev ft": 984,
        "pop est": 5662
    },
    {
        "name": "Tudun Wada",
        "what": "city",
        "region": "Federal Capital Territory",
        "country": "Nigeria",
        "lat": 9.41,
        "long": 7.62,
        "elev ft": 2509,
        "pop est": 5598
    },
    {
        "name": "Tuea",
        "what": "city",
        "region": "Federal Capital Territory",
        "country": "Nigeria",
        "lat": 9.25,
        "long": 6.94,
        "elev ft": 830,
        "pop est": 495
    },
    {
        "name": "Tufa",
        "what": "city",
        "region": "Federal Capital Territory",
        "country": "Nigeria",
        "lat": 9.25,
        "long": 6.93,
        "elev ft": 830,
        "pop est": 938
    },
    {
        "name": "Tunga Maje",
        "what": "city",
        "region": "Federal Capital Territory",
        "country": "Nigeria",
        "lat": 9.06,
        "long": 7.19,
        "elev ft": 1020,
        "pop est": 24964
    },
    {
        "name": "Tungan Ali",
        "what": "city",
        "region": "Federal Capital Territory",
        "country": "Nigeria",
        "lat": 9.01,
        "long": 7.21,
        "elev ft": 898,
        "pop est": 12342
    },
    {
        "name": "Tungan Daudu",
        "what": "city",
        "region": "Federal Capital Territory",
        "country": "Nigeria",
        "lat": 9.08,
        "long": 7.34,
        "elev ft": 1669,
        "pop est": 13476
    },
    {
        "name": "Tungan Kaki",
        "what": "city",
        "region": "Federal Capital Territory",
        "country": "Nigeria",
        "lat": 9.04,
        "long": 7.18,
        "elev ft": 997,
        "pop est": 12199
    },
    {
        "name": "Tungan Pa",
        "what": "city",
        "region": "Federal Capital Territory",
        "country": "Nigeria",
        "lat": 9.03,
        "long": 7.21,
        "elev ft": 961,
        "pop est": 11634
    },
    {
        "name": "Tungan Wada",
        "what": "city",
        "region": "Federal Capital Territory",
        "country": "Nigeria",
        "lat": 9.01,
        "long": 7.21,
        "elev ft": 915,
        "pop est": 12111
    },
    {
        "name": "Tungun-Aduka",
        "what": "city",
        "region": "Federal Capital Territory",
        "country": "Nigeria",
        "lat": 9.4,
        "long": 7.64,
        "elev ft": 2509,
        "pop est": 5544
    },
    {
        "name": "Ushapa",
        "what": "city",
        "region": "Federal Capital Territory",
        "country": "Nigeria",
        "lat": 9.22,
        "long": 7.41,
        "elev ft": 1929,
        "pop est": 13164
    },
    {
        "name": "Waru",
        "what": "city",
        "region": "Federal Capital Territory",
        "country": "Nigeria",
        "lat": 8.92,
        "long": 7.5,
        "elev ft": 1669,
        "pop est": 13124
    },
    {
        "name": "Wuna",
        "what": "city",
        "region": "Federal Capital Territory",
        "country": "Nigeria",
        "lat": 9.01,
        "long": 7.1,
        "elev ft": 830,
        "pop est": 5824
    },
    {
        "name": "Wupa",
        "what": "city",
        "region": "Federal Capital Territory",
        "country": "Nigeria",
        "lat": 9.05,
        "long": 7.46,
        "elev ft": 1669,
        "pop est": 13708
    },
    {
        "name": "Wuse",
        "what": "city",
        "region": "Federal Capital Territory",
        "country": "Nigeria",
        "lat": 9.07,
        "long": 7.47,
        "elev ft": 1722,
        "pop est": 13708
    },
    {
        "name": "Yabo",
        "what": "city",
        "region": "Federal Capital Territory",
        "country": "Nigeria",
        "lat": 8.63,
        "long": 7.16,
        "elev ft": 843,
        "pop est": 5628
    },
    {
        "name": "Yangoji",
        "what": "city",
        "region": "Federal Capital Territory",
        "country": "Nigeria",
        "lat": 8.77,
        "long": 6.99,
        "elev ft": 830,
        "pop est": 5811
    },
    {
        "name": "Yanyan",
        "what": "city",
        "region": "Federal Capital Territory",
        "country": "Nigeria",
        "lat": 9.03,
        "long": 7.58,
        "elev ft": 1788,
        "pop est": 20425
    },
    {
        "name": "Yebu",
        "what": "city",
        "region": "Federal Capital Territory",
        "country": "Nigeria",
        "lat": 8.67,
        "long": 7.12,
        "elev ft": 830,
        "pop est": 5626
    },
    {
        "name": "Yehidna",
        "what": "city",
        "region": "Federal Capital Territory",
        "country": "Nigeria",
        "lat": 9.27,
        "long": 7.44,
        "elev ft": 2509,
        "pop est": 13012
    },
    {
        "name": "Yemifi",
        "what": "city",
        "region": "Federal Capital Territory",
        "country": "Nigeria",
        "lat": 9.11,
        "long": 6.96,
        "elev ft": 830,
        "pop est": 5805
    },
    {
        "name": "Yewu",
        "what": "city",
        "region": "Federal Capital Territory",
        "country": "Nigeria",
        "lat": 8.56,
        "long": 7.01,
        "elev ft": 830,
        "pop est": 5750
    },
    {
        "name": "Zagabuta",
        "what": "city",
        "region": "Federal Capital Territory",
        "country": "Nigeria",
        "lat": 8.52,
        "long": 7.23,
        "elev ft": 1000,
        "pop est": 5662
    },
    {
        "name": "Zagabutu",
        "what": "city",
        "region": "Federal Capital Territory",
        "country": "Nigeria",
        "lat": 8.52,
        "long": 7.23,
        "elev ft": 1000,
        "pop est": 5662
    },
    {
        "name": "Zango",
        "what": "city",
        "region": "Federal Capital Territory",
        "country": "Nigeria",
        "lat": 8.81,
        "long": 7.35,
        "elev ft": 1223,
        "pop est": 11167
    },
    {
        "name": "Ziona",
        "what": "city",
        "region": "Federal Capital Territory",
        "country": "Nigeria",
        "lat": 8.91,
        "long": 7.51,
        "elev ft": 1669,
        "pop est": 13112
    },
    {
        "name": "Zuba",
        "what": "city",
        "region": "Federal Capital Territory",
        "country": "Nigeria",
        "lat": 9.1,
        "long": 7.21,
        "elev ft": 1669,
        "pop est": 68322
    }
]