[
    {
        "name": "Abalago",
        "what": "city",
        "region": "Jigawa",
        "country": "Nigeria",
        "lat": 11.88,
        "long": 9.67,
        "elev ft": 1669,
        "pop est": 19707
    },
    {
        "name": "Abinabo Aiko",
        "what": "city",
        "region": "Jigawa",
        "country": "Nigeria",
        "lat": 12.51,
        "long": 10.59,
        "elev ft": 1026,
        "pop est": 14531
    },
    {
        "name": "Abonabo",
        "what": "city",
        "region": "Jigawa",
        "country": "Nigeria",
        "lat": 12.56,
        "long": 10.57,
        "elev ft": 1023,
        "pop est": 14414
    },
    {
        "name": "Abore",
        "what": "city",
        "region": "Jigawa",
        "country": "Nigeria",
        "lat": 11.61,
        "long": 9.77,
        "elev ft": 1669,
        "pop est": 15943
    },
    {
        "name": "Achilafia",
        "what": "city",
        "region": "Jigawa",
        "country": "Nigeria",
        "lat": 12.8,
        "long": 8.4,
        "elev ft": 1669,
        "pop est": 30581
    },
    {
        "name": "Adanabas",
        "what": "city",
        "region": "Jigawa",
        "country": "Nigeria",
        "lat": 12.23,
        "long": 9.2,
        "elev ft": 1233,
        "pop est": 21754
    },
    {
        "name": "Adani",
        "what": "city",
        "region": "Jigawa",
        "country": "Nigeria",
        "lat": 12.72,
        "long": 8.56,
        "elev ft": 1669,
        "pop est": 29719
    },
    {
        "name": "Addani",
        "what": "city",
        "region": "Jigawa",
        "country": "Nigeria",
        "lat": 12.72,
        "long": 8.56,
        "elev ft": 1669,
        "pop est": 29719
    },
    {
        "name": "Adiani",
        "what": "city",
        "region": "Jigawa",
        "country": "Nigeria",
        "lat": 12.8,
        "long": 10.43,
        "elev ft": 1026,
        "pop est": 18888
    },
    {
        "name": "Adigui",
        "what": "city",
        "region": "Jigawa",
        "country": "Nigeria",
        "lat": 12.64,
        "long": 8.68,
        "elev ft": 1227,
        "pop est": 20489
    },
    {
        "name": "Adua",
        "what": "city",
        "region": "Jigawa",
        "country": "Nigeria",
        "lat": 12.48,
        "long": 9.64,
        "elev ft": 1167,
        "pop est": 48982
    },
    {
        "name": "Adua",
        "what": "city",
        "region": "Jigawa",
        "country": "Nigeria",
        "lat": 12.52,
        "long": 8.97,
        "elev ft": 1233,
        "pop est": 14629
    },
    {
        "name": "Aduari",
        "what": "city",
        "region": "Jigawa",
        "country": "Nigeria",
        "lat": 12.77,
        "long": 8.99,
        "elev ft": 1240,
        "pop est": 19825
    },
    {
        "name": "Aduari Duna",
        "what": "city",
        "region": "Jigawa",
        "country": "Nigeria",
        "lat": 12.78,
        "long": 8.99,
        "elev ft": 1236,
        "pop est": 19828
    },
    {
        "name": "Aduchua",
        "what": "city",
        "region": "Jigawa",
        "country": "Nigeria",
        "lat": 12.18,
        "long": 9.64,
        "elev ft": 1227,
        "pop est": 25496
    },
    {
        "name": "Aduware",
        "what": "city",
        "region": "Jigawa",
        "country": "Nigeria",
        "lat": 12.77,
        "long": 8.99,
        "elev ft": 1240,
        "pop est": 19825
    },
    {
        "name": "Afoto",
        "what": "city",
        "region": "Jigawa",
        "country": "Nigeria",
        "lat": 11.64,
        "long": 9.79,
        "elev ft": 1669,
        "pop est": 16774
    },
    {
        "name": "Afrikum",
        "what": "city",
        "region": "Jigawa",
        "country": "Nigeria",
        "lat": 12.01,
        "long": 9.61,
        "elev ft": 1669,
        "pop est": 25453
    },
    {
        "name": "Agangaro",
        "what": "city",
        "region": "Jigawa",
        "country": "Nigeria",
        "lat": 12.79,
        "long": 8.39,
        "elev ft": 1669,
        "pop est": 29989
    },
    {
        "name": "Agim",
        "what": "city",
        "region": "Jigawa",
        "country": "Nigeria",
        "lat": 12.37,
        "long": 9.91,
        "elev ft": 1115,
        "pop est": 31843
    },
    {
        "name": "Agufa",
        "what": "city",
        "region": "Jigawa",
        "country": "Nigeria",
        "lat": 12.23,
        "long": 9.64,
        "elev ft": 1200,
        "pop est": 24647
    },
    {
        "name": "Aima",
        "what": "city",
        "region": "Jigawa",
        "country": "Nigeria",
        "lat": 12.3,
        "long": 9.88,
        "elev ft": 1200,
        "pop est": 15355
    },
    {
        "name": "Ajaura",
        "what": "city",
        "region": "Jigawa",
        "country": "Nigeria",
        "lat": 12.33,
        "long": 9.58,
        "elev ft": 1197,
        "pop est": 38785
    },
    {
        "name": "Ajura",
        "what": "city",
        "region": "Jigawa",
        "country": "Nigeria",
        "lat": 12.48,
        "long": 8.94,
        "elev ft": 1249,
        "pop est": 14634
    },
    {
        "name": "Akurya",
        "what": "city",
        "region": "Jigawa",
        "country": "Nigeria",
        "lat": 12.47,
        "long": 9.98,
        "elev ft": 1167,
        "pop est": 91462
    },
    {
        "name": "Albasu",
        "what": "city",
        "region": "Jigawa",
        "country": "Nigeria",
        "lat": 12.58,
        "long": 9.07,
        "elev ft": 1220,
        "pop est": 19660
    },
    {
        "name": "Algarna",
        "what": "city",
        "region": "Jigawa",
        "country": "Nigeria",
        "lat": 11.61,
        "long": 9.71,
        "elev ft": 1669,
        "pop est": 15943
    },
    {
        "name": "Allagerno",
        "what": "city",
        "region": "Jigawa",
        "country": "Nigeria",
        "lat": 12.69,
        "long": 9.61,
        "elev ft": 1154,
        "pop est": 20115
    },
    {
        "name": "Allai",
        "what": "city",
        "region": "Jigawa",
        "country": "Nigeria",
        "lat": 12.66,
        "long": 8.58,
        "elev ft": 1669,
        "pop est": 29824
    },
    {
        "name": "Amacuku",
        "what": "city",
        "region": "Jigawa",
        "country": "Nigeria",
        "lat": 12.58,
        "long": 8.59,
        "elev ft": 1669,
        "pop est": 26095
    },
    {
        "name": "Amaguwa",
        "what": "city",
        "region": "Jigawa",
        "country": "Nigeria",
        "lat": 12.27,
        "long": 9.06,
        "elev ft": 1243,
        "pop est": 20509
    },
    {
        "name": "Amaryawa",
        "what": "city",
        "region": "Jigawa",
        "country": "Nigeria",
        "lat": 12.57,
        "long": 8.35,
        "elev ft": 1702,
        "pop est": 21609
    },
    {
        "name": "Anaweya",
        "what": "city",
        "region": "Jigawa",
        "country": "Nigeria",
        "lat": 12.3,
        "long": 9.86,
        "elev ft": 1187,
        "pop est": 16128
    },
    {
        "name": "Andaza",
        "what": "city",
        "region": "Jigawa",
        "country": "Nigeria",
        "lat": 11.79,
        "long": 9.46,
        "elev ft": 1669,
        "pop est": 20332
    },
    {
        "name": "Ando",
        "what": "city",
        "region": "Jigawa",
        "country": "Nigeria",
        "lat": 12.6,
        "long": 8.78,
        "elev ft": 1194,
        "pop est": 19383
    },
    {
        "name": "Andubu",
        "what": "city",
        "region": "Jigawa",
        "country": "Nigeria",
        "lat": 11.54,
        "long": 9.82,
        "elev ft": 1669,
        "pop est": 17590
    },
    {
        "name": "Anguwan Gariji",
        "what": "city",
        "region": "Jigawa",
        "country": "Nigeria",
        "lat": 11.15,
        "long": 9.9,
        "elev ft": 1669,
        "pop est": 15339
    },
    {
        "name": "Anguwan Sarkin Baka",
        "what": "city",
        "region": "Jigawa",
        "country": "Nigeria",
        "lat": 11.38,
        "long": 9.51,
        "elev ft": 1669,
        "pop est": 15943
    },
    {
        "name": "Anguwar Duna",
        "what": "city",
        "region": "Jigawa",
        "country": "Nigeria",
        "lat": 12.78,
        "long": 8.99,
        "elev ft": 1236,
        "pop est": 19828
    },
    {
        "name": "Arbus",
        "what": "city",
        "region": "Jigawa",
        "country": "Nigeria",
        "lat": 12.6,
        "long": 9.8,
        "elev ft": 1151,
        "pop est": 17368
    },
    {
        "name": "Arbuschasko",
        "what": "city",
        "region": "Jigawa",
        "country": "Nigeria",
        "lat": 12.63,
        "long": 9.72,
        "elev ft": 1148,
        "pop est": 20032
    },
    {
        "name": "Arki",
        "what": "city",
        "region": "Jigawa",
        "country": "Nigeria",
        "lat": 12.42,
        "long": 9.96,
        "elev ft": 1118,
        "pop est": 34044
    },
    {
        "name": "Asayaya",
        "what": "city",
        "region": "Jigawa",
        "country": "Nigeria",
        "lat": 12.32,
        "long": 9.2,
        "elev ft": 1220,
        "pop est": 15666
    },
    {
        "name": "Asayaya",
        "what": "city",
        "region": "Jigawa",
        "country": "Nigeria",
        "lat": 12.42,
        "long": 8.85,
        "elev ft": 1669,
        "pop est": 16681
    },
    {
        "name": "Aseyaya",
        "what": "city",
        "region": "Jigawa",
        "country": "Nigeria",
        "lat": 12.7,
        "long": 9.56,
        "elev ft": 1154,
        "pop est": 19418
    },
    {
        "name": "Asherifa",
        "what": "city",
        "region": "Jigawa",
        "country": "Nigeria",
        "lat": 11.93,
        "long": 9.56,
        "elev ft": 1669,
        "pop est": 22004
    },
    {
        "name": "Askandu",
        "what": "city",
        "region": "Jigawa",
        "country": "Nigeria",
        "lat": 12.38,
        "long": 9.81,
        "elev ft": 1187,
        "pop est": 20664
    },
    {
        "name": "Atuman",
        "what": "city",
        "region": "Jigawa",
        "country": "Nigeria",
        "lat": 12.08,
        "long": 9.49,
        "elev ft": 1243,
        "pop est": 25628
    },
    {
        "name": "Aujara",
        "what": "city",
        "region": "Jigawa",
        "country": "Nigeria",
        "lat": 12.05,
        "long": 9.42,
        "elev ft": 1230,
        "pop est": 25535
    },
    {
        "name": "Auya",
        "what": "city",
        "region": "Jigawa",
        "country": "Nigeria",
        "lat": 12.57,
        "long": 8.86,
        "elev ft": 1669,
        "pop est": 19221
    },
    {
        "name": "Auyakayi",
        "what": "city",
        "region": "Jigawa",
        "country": "Nigeria",
        "lat": 12.37,
        "long": 9.99,
        "elev ft": 1161,
        "pop est": 21129
    },
    {
        "name": "Auyo",
        "what": "city",
        "region": "Jigawa",
        "country": "Nigeria",
        "lat": 12.35,
        "long": 9.96,
        "elev ft": 1171,
        "pop est": 24151
    },
    {
        "name": "Auyo",
        "what": "city",
        "region": "Jigawa",
        "country": "Nigeria",
        "lat": 12.33,
        "long": 9.94,
        "elev ft": 1190,
        "pop est": 22884
    },
    {
        "name": "Ayania",
        "what": "city",
        "region": "Jigawa",
        "country": "Nigeria",
        "lat": 12.59,
        "long": 8.94,
        "elev ft": 1177,
        "pop est": 19179
    },
    {
        "name": "Azanohu",
        "what": "city",
        "region": "Jigawa",
        "country": "Nigeria",
        "lat": 11.4,
        "long": 9.69,
        "elev ft": 1669,
        "pop est": 16410
    },
    {
        "name": "Ba'auzini",
        "what": "city",
        "region": "Jigawa",
        "country": "Nigeria",
        "lat": 12.66,
        "long": 8.5,
        "elev ft": 1669,
        "pop est": 30545
    },
    {
        "name": "Baba Mutum",
        "what": "city",
        "region": "Jigawa",
        "country": "Nigeria",
        "lat": 12.82,
        "long": 9.0,
        "elev ft": 1197,
        "pop est": 17806
    },
    {
        "name": "Babande",
        "what": "city",
        "region": "Jigawa",
        "country": "Nigeria",
        "lat": 12.48,
        "long": 8.88,
        "elev ft": 1256,
        "pop est": 17594
    },
    {
        "name": "Babbaki",
        "what": "city",
        "region": "Jigawa",
        "country": "Nigeria",
        "lat": 12.59,
        "long": 9.23,
        "elev ft": 1187,
        "pop est": 20115
    },
    {
        "name": "Babura",
        "what": "city",
        "region": "Jigawa",
        "country": "Nigeria",
        "lat": 12.77,
        "long": 9.02,
        "elev ft": 1223,
        "pop est": 19450
    },
    {
        "name": "Babushe",
        "what": "city",
        "region": "Jigawa",
        "country": "Nigeria",
        "lat": 12.27,
        "long": 8.97,
        "elev ft": 1240,
        "pop est": 21432
    },
    {
        "name": "Badage",
        "what": "city",
        "region": "Jigawa",
        "country": "Nigeria",
        "lat": 12.27,
        "long": 9.14,
        "elev ft": 1243,
        "pop est": 20264
    },
    {
        "name": "Badsweni",
        "what": "city",
        "region": "Jigawa",
        "country": "Nigeria",
        "lat": 11.68,
        "long": 9.76,
        "elev ft": 1669,
        "pop est": 17124
    },
    {
        "name": "Badungu",
        "what": "city",
        "region": "Jigawa",
        "country": "Nigeria",
        "lat": 11.3,
        "long": 9.47,
        "elev ft": 1669,
        "pop est": 14377
    },
    {
        "name": "Badura",
        "what": "city",
        "region": "Jigawa",
        "country": "Nigeria",
        "lat": 12.4,
        "long": 9.29,
        "elev ft": 1200,
        "pop est": 15955
    },
    {
        "name": "Bagade",
        "what": "city",
        "region": "Jigawa",
        "country": "Nigeria",
        "lat": 12.59,
        "long": 8.99,
        "elev ft": 1253,
        "pop est": 18272
    },
    {
        "name": "Bagemu",
        "what": "city",
        "region": "Jigawa",
        "country": "Nigeria",
        "lat": 12.43,
        "long": 8.77,
        "elev ft": 1669,
        "pop est": 21435
    },
    {
        "name": "Baka",
        "what": "city",
        "region": "Jigawa",
        "country": "Nigeria",
        "lat": 12.55,
        "long": 8.99,
        "elev ft": 1669,
        "pop est": 15908
    },
    {
        "name": "Bakar Sabara",
        "what": "city",
        "region": "Jigawa",
        "country": "Nigeria",
        "lat": 12.45,
        "long": 9.11,
        "elev ft": 1223,
        "pop est": 13033
    },
    {
        "name": "Bakarkuka",
        "what": "city",
        "region": "Jigawa",
        "country": "Nigeria",
        "lat": 12.68,
        "long": 8.93,
        "elev ft": 1669,
        "pop est": 19826
    },
    {
        "name": "Bakarkura",
        "what": "city",
        "region": "Jigawa",
        "country": "Nigeria",
        "lat": 12.68,
        "long": 8.93,
        "elev ft": 1669,
        "pop est": 19826
    },
    {
        "name": "Baki",
        "what": "city",
        "region": "Jigawa",
        "country": "Nigeria",
        "lat": 12.36,
        "long": 9.22,
        "elev ft": 1207,
        "pop est": 13088
    },
    {
        "name": "Bakin Kanake",
        "what": "city",
        "region": "Jigawa",
        "country": "Nigeria",
        "lat": 11.81,
        "long": 9.62,
        "elev ft": 1669,
        "pop est": 18921
    },
    {
        "name": "Bakinkuja",
        "what": "city",
        "region": "Jigawa",
        "country": "Nigeria",
        "lat": 11.46,
        "long": 9.6,
        "elev ft": 1669,
        "pop est": 15943
    },
    {
        "name": "Balage",
        "what": "city",
        "region": "Jigawa",
        "country": "Nigeria",
        "lat": 12.63,
        "long": 8.79,
        "elev ft": 1253,
        "pop est": 20119
    },
    {
        "name": "Balalashe",
        "what": "city",
        "region": "Jigawa",
        "country": "Nigeria",
        "lat": 12.37,
        "long": 9.18,
        "elev ft": 1230,
        "pop est": 12826
    },
    {
        "name": "Bamaina",
        "what": "city",
        "region": "Jigawa",
        "country": "Nigeria",
        "lat": 11.36,
        "long": 9.56,
        "elev ft": 1669,
        "pop est": 15943
    },
    {
        "name": "Bandawa",
        "what": "city",
        "region": "Jigawa",
        "country": "Nigeria",
        "lat": 12.79,
        "long": 8.4,
        "elev ft": 1669,
        "pop est": 29866
    },
    {
        "name": "Banlada",
        "what": "city",
        "region": "Jigawa",
        "country": "Nigeria",
        "lat": 12.46,
        "long": 8.8,
        "elev ft": 1669,
        "pop est": 19240
    },
    {
        "name": "Bantsaro",
        "what": "city",
        "region": "Jigawa",
        "country": "Nigeria",
        "lat": 12.37,
        "long": 8.92,
        "elev ft": 1669,
        "pop est": 12814
    },
    {
        "name": "Banyali",
        "what": "city",
        "region": "Jigawa",
        "country": "Nigeria",
        "lat": 12.36,
        "long": 9.99,
        "elev ft": 1181,
        "pop est": 20023
    },
    {
        "name": "Banzaram",
        "what": "city",
        "region": "Jigawa",
        "country": "Nigeria",
        "lat": 12.68,
        "long": 9.68,
        "elev ft": 1154,
        "pop est": 20115
    },
    {
        "name": "Baragumi",
        "what": "city",
        "region": "Jigawa",
        "country": "Nigeria",
        "lat": 12.63,
        "long": 8.29,
        "elev ft": 1669,
        "pop est": 21605
    },
    {
        "name": "Baragumi",
        "what": "city",
        "region": "Jigawa",
        "country": "Nigeria",
        "lat": 12.62,
        "long": 8.26,
        "elev ft": 1669,
        "pop est": 21524
    },
    {
        "name": "Baram",
        "what": "city",
        "region": "Jigawa",
        "country": "Nigeria",
        "lat": 11.06,
        "long": 9.99,
        "elev ft": 1719,
        "pop est": 18029
    },
    {
        "name": "Baranda",
        "what": "city",
        "region": "Jigawa",
        "country": "Nigeria",
        "lat": 11.64,
        "long": 9.45,
        "elev ft": 1669,
        "pop est": 20289
    },
    {
        "name": "Barburam",
        "what": "city",
        "region": "Jigawa",
        "country": "Nigeria",
        "lat": 12.85,
        "long": 10.06,
        "elev ft": 1122,
        "pop est": 9424
    },
    {
        "name": "Bardo",
        "what": "city",
        "region": "Jigawa",
        "country": "Nigeria",
        "lat": 12.28,
        "long": 9.54,
        "elev ft": 1227,
        "pop est": 21754
    },
    {
        "name": "Bareberi",
        "what": "city",
        "region": "Jigawa",
        "country": "Nigeria",
        "lat": 12.27,
        "long": 8.96,
        "elev ft": 1669,
        "pop est": 21870
    },
    {
        "name": "Bareberi",
        "what": "city",
        "region": "Jigawa",
        "country": "Nigeria",
        "lat": 12.37,
        "long": 8.9,
        "elev ft": 1233,
        "pop est": 12870
    },
    {
        "name": "Barinje",
        "what": "city",
        "region": "Jigawa",
        "country": "Nigeria",
        "lat": 12.62,
        "long": 8.29,
        "elev ft": 1669,
        "pop est": 21598
    },
    {
        "name": "Barmawa",
        "what": "city",
        "region": "Jigawa",
        "country": "Nigeria",
        "lat": 12.33,
        "long": 8.86,
        "elev ft": 1669,
        "pop est": 13311
    },
    {
        "name": "Barra",
        "what": "city",
        "region": "Jigawa",
        "country": "Nigeria",
        "lat": 12.61,
        "long": 8.67,
        "elev ft": 1223,
        "pop est": 19375
    },
    {
        "name": "Baruma",
        "what": "city",
        "region": "Jigawa",
        "country": "Nigeria",
        "lat": 12.56,
        "long": 8.76,
        "elev ft": 1669,
        "pop est": 19708
    },
    {
        "name": "Basaba",
        "what": "city",
        "region": "Jigawa",
        "country": "Nigeria",
        "lat": 12.68,
        "long": 8.59,
        "elev ft": 1669,
        "pop est": 29502
    },
    {
        "name": "Basheyi",
        "what": "city",
        "region": "Jigawa",
        "country": "Nigeria",
        "lat": 12.59,
        "long": 8.3,
        "elev ft": 1669,
        "pop est": 21605
    },
    {
        "name": "Basirka",
        "what": "city",
        "region": "Jigawa",
        "country": "Nigeria",
        "lat": 11.15,
        "long": 10.32,
        "elev ft": 1669,
        "pop est": 14560
    },
    {
        "name": "Bata Kashi",
        "what": "city",
        "region": "Jigawa",
        "country": "Nigeria",
        "lat": 12.35,
        "long": 8.95,
        "elev ft": 1669,
        "pop est": 13140
    },
    {
        "name": "Batale",
        "what": "city",
        "region": "Jigawa",
        "country": "Nigeria",
        "lat": 12.64,
        "long": 8.76,
        "elev ft": 1669,
        "pop est": 20103
    },
    {
        "name": "Batali",
        "what": "city",
        "region": "Jigawa",
        "country": "Nigeria",
        "lat": 12.64,
        "long": 8.76,
        "elev ft": 1669,
        "pop est": 20103
    },
    {
        "name": "Batsaba",
        "what": "city",
        "region": "Jigawa",
        "country": "Nigeria",
        "lat": 12.68,
        "long": 8.59,
        "elev ft": 1669,
        "pop est": 29502
    },
    {
        "name": "Batu",
        "what": "city",
        "region": "Jigawa",
        "country": "Nigeria",
        "lat": 12.76,
        "long": 10.04,
        "elev ft": 1148,
        "pop est": 9618
    },
    {
        "name": "Baturia",
        "what": "city",
        "region": "Jigawa",
        "country": "Nigeria",
        "lat": 12.48,
        "long": 10.36,
        "elev ft": 1066,
        "pop est": 18175
    },
    {
        "name": "Bauri",
        "what": "city",
        "region": "Jigawa",
        "country": "Nigeria",
        "lat": 12.03,
        "long": 9.93,
        "elev ft": 1213,
        "pop est": 18327
    },
    {
        "name": "Bausua",
        "what": "city",
        "region": "Jigawa",
        "country": "Nigeria",
        "lat": 12.6,
        "long": 9.56,
        "elev ft": 1154,
        "pop est": 25840
    },
    {
        "name": "Bayan Dutsi",
        "what": "city",
        "region": "Jigawa",
        "country": "Nigeria",
        "lat": 12.68,
        "long": 8.41,
        "elev ft": 1886,
        "pop est": 28693
    },
    {
        "name": "Bazabure",
        "what": "city",
        "region": "Jigawa",
        "country": "Nigeria",
        "lat": 11.89,
        "long": 9.7,
        "elev ft": 1256,
        "pop est": 20754
    },
    {
        "name": "Ba\u2019auzini",
        "what": "city",
        "region": "Jigawa",
        "country": "Nigeria",
        "lat": 12.66,
        "long": 8.5,
        "elev ft": 1669,
        "pop est": 30545
    },
    {
        "name": "Beguwa",
        "what": "city",
        "region": "Jigawa",
        "country": "Nigeria",
        "lat": 12.68,
        "long": 10.03,
        "elev ft": 1118,
        "pop est": 12069
    },
    {
        "name": "Beguwa",
        "what": "city",
        "region": "Jigawa",
        "country": "Nigeria",
        "lat": 12.25,
        "long": 8.99,
        "elev ft": 1669,
        "pop est": 22598
    },
    {
        "name": "Bela",
        "what": "city",
        "region": "Jigawa",
        "country": "Nigeria",
        "lat": 12.7,
        "long": 8.43,
        "elev ft": 1669,
        "pop est": 30539
    },
    {
        "name": "Bidawa",
        "what": "city",
        "region": "Jigawa",
        "country": "Nigeria",
        "lat": 12.26,
        "long": 9.23,
        "elev ft": 1240,
        "pop est": 20489
    },
    {
        "name": "Birinawa",
        "what": "city",
        "region": "Jigawa",
        "country": "Nigeria",
        "lat": 12.79,
        "long": 10.24,
        "elev ft": 1112,
        "pop est": 11485
    },
    {
        "name": "Biriniwa",
        "what": "city",
        "region": "Jigawa",
        "country": "Nigeria",
        "lat": 12.79,
        "long": 10.24,
        "elev ft": 1112,
        "pop est": 11485
    },
    {
        "name": "Birji",
        "what": "city",
        "region": "Jigawa",
        "country": "Nigeria",
        "lat": 12.79,
        "long": 8.44,
        "elev ft": 1669,
        "pop est": 28925
    },
    {
        "name": "Birnin Kudu",
        "what": "city",
        "region": "Jigawa",
        "country": "Nigeria",
        "lat": 11.45,
        "long": 9.48,
        "elev ft": 1669,
        "pop est": 15943
    },
    {
        "name": "Birnin Mutum",
        "what": "city",
        "region": "Jigawa",
        "country": "Nigeria",
        "lat": 12.82,
        "long": 9.0,
        "elev ft": 1197,
        "pop est": 17806
    },
    {
        "name": "Birniwa",
        "what": "city",
        "region": "Jigawa",
        "country": "Nigeria",
        "lat": 12.79,
        "long": 10.24,
        "elev ft": 1112,
        "pop est": 11485
    },
    {
        "name": "Biyamusu",
        "what": "city",
        "region": "Jigawa",
        "country": "Nigeria",
        "lat": 12.08,
        "long": 9.19,
        "elev ft": 1669,
        "pop est": 21915
    },
    {
        "name": "Bodeyel",
        "what": "city",
        "region": "Jigawa",
        "country": "Nigeria",
        "lat": 12.66,
        "long": 8.48,
        "elev ft": 1669,
        "pop est": 30545
    },
    {
        "name": "Bodinga",
        "what": "city",
        "region": "Jigawa",
        "country": "Nigeria",
        "lat": 11.39,
        "long": 9.78,
        "elev ft": 1669,
        "pop est": 17796
    },
    {
        "name": "Bodinga",
        "what": "city",
        "region": "Jigawa",
        "country": "Nigeria",
        "lat": 11.35,
        "long": 9.52,
        "elev ft": 1669,
        "pop est": 15910
    },
    {
        "name": "Bodinga (1)",
        "what": "city",
        "region": "Jigawa",
        "country": "Nigeria",
        "lat": 11.35,
        "long": 9.52,
        "elev ft": 1669,
        "pop est": 15910
    },
    {
        "name": "Bodinga (2)",
        "what": "city",
        "region": "Jigawa",
        "country": "Nigeria",
        "lat": 11.39,
        "long": 9.78,
        "elev ft": 1669,
        "pop est": 17796
    },
    {
        "name": "Bodinga 1",
        "what": "city",
        "region": "Jigawa",
        "country": "Nigeria",
        "lat": 11.35,
        "long": 9.52,
        "elev ft": 1669,
        "pop est": 15910
    },
    {
        "name": "Bodinga 2",
        "what": "city",
        "region": "Jigawa",
        "country": "Nigeria",
        "lat": 11.39,
        "long": 9.78,
        "elev ft": 1669,
        "pop est": 17796
    },
    {
        "name": "Borowatara",
        "what": "city",
        "region": "Jigawa",
        "country": "Nigeria",
        "lat": 12.59,
        "long": 8.76,
        "elev ft": 1230,
        "pop est": 19278
    },
    {
        "name": "Botsotsowa",
        "what": "city",
        "region": "Jigawa",
        "country": "Nigeria",
        "lat": 12.66,
        "long": 8.87,
        "elev ft": 1236,
        "pop est": 20138
    },
    {
        "name": "Bowaji",
        "what": "city",
        "region": "Jigawa",
        "country": "Nigeria",
        "lat": 12.64,
        "long": 8.18,
        "elev ft": 1669,
        "pop est": 20403
    },
    {
        "name": "Budura",
        "what": "city",
        "region": "Jigawa",
        "country": "Nigeria",
        "lat": 12.4,
        "long": 9.29,
        "elev ft": 1200,
        "pop est": 15955
    },
    {
        "name": "Bugaje",
        "what": "city",
        "region": "Jigawa",
        "country": "Nigeria",
        "lat": 12.66,
        "long": 8.2,
        "elev ft": 1669,
        "pop est": 21348
    },
    {
        "name": "Buji",
        "what": "city",
        "region": "Jigawa",
        "country": "Nigeria",
        "lat": 11.52,
        "long": 9.67,
        "elev ft": 1669,
        "pop est": 15943
    },
    {
        "name": "Bulama",
        "what": "city",
        "region": "Jigawa",
        "country": "Nigeria",
        "lat": 12.63,
        "long": 8.95,
        "elev ft": 1236,
        "pop est": 19221
    },
    {
        "name": "Bulama Haseini",
        "what": "city",
        "region": "Jigawa",
        "country": "Nigeria",
        "lat": 12.59,
        "long": 10.41,
        "elev ft": 1056,
        "pop est": 18178
    },
    {
        "name": "Bulama Haseni",
        "what": "city",
        "region": "Jigawa",
        "country": "Nigeria",
        "lat": 12.59,
        "long": 10.41,
        "elev ft": 1056,
        "pop est": 18178
    },
    {
        "name": "Bulangu",
        "what": "city",
        "region": "Jigawa",
        "country": "Nigeria",
        "lat": 12.09,
        "long": 10.11,
        "elev ft": 1177,
        "pop est": 18313
    },
    {
        "name": "Bulbul",
        "what": "city",
        "region": "Jigawa",
        "country": "Nigeria",
        "lat": 12.61,
        "long": 8.61,
        "elev ft": 1669,
        "pop est": 25407
    },
    {
        "name": "Bule",
        "what": "city",
        "region": "Jigawa",
        "country": "Nigeria",
        "lat": 12.61,
        "long": 8.99,
        "elev ft": 1243,
        "pop est": 18724
    },
    {
        "name": "Bundu",
        "what": "city",
        "region": "Jigawa",
        "country": "Nigeria",
        "lat": 12.66,
        "long": 8.22,
        "elev ft": 1669,
        "pop est": 21594
    },
    {
        "name": "Bunsari",
        "what": "city",
        "region": "Jigawa",
        "country": "Nigeria",
        "lat": 12.68,
        "long": 9.68,
        "elev ft": 1145,
        "pop est": 20115
    },
    {
        "name": "Buntusu",
        "what": "city",
        "region": "Jigawa",
        "country": "Nigeria",
        "lat": 12.73,
        "long": 8.26,
        "elev ft": 1669,
        "pop est": 21605
    },
    {
        "name": "Bunun",
        "what": "city",
        "region": "Jigawa",
        "country": "Nigeria",
        "lat": 11.37,
        "long": 9.52,
        "elev ft": 1669,
        "pop est": 15943
    },
    {
        "name": "Burgunya",
        "what": "city",
        "region": "Jigawa",
        "country": "Nigeria",
        "lat": 12.29,
        "long": 9.13,
        "elev ft": 1240,
        "pop est": 17939
    },
    {
        "name": "Buta",
        "what": "city",
        "region": "Jigawa",
        "country": "Nigeria",
        "lat": 12.46,
        "long": 8.88,
        "elev ft": 1197,
        "pop est": 16973
    },
    {
        "name": "Butai",
        "what": "city",
        "region": "Jigawa",
        "country": "Nigeria",
        "lat": 12.27,
        "long": 9.92,
        "elev ft": 1148,
        "pop est": 13654
    },
    {
        "name": "Cakinawa",
        "what": "city",
        "region": "Jigawa",
        "country": "Nigeria",
        "lat": 12.37,
        "long": 8.82,
        "elev ft": 1669,
        "pop est": 18118
    },
    {
        "name": "Centahayo",
        "what": "city",
        "region": "Jigawa",
        "country": "Nigeria",
        "lat": 12.77,
        "long": 8.23,
        "elev ft": 1669,
        "pop est": 21605
    },
    {
        "name": "Chachamnau",
        "what": "city",
        "region": "Jigawa",
        "country": "Nigeria",
        "lat": 12.54,
        "long": 10.45,
        "elev ft": 1046,
        "pop est": 18178
    },
    {
        "name": "Chaichai",
        "what": "city",
        "region": "Jigawa",
        "country": "Nigeria",
        "lat": 12.01,
        "long": 9.25,
        "elev ft": 1669,
        "pop est": 22126
    },
    {
        "name": "Chakwaikwaiwa",
        "what": "city",
        "region": "Jigawa",
        "country": "Nigeria",
        "lat": 12.29,
        "long": 9.37,
        "elev ft": 1223,
        "pop est": 19431
    },
    {
        "name": "Chamo",
        "what": "city",
        "region": "Jigawa",
        "country": "Nigeria",
        "lat": 11.98,
        "long": 9.39,
        "elev ft": 1669,
        "pop est": 22871
    },
    {
        "name": "Chikia",
        "what": "city",
        "region": "Jigawa",
        "country": "Nigeria",
        "lat": 12.81,
        "long": 9.23,
        "elev ft": 1190,
        "pop est": 15746
    },
    {
        "name": "Chikuto",
        "what": "city",
        "region": "Jigawa",
        "country": "Nigeria",
        "lat": 12.29,
        "long": 9.21,
        "elev ft": 1243,
        "pop est": 17874
    },
    {
        "name": "Chinamari",
        "what": "city",
        "region": "Jigawa",
        "country": "Nigeria",
        "lat": 12.57,
        "long": 9.8,
        "elev ft": 1154,
        "pop est": 16598
    },
    {
        "name": "Chirawa",
        "what": "city",
        "region": "Jigawa",
        "country": "Nigeria",
        "lat": 12.64,
        "long": 10.14,
        "elev ft": 1095,
        "pop est": 30165
    },
    {
        "name": "Chirbun",
        "what": "city",
        "region": "Jigawa",
        "country": "Nigeria",
        "lat": 11.58,
        "long": 9.67,
        "elev ft": 1669,
        "pop est": 15943
    },
    {
        "name": "Chiromari",
        "what": "city",
        "region": "Jigawa",
        "country": "Nigeria",
        "lat": 12.12,
        "long": 10.14,
        "elev ft": 1161,
        "pop est": 17962
    },
    {
        "name": "Chiromawa",
        "what": "city",
        "region": "Jigawa",
        "country": "Nigeria",
        "lat": 11.88,
        "long": 9.51,
        "elev ft": 1669,
        "pop est": 21557
    },
    {
        "name": "Chironbi",
        "what": "city",
        "region": "Jigawa",
        "country": "Nigeria",
        "lat": 12.64,
        "long": 8.92,
        "elev ft": 1167,
        "pop est": 19313
    },
    {
        "name": "Chironbi Mallamai",
        "what": "city",
        "region": "Jigawa",
        "country": "Nigeria",
        "lat": 12.65,
        "long": 8.93,
        "elev ft": 1249,
        "pop est": 19344
    },
    {
        "name": "Chukurawa",
        "what": "city",
        "region": "Jigawa",
        "country": "Nigeria",
        "lat": 12.37,
        "long": 9.07,
        "elev ft": 1236,
        "pop est": 12814
    },
    {
        "name": "Cikakoshi",
        "what": "city",
        "region": "Jigawa",
        "country": "Nigeria",
        "lat": 12.63,
        "long": 8.72,
        "elev ft": 1669,
        "pop est": 19804
    },
    {
        "name": "D' Makeri",
        "what": "city",
        "region": "Jigawa",
        "country": "Nigeria",
        "lat": 12.83,
        "long": 9.02,
        "elev ft": 1197,
        "pop est": 15570
    },
    {
        "name": "Daba",
        "what": "city",
        "region": "Jigawa",
        "country": "Nigeria",
        "lat": 11.05,
        "long": 10.0,
        "elev ft": 2509,
        "pop est": 18029
    },
    {
        "name": "Daba",
        "what": "city",
        "region": "Jigawa",
        "country": "Nigeria",
        "lat": 12.62,
        "long": 8.5,
        "elev ft": 1669,
        "pop est": 30463
    },
    {
        "name": "Dabbawa",
        "what": "city",
        "region": "Jigawa",
        "country": "Nigeria",
        "lat": 12.59,
        "long": 8.84,
        "elev ft": 1210,
        "pop est": 19221
    },
    {
        "name": "Dabi",
        "what": "city",
        "region": "Jigawa",
        "country": "Nigeria",
        "lat": 12.71,
        "long": 8.19,
        "elev ft": 1669,
        "pop est": 21021
    },
    {
        "name": "Dabi",
        "what": "city",
        "region": "Jigawa",
        "country": "Nigeria",
        "lat": 12.09,
        "long": 8.96,
        "elev ft": 1669,
        "pop est": 27908
    },
    {
        "name": "Dachi",
        "what": "city",
        "region": "Jigawa",
        "country": "Nigeria",
        "lat": 12.05,
        "long": 9.58,
        "elev ft": 1210,
        "pop est": 25628
    },
    {
        "name": "Dadda",
        "what": "city",
        "region": "Jigawa",
        "country": "Nigeria",
        "lat": 12.7,
        "long": 9.35,
        "elev ft": 1177,
        "pop est": 20131
    },
    {
        "name": "Dadin Duniya",
        "what": "city",
        "region": "Jigawa",
        "country": "Nigeria",
        "lat": 12.52,
        "long": 9.22,
        "elev ft": 1217,
        "pop est": 19564
    },
    {
        "name": "Dadin Sarki",
        "what": "city",
        "region": "Jigawa",
        "country": "Nigeria",
        "lat": 12.78,
        "long": 8.31,
        "elev ft": 1669,
        "pop est": 24597
    },
    {
        "name": "Dagana",
        "what": "city",
        "region": "Jigawa",
        "country": "Nigeria",
        "lat": 12.74,
        "long": 10.46,
        "elev ft": 1030,
        "pop est": 17243
    },
    {
        "name": "Dagazo",
        "what": "city",
        "region": "Jigawa",
        "country": "Nigeria",
        "lat": 12.17,
        "long": 9.72,
        "elev ft": 1190,
        "pop est": 25616
    },
    {
        "name": "Daguzu",
        "what": "city",
        "region": "Jigawa",
        "country": "Nigeria",
        "lat": 12.76,
        "long": 9.19,
        "elev ft": 1194,
        "pop est": 20115
    },
    {
        "name": "Dakache",
        "what": "city",
        "region": "Jigawa",
        "country": "Nigeria",
        "lat": 12.37,
        "long": 9.04,
        "elev ft": 1233,
        "pop est": 12912
    },
    {
        "name": "Dakayawa",
        "what": "city",
        "region": "Jigawa",
        "country": "Nigeria",
        "lat": 12.35,
        "long": 9.88,
        "elev ft": 1187,
        "pop est": 23238
    },
    {
        "name": "Dakidaka",
        "what": "city",
        "region": "Jigawa",
        "country": "Nigeria",
        "lat": 12.41,
        "long": 8.96,
        "elev ft": 1187,
        "pop est": 12814
    },
    {
        "name": "Dakido",
        "what": "city",
        "region": "Jigawa",
        "country": "Nigeria",
        "lat": 12.51,
        "long": 9.88,
        "elev ft": 1145,
        "pop est": 35597
    },
    {
        "name": "Dakoshi",
        "what": "city",
        "region": "Jigawa",
        "country": "Nigeria",
        "lat": 11.39,
        "long": 9.65,
        "elev ft": 1669,
        "pop est": 16043
    },
    {
        "name": "Dam Kumbo",
        "what": "city",
        "region": "Jigawa",
        "country": "Nigeria",
        "lat": 12.77,
        "long": 9.35,
        "elev ft": 1174,
        "pop est": 19079
    },
    {
        "name": "Dam Makama",
        "what": "city",
        "region": "Jigawa",
        "country": "Nigeria",
        "lat": 12.8,
        "long": 9.25,
        "elev ft": 1174,
        "pop est": 16352
    },
    {
        "name": "Damawa",
        "what": "city",
        "region": "Jigawa",
        "country": "Nigeria",
        "lat": 11.93,
        "long": 9.63,
        "elev ft": 1669,
        "pop est": 21782
    },
    {
        "name": "Damawa",
        "what": "city",
        "region": "Jigawa",
        "country": "Nigeria",
        "lat": 11.85,
        "long": 9.61,
        "elev ft": 1669,
        "pop est": 18923
    },
    {
        "name": "Dampa",
        "what": "city",
        "region": "Jigawa",
        "country": "Nigeria",
        "lat": 12.58,
        "long": 8.78,
        "elev ft": 1227,
        "pop est": 19225
    },
    {
        "name": "Damu",
        "what": "city",
        "region": "Jigawa",
        "country": "Nigeria",
        "lat": 12.81,
        "long": 9.04,
        "elev ft": 1207,
        "pop est": 17161
    },
    {
        "name": "Damukashi",
        "what": "city",
        "region": "Jigawa",
        "country": "Nigeria",
        "lat": 11.36,
        "long": 9.51,
        "elev ft": 1669,
        "pop est": 15943
    },
    {
        "name": "Dan Alili",
        "what": "city",
        "region": "Jigawa",
        "country": "Nigeria",
        "lat": 12.49,
        "long": 8.76,
        "elev ft": 1669,
        "pop est": 19494
    },
    {
        "name": "Dan Ashitan",
        "what": "city",
        "region": "Jigawa",
        "country": "Nigeria",
        "lat": 12.64,
        "long": 8.18,
        "elev ft": 1669,
        "pop est": 20403
    },
    {
        "name": "Dan Bako",
        "what": "city",
        "region": "Jigawa",
        "country": "Nigeria",
        "lat": 12.41,
        "long": 8.99,
        "elev ft": 1256,
        "pop est": 12814
    },
    {
        "name": "Dan Bando",
        "what": "city",
        "region": "Jigawa",
        "country": "Nigeria",
        "lat": 12.43,
        "long": 8.75,
        "elev ft": 1669,
        "pop est": 22027
    },
    {
        "name": "Dan Buzu",
        "what": "city",
        "region": "Jigawa",
        "country": "Nigeria",
        "lat": 12.48,
        "long": 8.97,
        "elev ft": 1246,
        "pop est": 12948
    },
    {
        "name": "Dan Dagura",
        "what": "city",
        "region": "Jigawa",
        "country": "Nigeria",
        "lat": 12.51,
        "long": 9.15,
        "elev ft": 1227,
        "pop est": 17759
    },
    {
        "name": "Dan Dutse Bulbul",
        "what": "city",
        "region": "Jigawa",
        "country": "Nigeria",
        "lat": 12.6,
        "long": 8.63,
        "elev ft": 1669,
        "pop est": 22479
    },
    {
        "name": "Dan Kano",
        "what": "city",
        "region": "Jigawa",
        "country": "Nigeria",
        "lat": 12.61,
        "long": 8.9,
        "elev ft": 1256,
        "pop est": 19236
    },
    {
        "name": "Dan Kuri",
        "what": "city",
        "region": "Jigawa",
        "country": "Nigeria",
        "lat": 12.68,
        "long": 9.58,
        "elev ft": 1158,
        "pop est": 20115
    },
    {
        "name": "Dan Ladi",
        "what": "city",
        "region": "Jigawa",
        "country": "Nigeria",
        "lat": 12.53,
        "long": 9.25,
        "elev ft": 1207,
        "pop est": 20115
    },
    {
        "name": "Dan Maigari",
        "what": "city",
        "region": "Jigawa",
        "country": "Nigeria",
        "lat": 12.51,
        "long": 8.91,
        "elev ft": 1236,
        "pop est": 17054
    },
    {
        "name": "Dan Makeri",
        "what": "city",
        "region": "Jigawa",
        "country": "Nigeria",
        "lat": 12.83,
        "long": 9.02,
        "elev ft": 1197,
        "pop est": 15570
    },
    {
        "name": "Dan Makeri",
        "what": "city",
        "region": "Jigawa",
        "country": "Nigeria",
        "lat": 12.16,
        "long": 9.02,
        "elev ft": 1669,
        "pop est": 22943
    },
    {
        "name": "Dan Musa",
        "what": "city",
        "region": "Jigawa",
        "country": "Nigeria",
        "lat": 12.36,
        "long": 8.98,
        "elev ft": 1669,
        "pop est": 12876
    },
    {
        "name": "Dan Yaye",
        "what": "city",
        "region": "Jigawa",
        "country": "Nigeria",
        "lat": 12.44,
        "long": 8.76,
        "elev ft": 1669,
        "pop est": 21160
    },
    {
        "name": "Dan Zabia",
        "what": "city",
        "region": "Jigawa",
        "country": "Nigeria",
        "lat": 12.44,
        "long": 9.65,
        "elev ft": 1174,
        "pop est": 43200
    },
    {
        "name": "Dan-Gadi",
        "what": "city",
        "region": "Jigawa",
        "country": "Nigeria",
        "lat": 12.66,
        "long": 8.18,
        "elev ft": 1669,
        "pop est": 20637
    },
    {
        "name": "Dan-Zomo",
        "what": "city",
        "region": "Jigawa",
        "country": "Nigeria",
        "lat": 12.44,
        "long": 9.36,
        "elev ft": 1194,
        "pop est": 19547
    },
    {
        "name": "Danbarage",
        "what": "city",
        "region": "Jigawa",
        "country": "Nigeria",
        "lat": 12.46,
        "long": 9.0,
        "elev ft": 1230,
        "pop est": 12814
    },
    {
        "name": "Danbarage",
        "what": "city",
        "region": "Jigawa",
        "country": "Nigeria",
        "lat": 12.74,
        "long": 8.96,
        "elev ft": 1233,
        "pop est": 20218
    },
    {
        "name": "Danbazau",
        "what": "city",
        "region": "Jigawa",
        "country": "Nigeria",
        "lat": 11.48,
        "long": 9.71,
        "elev ft": 1669,
        "pop est": 15943
    },
    {
        "name": "Dangaigai",
        "what": "city",
        "region": "Jigawa",
        "country": "Nigeria",
        "lat": 12.6,
        "long": 8.69,
        "elev ft": 1236,
        "pop est": 19503
    },
    {
        "name": "Dangarkuwa",
        "what": "city",
        "region": "Jigawa",
        "country": "Nigeria",
        "lat": 12.62,
        "long": 8.86,
        "elev ft": 1243,
        "pop est": 19502
    },
    {
        "name": "Dangolia",
        "what": "city",
        "region": "Jigawa",
        "country": "Nigeria",
        "lat": 11.78,
        "long": 9.59,
        "elev ft": 1669,
        "pop est": 18922
    },
    {
        "name": "Dangwamki",
        "what": "city",
        "region": "Jigawa",
        "country": "Nigeria",
        "lat": 12.81,
        "long": 9.3,
        "elev ft": 1171,
        "pop est": 14587
    },
    {
        "name": "Dankaba",
        "what": "city",
        "region": "Jigawa",
        "country": "Nigeria",
        "lat": 12.54,
        "long": 8.73,
        "elev ft": 1669,
        "pop est": 21298
    },
    {
        "name": "Dankama",
        "what": "city",
        "region": "Jigawa",
        "country": "Nigeria",
        "lat": 12.79,
        "long": 8.55,
        "elev ft": 1669,
        "pop est": 26591
    },
    {
        "name": "Dankamai",
        "what": "city",
        "region": "Jigawa",
        "country": "Nigeria",
        "lat": 12.75,
        "long": 8.97,
        "elev ft": 1243,
        "pop est": 20091
    },
    {
        "name": "Dankarda",
        "what": "city",
        "region": "Jigawa",
        "country": "Nigeria",
        "lat": 12.59,
        "long": 8.67,
        "elev ft": 1669,
        "pop est": 19790
    },
    {
        "name": "Dankarda",
        "what": "city",
        "region": "Jigawa",
        "country": "Nigeria",
        "lat": 12.59,
        "long": 8.64,
        "elev ft": 1669,
        "pop est": 20913
    },
    {
        "name": "Dankargo",
        "what": "city",
        "region": "Jigawa",
        "country": "Nigeria",
        "lat": 12.34,
        "long": 8.86,
        "elev ft": 1243,
        "pop est": 13230
    },
    {
        "name": "Dankari",
        "what": "city",
        "region": "Jigawa",
        "country": "Nigeria",
        "lat": 12.72,
        "long": 8.45,
        "elev ft": 1669,
        "pop est": 30545
    },
    {
        "name": "Dankira",
        "what": "city",
        "region": "Jigawa",
        "country": "Nigeria",
        "lat": 12.76,
        "long": 9.3,
        "elev ft": 1181,
        "pop est": 19028
    },
    {
        "name": "Dankoshi",
        "what": "city",
        "region": "Jigawa",
        "country": "Nigeria",
        "lat": 11.44,
        "long": 9.67,
        "elev ft": 1669,
        "pop est": 15947
    },
    {
        "name": "Dankoshi",
        "what": "city",
        "region": "Jigawa",
        "country": "Nigeria",
        "lat": 11.43,
        "long": 9.65,
        "elev ft": 1669,
        "pop est": 15943
    },
    {
        "name": "Danmakuma",
        "what": "city",
        "region": "Jigawa",
        "country": "Nigeria",
        "lat": 12.79,
        "long": 9.2,
        "elev ft": 1190,
        "pop est": 18191
    },
    {
        "name": "Danmugen",
        "what": "city",
        "region": "Jigawa",
        "country": "Nigeria",
        "lat": 12.51,
        "long": 8.91,
        "elev ft": 1236,
        "pop est": 17054
    },
    {
        "name": "Danpa",
        "what": "city",
        "region": "Jigawa",
        "country": "Nigeria",
        "lat": 12.63,
        "long": 9.0,
        "elev ft": 1243,
        "pop est": 18639
    },
    {
        "name": "Dansure",
        "what": "city",
        "region": "Jigawa",
        "country": "Nigeria",
        "lat": 12.64,
        "long": 8.32,
        "elev ft": 1669,
        "pop est": 21959
    },
    {
        "name": "Danzago",
        "what": "city",
        "region": "Jigawa",
        "country": "Nigeria",
        "lat": 12.64,
        "long": 8.81,
        "elev ft": 1253,
        "pop est": 20099
    },
    {
        "name": "Danzaina",
        "what": "city",
        "region": "Jigawa",
        "country": "Nigeria",
        "lat": 12.26,
        "long": 9.17,
        "elev ft": 1249,
        "pop est": 21584
    },
    {
        "name": "Daragi",
        "what": "city",
        "region": "Jigawa",
        "country": "Nigeria",
        "lat": 12.77,
        "long": 8.32,
        "elev ft": 1669,
        "pop est": 23211
    },
    {
        "name": "Darai",
        "what": "city",
        "region": "Jigawa",
        "country": "Nigeria",
        "lat": 12.14,
        "long": 9.44,
        "elev ft": 1227,
        "pop est": 24113
    },
    {
        "name": "Darare",
        "what": "city",
        "region": "Jigawa",
        "country": "Nigeria",
        "lat": 12.8,
        "long": 8.42,
        "elev ft": 1669,
        "pop est": 29406
    },
    {
        "name": "Dargazawa",
        "what": "city",
        "region": "Jigawa",
        "country": "Nigeria",
        "lat": 12.64,
        "long": 9.9,
        "elev ft": 1148,
        "pop est": 12975
    },
    {
        "name": "Darina",
        "what": "city",
        "region": "Jigawa",
        "country": "Nigeria",
        "lat": 12.77,
        "long": 8.29,
        "elev ft": 1669,
        "pop est": 22498
    },
    {
        "name": "Dasere",
        "what": "city",
        "region": "Jigawa",
        "country": "Nigeria",
        "lat": 12.55,
        "long": 8.97,
        "elev ft": 1194,
        "pop est": 16624
    },
    {
        "name": "Datsa",
        "what": "city",
        "region": "Jigawa",
        "country": "Nigeria",
        "lat": 11.23,
        "long": 9.66,
        "elev ft": 1669,
        "pop est": 14885
    },
    {
        "name": "Daurawa",
        "what": "city",
        "region": "Jigawa",
        "country": "Nigeria",
        "lat": 12.57,
        "long": 8.92,
        "elev ft": 1253,
        "pop est": 18718
    },
    {
        "name": "Daurawa Kadari",
        "what": "city",
        "region": "Jigawa",
        "country": "Nigeria",
        "lat": 12.63,
        "long": 8.52,
        "elev ft": 1669,
        "pop est": 30545
    },
    {
        "name": "Daurawa Kalanguna",
        "what": "city",
        "region": "Jigawa",
        "country": "Nigeria",
        "lat": 12.63,
        "long": 8.53,
        "elev ft": 1669,
        "pop est": 30541
    },
    {
        "name": "Dawa",
        "what": "city",
        "region": "Jigawa",
        "country": "Nigeria",
        "lat": 12.56,
        "long": 8.4,
        "elev ft": 1669,
        "pop est": 21923
    },
    {
        "name": "Dawa",
        "what": "city",
        "region": "Jigawa",
        "country": "Nigeria",
        "lat": 12.65,
        "long": 10.38,
        "elev ft": 1056,
        "pop est": 18178
    },
    {
        "name": "Diehu Baba",
        "what": "city",
        "region": "Jigawa",
        "country": "Nigeria",
        "lat": 12.25,
        "long": 8.98,
        "elev ft": 1669,
        "pop est": 23883
    },
    {
        "name": "Digawa Kwando",
        "what": "city",
        "region": "Jigawa",
        "country": "Nigeria",
        "lat": 12.59,
        "long": 8.95,
        "elev ft": 1233,
        "pop est": 18853
    },
    {
        "name": "Digijim",
        "what": "city",
        "region": "Jigawa",
        "country": "Nigeria",
        "lat": 11.15,
        "long": 10.3,
        "elev ft": 1669,
        "pop est": 16757
    },
    {
        "name": "Digijin",
        "what": "city",
        "region": "Jigawa",
        "country": "Nigeria",
        "lat": 11.15,
        "long": 10.3,
        "elev ft": 1669,
        "pop est": 16757
    },
    {
        "name": "Digijn",
        "what": "city",
        "region": "Jigawa",
        "country": "Nigeria",
        "lat": 11.15,
        "long": 10.3,
        "elev ft": 1669,
        "pop est": 16757
    },
    {
        "name": "Digimsa",
        "what": "city",
        "region": "Jigawa",
        "country": "Nigeria",
        "lat": 12.87,
        "long": 9.96,
        "elev ft": 1154,
        "pop est": 9036
    },
    {
        "name": "Diginsa",
        "what": "city",
        "region": "Jigawa",
        "country": "Nigeria",
        "lat": 12.87,
        "long": 9.96,
        "elev ft": 1154,
        "pop est": 9036
    },
    {
        "name": "Dingare",
        "what": "city",
        "region": "Jigawa",
        "country": "Nigeria",
        "lat": 12.09,
        "long": 9.02,
        "elev ft": 1669,
        "pop est": 22002
    },
    {
        "name": "Doda",
        "what": "city",
        "region": "Jigawa",
        "country": "Nigeria",
        "lat": 12.63,
        "long": 8.64,
        "elev ft": 1669,
        "pop est": 22967
    },
    {
        "name": "Dogal",
        "what": "city",
        "region": "Jigawa",
        "country": "Nigeria",
        "lat": 12.58,
        "long": 8.42,
        "elev ft": 1669,
        "pop est": 24075
    },
    {
        "name": "Dogaria",
        "what": "city",
        "region": "Jigawa",
        "country": "Nigeria",
        "lat": 12.59,
        "long": 8.54,
        "elev ft": 1669,
        "pop est": 29288
    },
    {
        "name": "Dogariya",
        "what": "city",
        "region": "Jigawa",
        "country": "Nigeria",
        "lat": 12.59,
        "long": 8.54,
        "elev ft": 1669,
        "pop est": 29288
    },
    {
        "name": "Dogon Marke",
        "what": "city",
        "region": "Jigawa",
        "country": "Nigeria",
        "lat": 12.6,
        "long": 8.87,
        "elev ft": 1669,
        "pop est": 19263
    },
    {
        "name": "Dogon Marke Tudu",
        "what": "city",
        "region": "Jigawa",
        "country": "Nigeria",
        "lat": 12.6,
        "long": 8.87,
        "elev ft": 1253,
        "pop est": 19263
    },
    {
        "name": "Doko",
        "what": "city",
        "region": "Jigawa",
        "country": "Nigeria",
        "lat": 12.33,
        "long": 9.1,
        "elev ft": 1230,
        "pop est": 14606
    },
    {
        "name": "Dokoro",
        "what": "city",
        "region": "Jigawa",
        "country": "Nigeria",
        "lat": 11.42,
        "long": 9.57,
        "elev ft": 1669,
        "pop est": 15943
    },
    {
        "name": "Dole",
        "what": "city",
        "region": "Jigawa",
        "country": "Nigeria",
        "lat": 12.75,
        "long": 10.37,
        "elev ft": 1036,
        "pop est": 16029
    },
    {
        "name": "Doma",
        "what": "city",
        "region": "Jigawa",
        "country": "Nigeria",
        "lat": 11.98,
        "long": 9.79,
        "elev ft": 1227,
        "pop est": 22934
    },
    {
        "name": "Dongolo",
        "what": "city",
        "region": "Jigawa",
        "country": "Nigeria",
        "lat": 11.32,
        "long": 9.91,
        "elev ft": 1669,
        "pop est": 18280
    },
    {
        "name": "Dorai",
        "what": "city",
        "region": "Jigawa",
        "country": "Nigeria",
        "lat": 12.41,
        "long": 8.87,
        "elev ft": 1669,
        "pop est": 15411
    },
    {
        "name": "Dorawa",
        "what": "city",
        "region": "Jigawa",
        "country": "Nigeria",
        "lat": 12.51,
        "long": 8.83,
        "elev ft": 1207,
        "pop est": 19221
    },
    {
        "name": "Dorawa",
        "what": "city",
        "region": "Jigawa",
        "country": "Nigeria",
        "lat": 12.58,
        "long": 8.94,
        "elev ft": 1669,
        "pop est": 18988
    },
    {
        "name": "Dorayi",
        "what": "city",
        "region": "Jigawa",
        "country": "Nigeria",
        "lat": 12.6,
        "long": 8.96,
        "elev ft": 1249,
        "pop est": 19025
    },
    {
        "name": "Dorowa",
        "what": "city",
        "region": "Jigawa",
        "country": "Nigeria",
        "lat": 12.51,
        "long": 8.83,
        "elev ft": 1207,
        "pop est": 19221
    },
    {
        "name": "Duduri",
        "what": "city",
        "region": "Jigawa",
        "country": "Nigeria",
        "lat": 12.75,
        "long": 9.78,
        "elev ft": 1174,
        "pop est": 11453
    },
    {
        "name": "Dudurun Farin Ruwa",
        "what": "city",
        "region": "Jigawa",
        "country": "Nigeria",
        "lat": 11.75,
        "long": 9.21,
        "elev ft": 1669,
        "pop est": 22045
    },
    {
        "name": "Dugun Masko",
        "what": "city",
        "region": "Jigawa",
        "country": "Nigeria",
        "lat": 11.95,
        "long": 9.73,
        "elev ft": 1230,
        "pop est": 24596
    },
    {
        "name": "Duhuwa",
        "what": "city",
        "region": "Jigawa",
        "country": "Nigeria",
        "lat": 11.74,
        "long": 9.46,
        "elev ft": 1669,
        "pop est": 19263
    },
    {
        "name": "Duhuwa",
        "what": "city",
        "region": "Jigawa",
        "country": "Nigeria",
        "lat": 12.4,
        "long": 9.22,
        "elev ft": 1207,
        "pop est": 13090
    },
    {
        "name": "Duhuwar Tumbi",
        "what": "city",
        "region": "Jigawa",
        "country": "Nigeria",
        "lat": 12.38,
        "long": 9.11,
        "elev ft": 1233,
        "pop est": 12814
    },
    {
        "name": "Duja",
        "what": "city",
        "region": "Jigawa",
        "country": "Nigeria",
        "lat": 12.11,
        "long": 9.54,
        "elev ft": 1236,
        "pop est": 25612
    },
    {
        "name": "Dukawa",
        "what": "city",
        "region": "Jigawa",
        "country": "Nigeria",
        "lat": 12.58,
        "long": 8.62,
        "elev ft": 1669,
        "pop est": 23168
    },
    {
        "name": "Dukawa",
        "what": "city",
        "region": "Jigawa",
        "country": "Nigeria",
        "lat": 12.37,
        "long": 9.03,
        "elev ft": 1233,
        "pop est": 12826
    },
    {
        "name": "Dumbari",
        "what": "city",
        "region": "Jigawa",
        "country": "Nigeria",
        "lat": 12.53,
        "long": 9.79,
        "elev ft": 1171,
        "pop est": 16392
    },
    {
        "name": "Dummadummi Kyaure",
        "what": "city",
        "region": "Jigawa",
        "country": "Nigeria",
        "lat": 12.0,
        "long": 9.84,
        "elev ft": 1236,
        "pop est": 19729
    },
    {
        "name": "Dummadummi Toka",
        "what": "city",
        "region": "Jigawa",
        "country": "Nigeria",
        "lat": 12.09,
        "long": 9.89,
        "elev ft": 1230,
        "pop est": 18327
    },
    {
        "name": "Dumou",
        "what": "city",
        "region": "Jigawa",
        "country": "Nigeria",
        "lat": 12.33,
        "long": 8.95,
        "elev ft": 1669,
        "pop est": 14030
    },
    {
        "name": "Dumumi",
        "what": "city",
        "region": "Jigawa",
        "country": "Nigeria",
        "lat": 12.33,
        "long": 9.87,
        "elev ft": 1200,
        "pop est": 18749
    },
    {
        "name": "Dumus",
        "what": "city",
        "region": "Jigawa",
        "country": "Nigeria",
        "lat": 11.52,
        "long": 9.43,
        "elev ft": 1669,
        "pop est": 16825
    },
    {
        "name": "Duna",
        "what": "city",
        "region": "Jigawa",
        "country": "Nigeria",
        "lat": 12.78,
        "long": 8.99,
        "elev ft": 1236,
        "pop est": 19828
    },
    {
        "name": "Dunari",
        "what": "city",
        "region": "Jigawa",
        "country": "Nigeria",
        "lat": 12.56,
        "long": 9.88,
        "elev ft": 1131,
        "pop est": 25009
    },
    {
        "name": "Dunbu",
        "what": "city",
        "region": "Jigawa",
        "country": "Nigeria",
        "lat": 12.67,
        "long": 8.58,
        "elev ft": 1669,
        "pop est": 30445
    },
    {
        "name": "Dunguyawa",
        "what": "city",
        "region": "Jigawa",
        "country": "Nigeria",
        "lat": 12.67,
        "long": 8.61,
        "elev ft": 1669,
        "pop est": 28273
    },
    {
        "name": "Dunguzu",
        "what": "city",
        "region": "Jigawa",
        "country": "Nigeria",
        "lat": 12.46,
        "long": 8.94,
        "elev ft": 1249,
        "pop est": 13696
    },
    {
        "name": "Dunmugen",
        "what": "city",
        "region": "Jigawa",
        "country": "Nigeria",
        "lat": 12.51,
        "long": 8.91,
        "elev ft": 1236,
        "pop est": 17054
    },
    {
        "name": "Durbe",
        "what": "city",
        "region": "Jigawa",
        "country": "Nigeria",
        "lat": 12.81,
        "long": 8.46,
        "elev ft": 1669,
        "pop est": 27727
    },
    {
        "name": "Duru",
        "what": "city",
        "region": "Jigawa",
        "country": "Nigeria",
        "lat": 11.85,
        "long": 9.26,
        "elev ft": 1669,
        "pop est": 22089
    },
    {
        "name": "Dutse",
        "what": "city",
        "region": "Jigawa",
        "country": "Nigeria",
        "lat": 11.76,
        "long": 9.34,
        "elev ft": 1712,
        "pop est": 21903
    },
    {
        "name": "Dutsen Fusam",
        "what": "city",
        "region": "Jigawa",
        "country": "Nigeria",
        "lat": 11.94,
        "long": 9.87,
        "elev ft": 1669,
        "pop est": 18716
    },
    {
        "name": "Dutsi",
        "what": "city",
        "region": "Jigawa",
        "country": "Nigeria",
        "lat": 11.76,
        "long": 9.34,
        "elev ft": 1712,
        "pop est": 21903
    },
    {
        "name": "Dutsin Fanda Forest Reserve",
        "what": "city",
        "region": "Jigawa",
        "country": "Nigeria",
        "lat": 12.69,
        "long": 8.44,
        "elev ft": 1669,
        "pop est": 30545
    },
    {
        "name": "Dutsin Fusam",
        "what": "city",
        "region": "Jigawa",
        "country": "Nigeria",
        "lat": 11.94,
        "long": 9.87,
        "elev ft": 1669,
        "pop est": 18716
    },
    {
        "name": "Dutsin Kiye Forest Reserve",
        "what": "city",
        "region": "Jigawa",
        "country": "Nigeria",
        "lat": 12.72,
        "long": 8.47,
        "elev ft": 1669,
        "pop est": 30545
    },
    {
        "name": "Duzan",
        "what": "city",
        "region": "Jigawa",
        "country": "Nigeria",
        "lat": 12.48,
        "long": 8.78,
        "elev ft": 1669,
        "pop est": 19221
    },
    {
        "name": "Duzau",
        "what": "city",
        "region": "Jigawa",
        "country": "Nigeria",
        "lat": 12.48,
        "long": 8.78,
        "elev ft": 1669,
        "pop est": 19221
    },
    {
        "name": "D\u2019 Makeri",
        "what": "city",
        "region": "Jigawa",
        "country": "Nigeria",
        "lat": 12.83,
        "long": 9.02,
        "elev ft": 1197,
        "pop est": 15570
    },
    {
        "name": "Fachawa",
        "what": "city",
        "region": "Jigawa",
        "country": "Nigeria",
        "lat": 12.22,
        "long": 9.16,
        "elev ft": 1236,
        "pop est": 21754
    },
    {
        "name": "Fadikabara",
        "what": "city",
        "region": "Jigawa",
        "country": "Nigeria",
        "lat": 12.41,
        "long": 8.96,
        "elev ft": 1187,
        "pop est": 12814
    },
    {
        "name": "Fagan Kawo",
        "what": "city",
        "region": "Jigawa",
        "country": "Nigeria",
        "lat": 12.39,
        "long": 9.35,
        "elev ft": 1200,
        "pop est": 16090
    },
    {
        "name": "Fagen Kawo",
        "what": "city",
        "region": "Jigawa",
        "country": "Nigeria",
        "lat": 12.39,
        "long": 9.35,
        "elev ft": 1200,
        "pop est": 16090
    },
    {
        "name": "Fagi",
        "what": "city",
        "region": "Jigawa",
        "country": "Nigeria",
        "lat": 12.76,
        "long": 10.2,
        "elev ft": 1118,
        "pop est": 12069
    },
    {
        "name": "Faifaiku",
        "what": "city",
        "region": "Jigawa",
        "country": "Nigeria",
        "lat": 12.66,
        "long": 8.24,
        "elev ft": 1669,
        "pop est": 21605
    },
    {
        "name": "Fake",
        "what": "city",
        "region": "Jigawa",
        "country": "Nigeria",
        "lat": 11.75,
        "long": 9.54,
        "elev ft": 1669,
        "pop est": 18924
    },
    {
        "name": "Falangori",
        "what": "city",
        "region": "Jigawa",
        "country": "Nigeria",
        "lat": 11.55,
        "long": 9.69,
        "elev ft": 1669,
        "pop est": 15943
    },
    {
        "name": "Falomi",
        "what": "city",
        "region": "Jigawa",
        "country": "Nigeria",
        "lat": 12.52,
        "long": 9.35,
        "elev ft": 1184,
        "pop est": 23748
    },
    {
        "name": "Fankami",
        "what": "city",
        "region": "Jigawa",
        "country": "Nigeria",
        "lat": 12.44,
        "long": 9.23,
        "elev ft": 1204,
        "pop est": 16270
    },
    {
        "name": "Faratukwane",
        "what": "city",
        "region": "Jigawa",
        "country": "Nigeria",
        "lat": 12.66,
        "long": 8.3,
        "elev ft": 1669,
        "pop est": 21626
    },
    {
        "name": "Farena",
        "what": "city",
        "region": "Jigawa",
        "country": "Nigeria",
        "lat": 12.47,
        "long": 9.33,
        "elev ft": 1200,
        "pop est": 20115
    },
    {
        "name": "Farin Dutse",
        "what": "city",
        "region": "Jigawa",
        "country": "Nigeria",
        "lat": 11.19,
        "long": 9.91,
        "elev ft": 1669,
        "pop est": 17543
    },
    {
        "name": "Farin Dutsi",
        "what": "city",
        "region": "Jigawa",
        "country": "Nigeria",
        "lat": 11.19,
        "long": 9.91,
        "elev ft": 1669,
        "pop est": 17543
    },
    {
        "name": "Farin Dutsi",
        "what": "city",
        "region": "Jigawa",
        "country": "Nigeria",
        "lat": 11.19,
        "long": 9.91,
        "elev ft": 1669,
        "pop est": 17543
    },
    {
        "name": "Figi",
        "what": "city",
        "region": "Jigawa",
        "country": "Nigeria",
        "lat": 12.55,
        "long": 8.81,
        "elev ft": 1669,
        "pop est": 19221
    },
    {
        "name": "Filla",
        "what": "city",
        "region": "Jigawa",
        "country": "Nigeria",
        "lat": 12.66,
        "long": 8.58,
        "elev ft": 1669,
        "pop est": 29824
    },
    {
        "name": "Fitare",
        "what": "city",
        "region": "Jigawa",
        "country": "Nigeria",
        "lat": 12.65,
        "long": 8.38,
        "elev ft": 1669,
        "pop est": 25322
    },
    {
        "name": "Fusam",
        "what": "city",
        "region": "Jigawa",
        "country": "Nigeria",
        "lat": 11.94,
        "long": 9.87,
        "elev ft": 1669,
        "pop est": 18716
    },
    {
        "name": "Gabargal",
        "what": "city",
        "region": "Jigawa",
        "country": "Nigeria",
        "lat": 12.75,
        "long": 10.52,
        "elev ft": 1017,
        "pop est": 16825
    },
    {
        "name": "Gabari",
        "what": "city",
        "region": "Jigawa",
        "country": "Nigeria",
        "lat": 12.61,
        "long": 8.61,
        "elev ft": 1669,
        "pop est": 24552
    },
    {
        "name": "Gabarun",
        "what": "city",
        "region": "Jigawa",
        "country": "Nigeria",
        "lat": 12.1,
        "long": 9.16,
        "elev ft": 1230,
        "pop est": 21773
    },
    {
        "name": "Gabbas Mari",
        "what": "city",
        "region": "Jigawa",
        "country": "Nigeria",
        "lat": 12.84,
        "long": 10.21,
        "elev ft": 1105,
        "pop est": 7055
    },
    {
        "name": "Gadala",
        "what": "city",
        "region": "Jigawa",
        "country": "Nigeria",
        "lat": 11.29,
        "long": 9.92,
        "elev ft": 1669,
        "pop est": 18219
    },
    {
        "name": "Gadda",
        "what": "city",
        "region": "Jigawa",
        "country": "Nigeria",
        "lat": 12.14,
        "long": 9.75,
        "elev ft": 1210,
        "pop est": 25628
    },
    {
        "name": "Gadua",
        "what": "city",
        "region": "Jigawa",
        "country": "Nigeria",
        "lat": 12.51,
        "long": 10.51,
        "elev ft": 1026,
        "pop est": 18115
    },
    {
        "name": "Gafia",
        "what": "city",
        "region": "Jigawa",
        "country": "Nigeria",
        "lat": 12.09,
        "long": 9.91,
        "elev ft": 1200,
        "pop est": 18327
    },
    {
        "name": "Gagarawa",
        "what": "city",
        "region": "Jigawa",
        "country": "Nigeria",
        "lat": 12.62,
        "long": 8.84,
        "elev ft": 1184,
        "pop est": 19584
    },
    {
        "name": "Gagarawa",
        "what": "city",
        "region": "Jigawa",
        "country": "Nigeria",
        "lat": 12.41,
        "long": 9.53,
        "elev ft": 1181,
        "pop est": 59749
    },
    {
        "name": "Gaja",
        "what": "city",
        "region": "Jigawa",
        "country": "Nigeria",
        "lat": 12.65,
        "long": 8.3,
        "elev ft": 1669,
        "pop est": 21605
    },
    {
        "name": "Galadi",
        "what": "city",
        "region": "Jigawa",
        "country": "Nigeria",
        "lat": 12.78,
        "long": 9.59,
        "elev ft": 1177,
        "pop est": 12421
    },
    {
        "name": "Galbamori",
        "what": "city",
        "region": "Jigawa",
        "country": "Nigeria",
        "lat": 11.66,
        "long": 9.76,
        "elev ft": 1669,
        "pop est": 16143
    },
    {
        "name": "Galdimari",
        "what": "city",
        "region": "Jigawa",
        "country": "Nigeria",
        "lat": 12.36,
        "long": 10.16,
        "elev ft": 1115,
        "pop est": 14208
    },
    {
        "name": "Galoru",
        "what": "city",
        "region": "Jigawa",
        "country": "Nigeria",
        "lat": 12.59,
        "long": 8.46,
        "elev ft": 1669,
        "pop est": 27962
    },
    {
        "name": "Gambara",
        "what": "city",
        "region": "Jigawa",
        "country": "Nigeria",
        "lat": 11.83,
        "long": 9.69,
        "elev ft": 1669,
        "pop est": 18462
    },
    {
        "name": "Gambara",
        "what": "city",
        "region": "Jigawa",
        "country": "Nigeria",
        "lat": 11.55,
        "long": 9.49,
        "elev ft": 1669,
        "pop est": 15945
    },
    {
        "name": "Gambo",
        "what": "city",
        "region": "Jigawa",
        "country": "Nigeria",
        "lat": 11.96,
        "long": 9.63,
        "elev ft": 1669,
        "pop est": 23959
    },
    {
        "name": "Gamji",
        "what": "city",
        "region": "Jigawa",
        "country": "Nigeria",
        "lat": 12.58,
        "long": 9.47,
        "elev ft": 1167,
        "pop est": 50156
    },
    {
        "name": "Gamji",
        "what": "city",
        "region": "Jigawa",
        "country": "Nigeria",
        "lat": 12.77,
        "long": 8.31,
        "elev ft": 1669,
        "pop est": 22944
    },
    {
        "name": "Gammayim",
        "what": "city",
        "region": "Jigawa",
        "country": "Nigeria",
        "lat": 12.29,
        "long": 10.07,
        "elev ft": 1154,
        "pop est": 16216
    },
    {
        "name": "Gan Dutsi",
        "what": "city",
        "region": "Jigawa",
        "country": "Nigeria",
        "lat": 12.61,
        "long": 8.57,
        "elev ft": 1669,
        "pop est": 28979
    },
    {
        "name": "Gana",
        "what": "city",
        "region": "Jigawa",
        "country": "Nigeria",
        "lat": 12.41,
        "long": 8.8,
        "elev ft": 1240,
        "pop est": 20668
    },
    {
        "name": "Ganau",
        "what": "city",
        "region": "Jigawa",
        "country": "Nigeria",
        "lat": 12.28,
        "long": 9.77,
        "elev ft": 1194,
        "pop est": 18399
    },
    {
        "name": "Gandu",
        "what": "city",
        "region": "Jigawa",
        "country": "Nigeria",
        "lat": 12.42,
        "long": 10.02,
        "elev ft": 1128,
        "pop est": 128403
    },
    {
        "name": "Gandu",
        "what": "city",
        "region": "Jigawa",
        "country": "Nigeria",
        "lat": 12.45,
        "long": 10.1,
        "elev ft": 1095,
        "pop est": 99351
    },
    {
        "name": "Gangara",
        "what": "city",
        "region": "Jigawa",
        "country": "Nigeria",
        "lat": 12.64,
        "long": 9.53,
        "elev ft": 1154,
        "pop est": 20115
    },
    {
        "name": "Gangara",
        "what": "city",
        "region": "Jigawa",
        "country": "Nigeria",
        "lat": 12.36,
        "long": 8.98,
        "elev ft": 1669,
        "pop est": 12876
    },
    {
        "name": "Gangara",
        "what": "city",
        "region": "Jigawa",
        "country": "Nigeria",
        "lat": 12.55,
        "long": 8.72,
        "elev ft": 1669,
        "pop est": 21448
    },
    {
        "name": "Gangawa",
        "what": "city",
        "region": "Jigawa",
        "country": "Nigeria",
        "lat": 11.99,
        "long": 9.71,
        "elev ft": 1669,
        "pop est": 25628
    },
    {
        "name": "Gantsa",
        "what": "city",
        "region": "Jigawa",
        "country": "Nigeria",
        "lat": 11.66,
        "long": 9.73,
        "elev ft": 1669,
        "pop est": 16071
    },
    {
        "name": "Garadu",
        "what": "city",
        "region": "Jigawa",
        "country": "Nigeria",
        "lat": 12.16,
        "long": 9.59,
        "elev ft": 1217,
        "pop est": 24929
    },
    {
        "name": "Garajani",
        "what": "city",
        "region": "Jigawa",
        "country": "Nigeria",
        "lat": 11.1,
        "long": 9.94,
        "elev ft": 1669,
        "pop est": 17365
    },
    {
        "name": "Garan Hasan",
        "what": "city",
        "region": "Jigawa",
        "country": "Nigeria",
        "lat": 12.72,
        "long": 9.71,
        "elev ft": 1167,
        "pop est": 19832
    },
    {
        "name": "Garanda",
        "what": "city",
        "region": "Jigawa",
        "country": "Nigeria",
        "lat": 13.01,
        "long": 10.23,
        "elev ft": 1131,
        "pop est": 7116
    },
    {
        "name": "Garangari",
        "what": "city",
        "region": "Jigawa",
        "country": "Nigeria",
        "lat": 12.48,
        "long": 9.69,
        "elev ft": 1158,
        "pop est": 25900
    },
    {
        "name": "Garbo",
        "what": "city",
        "region": "Jigawa",
        "country": "Nigeria",
        "lat": 12.17,
        "long": 9.76,
        "elev ft": 1207,
        "pop est": 25628
    },
    {
        "name": "Gargada",
        "what": "city",
        "region": "Jigawa",
        "country": "Nigeria",
        "lat": 11.47,
        "long": 9.62,
        "elev ft": 1669,
        "pop est": 15943
    },
    {
        "name": "Gargadi",
        "what": "city",
        "region": "Jigawa",
        "country": "Nigeria",
        "lat": 11.47,
        "long": 9.62,
        "elev ft": 1669,
        "pop est": 15943
    },
    {
        "name": "Gargaraw",
        "what": "city",
        "region": "Jigawa",
        "country": "Nigeria",
        "lat": 12.41,
        "long": 9.53,
        "elev ft": 1181,
        "pop est": 59749
    },
    {
        "name": "Gargarawa",
        "what": "city",
        "region": "Jigawa",
        "country": "Nigeria",
        "lat": 12.41,
        "long": 9.53,
        "elev ft": 1181,
        "pop est": 59749
    },
    {
        "name": "Garin Chine",
        "what": "city",
        "region": "Jigawa",
        "country": "Nigeria",
        "lat": 12.79,
        "long": 8.98,
        "elev ft": 1174,
        "pop est": 19465
    },
    {
        "name": "Garin Dawa",
        "what": "city",
        "region": "Jigawa",
        "country": "Nigeria",
        "lat": 12.22,
        "long": 8.99,
        "elev ft": 1669,
        "pop est": 24652
    },
    {
        "name": "Garin Gano",
        "what": "city",
        "region": "Jigawa",
        "country": "Nigeria",
        "lat": 12.72,
        "long": 8.99,
        "elev ft": 1249,
        "pop est": 19267
    },
    {
        "name": "Garin Gona",
        "what": "city",
        "region": "Jigawa",
        "country": "Nigeria",
        "lat": 12.21,
        "long": 8.97,
        "elev ft": 1669,
        "pop est": 26885
    },
    {
        "name": "Garin Hasan",
        "what": "city",
        "region": "Jigawa",
        "country": "Nigeria",
        "lat": 12.72,
        "long": 9.71,
        "elev ft": 1167,
        "pop est": 19832
    },
    {
        "name": "Garingudinia",
        "what": "city",
        "region": "Jigawa",
        "country": "Nigeria",
        "lat": 12.58,
        "long": 8.75,
        "elev ft": 1669,
        "pop est": 19631
    },
    {
        "name": "Garki",
        "what": "city",
        "region": "Jigawa",
        "country": "Nigeria",
        "lat": 12.43,
        "long": 9.19,
        "elev ft": 1207,
        "pop est": 13282
    },
    {
        "name": "Garmakwa",
        "what": "city",
        "region": "Jigawa",
        "country": "Nigeria",
        "lat": 12.7,
        "long": 10.5,
        "elev ft": 1040,
        "pop est": 18178
    },
    {
        "name": "Garmakwa Yamma",
        "what": "city",
        "region": "Jigawa",
        "country": "Nigeria",
        "lat": 12.7,
        "long": 10.5,
        "elev ft": 1040,
        "pop est": 18178
    },
    {
        "name": "Garnia",
        "what": "city",
        "region": "Jigawa",
        "country": "Nigeria",
        "lat": 12.17,
        "long": 9.79,
        "elev ft": 1187,
        "pop est": 25564
    },
    {
        "name": "Gartawa",
        "what": "city",
        "region": "Jigawa",
        "country": "Nigeria",
        "lat": 11.52,
        "long": 9.51,
        "elev ft": 1669,
        "pop est": 15943
    },
    {
        "name": "Garu",
        "what": "city",
        "region": "Jigawa",
        "country": "Nigeria",
        "lat": 12.58,
        "long": 8.75,
        "elev ft": 1669,
        "pop est": 19631
    },
    {
        "name": "Garun Abaya",
        "what": "city",
        "region": "Jigawa",
        "country": "Nigeria",
        "lat": 11.92,
        "long": 9.39,
        "elev ft": 1669,
        "pop est": 22106
    },
    {
        "name": "Garun Gabas",
        "what": "city",
        "region": "Jigawa",
        "country": "Nigeria",
        "lat": 12.61,
        "long": 10.06,
        "elev ft": 1108,
        "pop est": 27549
    },
    {
        "name": "Garun Gabbas",
        "what": "city",
        "region": "Jigawa",
        "country": "Nigeria",
        "lat": 12.61,
        "long": 10.06,
        "elev ft": 1108,
        "pop est": 27549
    },
    {
        "name": "Gasakole",
        "what": "city",
        "region": "Jigawa",
        "country": "Nigeria",
        "lat": 12.13,
        "long": 9.0,
        "elev ft": 1669,
        "pop est": 24222
    },
    {
        "name": "Gasakole",
        "what": "city",
        "region": "Jigawa",
        "country": "Nigeria",
        "lat": 12.47,
        "long": 8.71,
        "elev ft": 1240,
        "pop est": 23662
    },
    {
        "name": "Gassanye",
        "what": "city",
        "region": "Jigawa",
        "country": "Nigeria",
        "lat": 12.29,
        "long": 9.91,
        "elev ft": 1200,
        "pop est": 14562
    },
    {
        "name": "Gauraye",
        "what": "city",
        "region": "Jigawa",
        "country": "Nigeria",
        "lat": 12.71,
        "long": 8.35,
        "elev ft": 1669,
        "pop est": 24052
    },
    {
        "name": "Gauza",
        "what": "city",
        "region": "Jigawa",
        "country": "Nigeria",
        "lat": 12.1,
        "long": 9.74,
        "elev ft": 1197,
        "pop est": 25628
    },
    {
        "name": "Gazoji",
        "what": "city",
        "region": "Jigawa",
        "country": "Nigeria",
        "lat": 12.64,
        "long": 8.46,
        "elev ft": 1669,
        "pop est": 30332
    },
    {
        "name": "Gerawa",
        "what": "city",
        "region": "Jigawa",
        "country": "Nigeria",
        "lat": 12.14,
        "long": 9.08,
        "elev ft": 1669,
        "pop est": 21754
    },
    {
        "name": "Gezoji",
        "what": "city",
        "region": "Jigawa",
        "country": "Nigeria",
        "lat": 12.64,
        "long": 8.46,
        "elev ft": 1669,
        "pop est": 30332
    },
    {
        "name": "Gidan Baki",
        "what": "city",
        "region": "Jigawa",
        "country": "Nigeria",
        "lat": 12.36,
        "long": 9.22,
        "elev ft": 1207,
        "pop est": 13088
    },
    {
        "name": "Gidan Butai",
        "what": "city",
        "region": "Jigawa",
        "country": "Nigeria",
        "lat": 12.27,
        "long": 9.92,
        "elev ft": 1148,
        "pop est": 13654
    },
    {
        "name": "Gidan Dawa",
        "what": "city",
        "region": "Jigawa",
        "country": "Nigeria",
        "lat": 12.56,
        "long": 8.4,
        "elev ft": 1669,
        "pop est": 21923
    },
    {
        "name": "Gidan Dawa",
        "what": "city",
        "region": "Jigawa",
        "country": "Nigeria",
        "lat": 12.41,
        "long": 8.8,
        "elev ft": 1669,
        "pop est": 21335
    },
    {
        "name": "Gidan Dunu",
        "what": "city",
        "region": "Jigawa",
        "country": "Nigeria",
        "lat": 12.57,
        "long": 8.94,
        "elev ft": 1669,
        "pop est": 18637
    },
    {
        "name": "Gidan Gandu",
        "what": "city",
        "region": "Jigawa",
        "country": "Nigeria",
        "lat": 12.42,
        "long": 10.02,
        "elev ft": 1128,
        "pop est": 128403
    },
    {
        "name": "Gidan Gashi",
        "what": "city",
        "region": "Jigawa",
        "country": "Nigeria",
        "lat": 12.33,
        "long": 9.22,
        "elev ft": 1217,
        "pop est": 14683
    },
    {
        "name": "Gidan Kanawa",
        "what": "city",
        "region": "Jigawa",
        "country": "Nigeria",
        "lat": 12.53,
        "long": 8.89,
        "elev ft": 1669,
        "pop est": 18619
    },
    {
        "name": "Gidan Kili",
        "what": "city",
        "region": "Jigawa",
        "country": "Nigeria",
        "lat": 12.51,
        "long": 8.94,
        "elev ft": 1243,
        "pop est": 15062
    },
    {
        "name": "Gidan Lege",
        "what": "city",
        "region": "Jigawa",
        "country": "Nigeria",
        "lat": 12.27,
        "long": 8.98,
        "elev ft": 1669,
        "pop est": 21063
    },
    {
        "name": "Gidan Mahabi",
        "what": "city",
        "region": "Jigawa",
        "country": "Nigeria",
        "lat": 12.2,
        "long": 9.63,
        "elev ft": 1210,
        "pop est": 24719
    },
    {
        "name": "Gidan Maja",
        "what": "city",
        "region": "Jigawa",
        "country": "Nigeria",
        "lat": 12.57,
        "long": 8.96,
        "elev ft": 1253,
        "pop est": 17823
    },
    {
        "name": "Gidan Maza",
        "what": "city",
        "region": "Jigawa",
        "country": "Nigeria",
        "lat": 12.35,
        "long": 9.31,
        "elev ft": 1220,
        "pop est": 13807
    },
    {
        "name": "Gidan Maza",
        "what": "city",
        "region": "Jigawa",
        "country": "Nigeria",
        "lat": 12.19,
        "long": 9.19,
        "elev ft": 1253,
        "pop est": 21754
    },
    {
        "name": "Gidan Meda",
        "what": "city",
        "region": "Jigawa",
        "country": "Nigeria",
        "lat": 12.59,
        "long": 8.91,
        "elev ft": 1249,
        "pop est": 19221
    },
    {
        "name": "Gidan Sabuwa",
        "what": "city",
        "region": "Jigawa",
        "country": "Nigeria",
        "lat": 12.73,
        "long": 8.59,
        "elev ft": 1669,
        "pop est": 27655
    },
    {
        "name": "Gidan Tohuwa",
        "what": "city",
        "region": "Jigawa",
        "country": "Nigeria",
        "lat": 12.21,
        "long": 9.66,
        "elev ft": 1174,
        "pop est": 25339
    },
    {
        "name": "Gidanibra",
        "what": "city",
        "region": "Jigawa",
        "country": "Nigeria",
        "lat": 12.61,
        "long": 8.88,
        "elev ft": 1253,
        "pop est": 19307
    },
    {
        "name": "Giginya",
        "what": "city",
        "region": "Jigawa",
        "country": "Nigeria",
        "lat": 12.65,
        "long": 8.89,
        "elev ft": 1230,
        "pop est": 19787
    },
    {
        "name": "Giginya Bakwai",
        "what": "city",
        "region": "Jigawa",
        "country": "Nigeria",
        "lat": 11.63,
        "long": 9.67,
        "elev ft": 1243,
        "pop est": 15943
    },
    {
        "name": "Gigiyan",
        "what": "city",
        "region": "Jigawa",
        "country": "Nigeria",
        "lat": 12.65,
        "long": 8.89,
        "elev ft": 1230,
        "pop est": 19787
    },
    {
        "name": "Gilima",
        "what": "city",
        "region": "Jigawa",
        "country": "Nigeria",
        "lat": 12.22,
        "long": 9.44,
        "elev ft": 1213,
        "pop est": 21770
    },
    {
        "name": "Gingido",
        "what": "city",
        "region": "Jigawa",
        "country": "Nigeria",
        "lat": 11.17,
        "long": 10.12,
        "elev ft": 1669,
        "pop est": 18029
    },
    {
        "name": "Girari",
        "what": "city",
        "region": "Jigawa",
        "country": "Nigeria",
        "lat": 12.76,
        "long": 9.64,
        "elev ft": 1167,
        "pop est": 13533
    },
    {
        "name": "Girdo",
        "what": "city",
        "region": "Jigawa",
        "country": "Nigeria",
        "lat": 12.52,
        "long": 8.86,
        "elev ft": 1253,
        "pop est": 19196
    },
    {
        "name": "Giya",
        "what": "city",
        "region": "Jigawa",
        "country": "Nigeria",
        "lat": 12.35,
        "long": 9.2,
        "elev ft": 1220,
        "pop est": 13230
    },
    {
        "name": "Gizo Baladi",
        "what": "city",
        "region": "Jigawa",
        "country": "Nigeria",
        "lat": 12.7,
        "long": 8.52,
        "elev ft": 1669,
        "pop est": 30545
    },
    {
        "name": "Gizo Haba",
        "what": "city",
        "region": "Jigawa",
        "country": "Nigeria",
        "lat": 12.71,
        "long": 8.53,
        "elev ft": 1669,
        "pop est": 30545
    },
    {
        "name": "Godawal",
        "what": "city",
        "region": "Jigawa",
        "country": "Nigeria",
        "lat": 12.27,
        "long": 10.2,
        "elev ft": 1122,
        "pop est": 17380
    },
    {
        "name": "Gofaro",
        "what": "city",
        "region": "Jigawa",
        "country": "Nigeria",
        "lat": 12.46,
        "long": 8.96,
        "elev ft": 1246,
        "pop est": 13049
    },
    {
        "name": "Gogiya",
        "what": "city",
        "region": "Jigawa",
        "country": "Nigeria",
        "lat": 12.67,
        "long": 10.41,
        "elev ft": 1049,
        "pop est": 18178
    },
    {
        "name": "Gogwaro",
        "what": "city",
        "region": "Jigawa",
        "country": "Nigeria",
        "lat": 12.24,
        "long": 9.17,
        "elev ft": 1240,
        "pop est": 21754
    },
    {
        "name": "Gojalawa",
        "what": "city",
        "region": "Jigawa",
        "country": "Nigeria",
        "lat": 11.4,
        "long": 9.74,
        "elev ft": 1669,
        "pop est": 17388
    },
    {
        "name": "Goje",
        "what": "city",
        "region": "Jigawa",
        "country": "Nigeria",
        "lat": 12.68,
        "long": 8.51,
        "elev ft": 1669,
        "pop est": 30545
    },
    {
        "name": "Gontai",
        "what": "city",
        "region": "Jigawa",
        "country": "Nigeria",
        "lat": 12.75,
        "long": 8.37,
        "elev ft": 1669,
        "pop est": 24936
    },
    {
        "name": "Gora",
        "what": "city",
        "region": "Jigawa",
        "country": "Nigeria",
        "lat": 12.19,
        "long": 9.78,
        "elev ft": 1177,
        "pop est": 25578
    },
    {
        "name": "Gorewa",
        "what": "city",
        "region": "Jigawa",
        "country": "Nigeria",
        "lat": 12.78,
        "long": 9.52,
        "elev ft": 1161,
        "pop est": 14858
    },
    {
        "name": "Gorima",
        "what": "city",
        "region": "Jigawa",
        "country": "Nigeria",
        "lat": 11.91,
        "long": 9.48,
        "elev ft": 1669,
        "pop est": 23868
    },
    {
        "name": "Gragaia",
        "what": "city",
        "region": "Jigawa",
        "country": "Nigeria",
        "lat": 12.04,
        "long": 9.96,
        "elev ft": 1223,
        "pop est": 18327
    },
    {
        "name": "Guduba",
        "what": "city",
        "region": "Jigawa",
        "country": "Nigeria",
        "lat": 11.45,
        "long": 9.65,
        "elev ft": 1669,
        "pop est": 15943
    },
    {
        "name": "Guidan Gandu",
        "what": "city",
        "region": "Jigawa",
        "country": "Nigeria",
        "lat": 12.42,
        "long": 10.02,
        "elev ft": 1128,
        "pop est": 128403
    },
    {
        "name": "Gujungu",
        "what": "city",
        "region": "Jigawa",
        "country": "Nigeria",
        "lat": 12.36,
        "long": 9.58,
        "elev ft": 1167,
        "pop est": 48342
    },
    {
        "name": "Gululu",
        "what": "city",
        "region": "Jigawa",
        "country": "Nigeria",
        "lat": 12.19,
        "long": 9.58,
        "elev ft": 1227,
        "pop est": 23964
    },
    {
        "name": "Gumel",
        "what": "city",
        "region": "Jigawa",
        "country": "Nigeria",
        "lat": 12.63,
        "long": 9.39,
        "elev ft": 1181,
        "pop est": 49681
    },
    {
        "name": "Guna'a",
        "what": "city",
        "region": "Jigawa",
        "country": "Nigeria",
        "lat": 11.25,
        "long": 9.6,
        "elev ft": 1669,
        "pop est": 12284
    },
    {
        "name": "Guna'a",
        "what": "city",
        "region": "Jigawa",
        "country": "Nigeria",
        "lat": 11.22,
        "long": 9.69,
        "elev ft": 1669,
        "pop est": 13695
    },
    {
        "name": "Guna\u2019a",
        "what": "city",
        "region": "Jigawa",
        "country": "Nigeria",
        "lat": 11.25,
        "long": 9.6,
        "elev ft": 1669,
        "pop est": 12284
    },
    {
        "name": "Guna\u2019a",
        "what": "city",
        "region": "Jigawa",
        "country": "Nigeria",
        "lat": 11.22,
        "long": 9.69,
        "elev ft": 1669,
        "pop est": 13695
    },
    {
        "name": "Gunguama",
        "what": "city",
        "region": "Jigawa",
        "country": "Nigeria",
        "lat": 11.34,
        "long": 9.54,
        "elev ft": 1669,
        "pop est": 15907
    },
    {
        "name": "Gunjungu",
        "what": "city",
        "region": "Jigawa",
        "country": "Nigeria",
        "lat": 12.36,
        "long": 9.58,
        "elev ft": 1167,
        "pop est": 48342
    },
    {
        "name": "Gunka",
        "what": "city",
        "region": "Jigawa",
        "country": "Nigeria",
        "lat": 12.15,
        "long": 9.37,
        "elev ft": 1236,
        "pop est": 22178
    },
    {
        "name": "Guraji",
        "what": "city",
        "region": "Jigawa",
        "country": "Nigeria",
        "lat": 12.42,
        "long": 9.26,
        "elev ft": 1204,
        "pop est": 16108
    },
    {
        "name": "Gurduba",
        "what": "city",
        "region": "Jigawa",
        "country": "Nigeria",
        "lat": 11.75,
        "long": 9.42,
        "elev ft": 1669,
        "pop est": 20622
    },
    {
        "name": "Guri",
        "what": "city",
        "region": "Jigawa",
        "country": "Nigeria",
        "lat": 12.73,
        "long": 10.42,
        "elev ft": 1033,
        "pop est": 18065
    },
    {
        "name": "Gurifai",
        "what": "city",
        "region": "Jigawa",
        "country": "Nigeria",
        "lat": 12.68,
        "long": 8.99,
        "elev ft": 1194,
        "pop est": 18749
    },
    {
        "name": "Gurife",
        "what": "city",
        "region": "Jigawa",
        "country": "Nigeria",
        "lat": 12.68,
        "long": 8.99,
        "elev ft": 1194,
        "pop est": 18749
    },
    {
        "name": "Gurjia",
        "what": "city",
        "region": "Jigawa",
        "country": "Nigeria",
        "lat": 12.7,
        "long": 8.62,
        "elev ft": 1669,
        "pop est": 26597
    },
    {
        "name": "Gurmina",
        "what": "city",
        "region": "Jigawa",
        "country": "Nigeria",
        "lat": 11.41,
        "long": 9.47,
        "elev ft": 1669,
        "pop est": 15943
    },
    {
        "name": "Gurri",
        "what": "city",
        "region": "Jigawa",
        "country": "Nigeria",
        "lat": 12.73,
        "long": 10.42,
        "elev ft": 1033,
        "pop est": 18065
    },
    {
        "name": "Gurumfa",
        "what": "city",
        "region": "Jigawa",
        "country": "Nigeria",
        "lat": 12.66,
        "long": 8.62,
        "elev ft": 1669,
        "pop est": 26105
    },
    {
        "name": "Gutsula",
        "what": "city",
        "region": "Jigawa",
        "country": "Nigeria",
        "lat": 12.58,
        "long": 8.8,
        "elev ft": 1217,
        "pop est": 19222
    },
    {
        "name": "Guttu",
        "what": "city",
        "region": "Jigawa",
        "country": "Nigeria",
        "lat": 12.68,
        "long": 9.43,
        "elev ft": 1161,
        "pop est": 37182
    },
    {
        "name": "Gwadayawa",
        "what": "city",
        "region": "Jigawa",
        "country": "Nigeria",
        "lat": 12.43,
        "long": 9.1,
        "elev ft": 1223,
        "pop est": 12814
    },
    {
        "name": "Gwadayi",
        "what": "city",
        "region": "Jigawa",
        "country": "Nigeria",
        "lat": 11.58,
        "long": 9.77,
        "elev ft": 1669,
        "pop est": 15955
    },
    {
        "name": "Gwaraji",
        "what": "city",
        "region": "Jigawa",
        "country": "Nigeria",
        "lat": 11.83,
        "long": 9.59,
        "elev ft": 1669,
        "pop est": 18923
    },
    {
        "name": "Gwaram",
        "what": "city",
        "region": "Jigawa",
        "country": "Nigeria",
        "lat": 11.28,
        "long": 9.88,
        "elev ft": 1669,
        "pop est": 18052
    },
    {
        "name": "Gwarga",
        "what": "city",
        "region": "Jigawa",
        "country": "Nigeria",
        "lat": 12.97,
        "long": 10.15,
        "elev ft": 1115,
        "pop est": 11191
    },
    {
        "name": "Gwarta Karama",
        "what": "city",
        "region": "Jigawa",
        "country": "Nigeria",
        "lat": 12.81,
        "long": 8.52,
        "elev ft": 1669,
        "pop est": 26498
    },
    {
        "name": "Gwarzo",
        "what": "city",
        "region": "Jigawa",
        "country": "Nigeria",
        "lat": 12.34,
        "long": 8.84,
        "elev ft": 1669,
        "pop est": 14611
    },
    {
        "name": "Gwirta",
        "what": "city",
        "region": "Jigawa",
        "country": "Nigeria",
        "lat": 12.81,
        "long": 8.52,
        "elev ft": 1669,
        "pop est": 26498
    },
    {
        "name": "Gwiwa",
        "what": "city",
        "region": "Jigawa",
        "country": "Nigeria",
        "lat": 12.78,
        "long": 8.34,
        "elev ft": 1669,
        "pop est": 25784
    },
    {
        "name": "Gwolawa",
        "what": "city",
        "region": "Jigawa",
        "country": "Nigeria",
        "lat": 12.3,
        "long": 8.93,
        "elev ft": 1227,
        "pop est": 18656
    },
    {
        "name": "Gwungal",
        "what": "city",
        "region": "Jigawa",
        "country": "Nigeria",
        "lat": 11.59,
        "long": 9.81,
        "elev ft": 1669,
        "pop est": 17282
    },
    {
        "name": "Hada",
        "what": "city",
        "region": "Jigawa",
        "country": "Nigeria",
        "lat": 12.37,
        "long": 9.92,
        "elev ft": 1187,
        "pop est": 32181
    },
    {
        "name": "Haded\u017eija",
        "what": "city",
        "region": "Jigawa",
        "country": "Nigeria",
        "lat": 12.45,
        "long": 10.04,
        "elev ft": 1105,
        "pop est": 187835
    },
    {
        "name": "Hadejia",
        "what": "city",
        "region": "Jigawa",
        "country": "Nigeria",
        "lat": 12.45,
        "long": 10.04,
        "elev ft": 1105,
        "pop est": 187835
    },
    {
        "name": "Hadin",
        "what": "city",
        "region": "Jigawa",
        "country": "Nigeria",
        "lat": 12.34,
        "long": 9.84,
        "elev ft": 1145,
        "pop est": 17159
    },
    {
        "name": "Hago",
        "what": "city",
        "region": "Jigawa",
        "country": "Nigeria",
        "lat": 12.36,
        "long": 10.05,
        "elev ft": 1122,
        "pop est": 18939
    },
    {
        "name": "Haladawa",
        "what": "city",
        "region": "Jigawa",
        "country": "Nigeria",
        "lat": 12.5,
        "long": 8.89,
        "elev ft": 1249,
        "pop est": 17203
    },
    {
        "name": "Haleru",
        "what": "city",
        "region": "Jigawa",
        "country": "Nigeria",
        "lat": 12.55,
        "long": 8.82,
        "elev ft": 1669,
        "pop est": 19221
    },
    {
        "name": "Hambarawa",
        "what": "city",
        "region": "Jigawa",
        "country": "Nigeria",
        "lat": 12.18,
        "long": 9.12,
        "elev ft": 1256,
        "pop est": 21754
    },
    {
        "name": "Hambarawa",
        "what": "city",
        "region": "Jigawa",
        "country": "Nigeria",
        "lat": 11.34,
        "long": 9.58,
        "elev ft": 1669,
        "pop est": 15877
    },