[
    {
        "name": "Aba",
        "what": "city",
        "region": "Kaduna",
        "country": "Nigeria",
        "lat": 11.02,
        "long": 7.76,
        "elev ft": 1952,
        "pop est": 213985
    },
    {
        "name": "Aba",
        "what": "city",
        "region": "Kaduna",
        "country": "Nigeria",
        "lat": 10.99,
        "long": 7.72,
        "elev ft": 2509,
        "pop est": 164163
    },
    {
        "name": "Abadawa",
        "what": "city",
        "region": "Kaduna",
        "country": "Nigeria",
        "lat": 10.39,
        "long": 8.71,
        "elev ft": 2519,
        "pop est": 12665
    },
    {
        "name": "Abakpa",
        "what": "city",
        "region": "Kaduna",
        "country": "Nigeria",
        "lat": 10.55,
        "long": 7.42,
        "elev ft": 1932,
        "pop est": 469475
    },
    {
        "name": "Abama",
        "what": "city",
        "region": "Kaduna",
        "country": "Nigeria",
        "lat": 9.24,
        "long": 8.37,
        "elev ft": 1797,
        "pop est": 10132
    },
    {
        "name": "Abamo",
        "what": "city",
        "region": "Kaduna",
        "country": "Nigeria",
        "lat": 9.24,
        "long": 8.37,
        "elev ft": 1797,
        "pop est": 10132
    },
    {
        "name": "Abaro",
        "what": "city",
        "region": "Kaduna",
        "country": "Nigeria",
        "lat": 9.43,
        "long": 8.57,
        "elev ft": 1925,
        "pop est": 10796
    },
    {
        "name": "Abet",
        "what": "city",
        "region": "Kaduna",
        "country": "Nigeria",
        "lat": 9.69,
        "long": 8.18,
        "elev ft": 2509,
        "pop est": 8046
    },
    {
        "name": "Abobo",
        "what": "city",
        "region": "Kaduna",
        "country": "Nigeria",
        "lat": 9.81,
        "long": 8.28,
        "elev ft": 2509,
        "pop est": 8046
    },
    {
        "name": "Abobo",
        "what": "city",
        "region": "Kaduna",
        "country": "Nigeria",
        "lat": 9.83,
        "long": 8.28,
        "elev ft": 2529,
        "pop est": 8046
    },
    {
        "name": "Abrja",
        "what": "city",
        "region": "Kaduna",
        "country": "Nigeria",
        "lat": 9.08,
        "long": 8.18,
        "elev ft": 1669,
        "pop est": 9782
    },
    {
        "name": "Abrom",
        "what": "city",
        "region": "Kaduna",
        "country": "Nigeria",
        "lat": 9.91,
        "long": 7.86,
        "elev ft": 2509,
        "pop est": 5364
    },
    {
        "name": "Abu",
        "what": "city",
        "region": "Kaduna",
        "country": "Nigeria",
        "lat": 9.16,
        "long": 8.19,
        "elev ft": 1669,
        "pop est": 10132
    },
    {
        "name": "Abu",
        "what": "city",
        "region": "Kaduna",
        "country": "Nigeria",
        "lat": 9.06,
        "long": 8.55,
        "elev ft": 1669,
        "pop est": 10132
    },
    {
        "name": "Abu-Tsofo",
        "what": "city",
        "region": "Kaduna",
        "country": "Nigeria",
        "lat": 9.06,
        "long": 8.54,
        "elev ft": 1669,
        "pop est": 10132
    },
    {
        "name": "Achiaiki",
        "what": "city",
        "region": "Kaduna",
        "country": "Nigeria",
        "lat": 11.09,
        "long": 8.11,
        "elev ft": 2509,
        "pop est": 13396
    },
    {
        "name": "Adage",
        "what": "city",
        "region": "Kaduna",
        "country": "Nigeria",
        "lat": 9.85,
        "long": 7.99,
        "elev ft": 2522,
        "pop est": 6730
    },
    {
        "name": "Adage",
        "what": "city",
        "region": "Kaduna",
        "country": "Nigeria",
        "lat": 9.92,
        "long": 8.07,
        "elev ft": 2509,
        "pop est": 8046
    },
    {
        "name": "Aduan",
        "what": "city",
        "region": "Kaduna",
        "country": "Nigeria",
        "lat": 9.71,
        "long": 8.33,
        "elev ft": 2749,
        "pop est": 8043
    },
    {
        "name": "Aduan",
        "what": "city",
        "region": "Kaduna",
        "country": "Nigeria",
        "lat": 9.7,
        "long": 8.31,
        "elev ft": 2654,
        "pop est": 8041
    },
    {
        "name": "Adunga",
        "what": "city",
        "region": "Kaduna",
        "country": "Nigeria",
        "lat": 9.2,
        "long": 8.41,
        "elev ft": 1669,
        "pop est": 10132
    },
    {
        "name": "Adura",
        "what": "city",
        "region": "Kaduna",
        "country": "Nigeria",
        "lat": 9.42,
        "long": 7.98,
        "elev ft": 2509,
        "pop est": 24380
    },
    {
        "name": "Adwan",
        "what": "city",
        "region": "Kaduna",
        "country": "Nigeria",
        "lat": 9.6,
        "long": 8.31,
        "elev ft": 2509,
        "pop est": 79759
    },
    {
        "name": "Afago",
        "what": "city",
        "region": "Kaduna",
        "country": "Nigeria",
        "lat": 10.37,
        "long": 7.82,
        "elev ft": 2509,
        "pop est": 0
    },
    {
        "name": "Afaka",
        "what": "city",
        "region": "Kaduna",
        "country": "Nigeria",
        "lat": 10.66,
        "long": 7.39,
        "elev ft": 2083,
        "pop est": 23867
    },
    {
        "name": "Afana",
        "what": "city",
        "region": "Kaduna",
        "country": "Nigeria",
        "lat": 9.52,
        "long": 8.17,
        "elev ft": 2509,
        "pop est": 19056
    },
    {
        "name": "Afana",
        "what": "city",
        "region": "Kaduna",
        "country": "Nigeria",
        "lat": 9.51,
        "long": 8.16,
        "elev ft": 2509,
        "pop est": 20402
    },
    {
        "name": "Afana Kaje",
        "what": "city",
        "region": "Kaduna",
        "country": "Nigeria",
        "lat": 9.54,
        "long": 8.22,
        "elev ft": 2509,
        "pop est": 11726
    },
    {
        "name": "Afana Kaje",
        "what": "city",
        "region": "Kaduna",
        "country": "Nigeria",
        "lat": 9.55,
        "long": 8.2,
        "elev ft": 2509,
        "pop est": 11905
    },
    {
        "name": "Agaji",
        "what": "city",
        "region": "Kaduna",
        "country": "Nigeria",
        "lat": 10.62,
        "long": 8.64,
        "elev ft": 2509,
        "pop est": 13304
    },
    {
        "name": "Agameti",
        "what": "city",
        "region": "Kaduna",
        "country": "Nigeria",
        "lat": 9.17,
        "long": 8.61,
        "elev ft": 2509,
        "pop est": 10132
    },
    {
        "name": "Agban",
        "what": "city",
        "region": "Kaduna",
        "country": "Nigeria",
        "lat": 9.58,
        "long": 8.37,
        "elev ft": 3349,
        "pop est": 134205
    },
    {
        "name": "Agunu",
        "what": "city",
        "region": "Kaduna",
        "country": "Nigeria",
        "lat": 10.08,
        "long": 7.88,
        "elev ft": 2555,
        "pop est": 193
    },
    {
        "name": "Agwam",
        "what": "city",
        "region": "Kaduna",
        "country": "Nigeria",
        "lat": 9.22,
        "long": 8.38,
        "elev ft": 1765,
        "pop est": 10132
    },
    {
        "name": "Agwam",
        "what": "city",
        "region": "Kaduna",
        "country": "Nigeria",
        "lat": 9.21,
        "long": 8.4,
        "elev ft": 1722,
        "pop est": 10132
    },
    {
        "name": "Agwan Gwara",
        "what": "city",
        "region": "Kaduna",
        "country": "Nigeria",
        "lat": 9.71,
        "long": 7.55,
        "elev ft": 1988,
        "pop est": 5364
    },
    {
        "name": "Ahar",
        "what": "city",
        "region": "Kaduna",
        "country": "Nigeria",
        "lat": 9.13,
        "long": 8.23,
        "elev ft": 1669,
        "pop est": 10169
    },
    {
        "name": "Ahyaya",
        "what": "city",
        "region": "Kaduna",
        "country": "Nigeria",
        "lat": 11.39,
        "long": 8.08,
        "elev ft": 2509,
        "pop est": 13261
    },
    {
        "name": "Aishong",
        "what": "city",
        "region": "Kaduna",
        "country": "Nigeria",
        "lat": 9.82,
        "long": 8.3,
        "elev ft": 2562,
        "pop est": 8046
    },
    {
        "name": "Ajiba",
        "what": "city",
        "region": "Kaduna",
        "country": "Nigeria",
        "lat": 11.03,
        "long": 8.37,
        "elev ft": 2509,
        "pop est": 13261
    },
    {
        "name": "Akache",
        "what": "city",
        "region": "Kaduna",
        "country": "Nigeria",
        "lat": 10.7,
        "long": 6.75,
        "elev ft": 1679,
        "pop est": 3273
    },
    {
        "name": "Akachi",
        "what": "city",
        "region": "Kaduna",
        "country": "Nigeria",
        "lat": 10.7,
        "long": 6.75,
        "elev ft": 1679,
        "pop est": 3273
    },
    {
        "name": "Akama",
        "what": "city",
        "region": "Kaduna",
        "country": "Nigeria",
        "lat": 9.75,
        "long": 7.72,
        "elev ft": 2509,
        "pop est": 5364
    },
    {
        "name": "Akau",
        "what": "city",
        "region": "Kaduna",
        "country": "Nigeria",
        "lat": 9.49,
        "long": 8.4,
        "elev ft": 1847,
        "pop est": 8889
    },
    {
        "name": "Akilibu",
        "what": "city",
        "region": "Kaduna",
        "country": "Nigeria",
        "lat": 9.85,
        "long": 7.43,
        "elev ft": 1837,
        "pop est": 5364
    },
    {
        "name": "Akonon",
        "what": "city",
        "region": "Kaduna",
        "country": "Nigeria",
        "lat": 9.27,
        "long": 8.49,
        "elev ft": 2047,
        "pop est": 10132
    },
    {
        "name": "Akote",
        "what": "city",
        "region": "Kaduna",
        "country": "Nigeria",
        "lat": 9.5,
        "long": 7.72,
        "elev ft": 1998,
        "pop est": 5364
    },
    {
        "name": "Akura",
        "what": "city",
        "region": "Kaduna",
        "country": "Nigeria",
        "lat": 9.87,
        "long": 7.86,
        "elev ft": 2509,
        "pop est": 5364
    },
    {
        "name": "Akwa",
        "what": "city",
        "region": "Kaduna",
        "country": "Nigeria",
        "lat": 9.24,
        "long": 8.27,
        "elev ft": 1669,
        "pop est": 10132
    },
    {
        "name": "Akwana",
        "what": "city",
        "region": "Kaduna",
        "country": "Nigeria",
        "lat": 9.7,
        "long": 7.78,
        "elev ft": 1998,
        "pop est": 5364
    },
    {
        "name": "Alere",
        "what": "city",
        "region": "Kaduna",
        "country": "Nigeria",
        "lat": 10.62,
        "long": 8.37,
        "elev ft": 2509,
        "pop est": 13212
    },
    {
        "name": "Alhaji",
        "what": "city",
        "region": "Kaduna",
        "country": "Nigeria",
        "lat": 11.1,
        "long": 7.27,
        "elev ft": 2020,
        "pop est": 12963
    },
    {
        "name": "Allah Gaba",
        "what": "city",
        "region": "Kaduna",
        "country": "Nigeria",
        "lat": 11.44,
        "long": 8.03,
        "elev ft": 2040,
        "pop est": 21344
    },
    {
        "name": "Allah Nana",
        "what": "city",
        "region": "Kaduna",
        "country": "Nigeria",
        "lat": 9.06,
        "long": 8.52,
        "elev ft": 1669,
        "pop est": 10132
    },
    {
        "name": "Amantu",
        "what": "city",
        "region": "Kaduna",
        "country": "Nigeria",
        "lat": 9.36,
        "long": 8.63,
        "elev ft": 1998,
        "pop est": 10902
    },
    {
        "name": "Amar",
        "what": "city",
        "region": "Kaduna",
        "country": "Nigeria",
        "lat": 9.12,
        "long": 8.53,
        "elev ft": 1742,
        "pop est": 10132
    },
    {
        "name": "Amar Dogo",
        "what": "city",
        "region": "Kaduna",
        "country": "Nigeria",
        "lat": 9.12,
        "long": 8.53,
        "elev ft": 1742,
        "pop est": 10132
    },
    {
        "name": "Amare",
        "what": "city",
        "region": "Kaduna",
        "country": "Nigeria",
        "lat": 9.38,
        "long": 8.24,
        "elev ft": 1853,
        "pop est": 10132
    },
    {
        "name": "Amars",
        "what": "city",
        "region": "Kaduna",
        "country": "Nigeria",
        "lat": 9.08,
        "long": 8.54,
        "elev ft": 1669,
        "pop est": 10132
    },
    {
        "name": "Amartita",
        "what": "city",
        "region": "Kaduna",
        "country": "Nigeria",
        "lat": 9.1,
        "long": 8.53,
        "elev ft": 1669,
        "pop est": 10132
    },
    {
        "name": "Amatita",
        "what": "city",
        "region": "Kaduna",
        "country": "Nigeria",
        "lat": 9.1,
        "long": 8.53,
        "elev ft": 1669,
        "pop est": 10132
    },
    {
        "name": "Amawa",
        "what": "city",
        "region": "Kaduna",
        "country": "Nigeria",
        "lat": 10.27,
        "long": 8.66,
        "elev ft": 2634,
        "pop est": 12665
    },
    {
        "name": "Amawa",
        "what": "city",
        "region": "Kaduna",
        "country": "Nigeria",
        "lat": 10.19,
        "long": 8.62,
        "elev ft": 2706,
        "pop est": 12665
    },
    {
        "name": "Ambam",
        "what": "city",
        "region": "Kaduna",
        "country": "Nigeria",
        "lat": 9.54,
        "long": 8.32,
        "elev ft": 2526,
        "pop est": 43619
    },
    {
        "name": "Ambam",
        "what": "city",
        "region": "Kaduna",
        "country": "Nigeria",
        "lat": 9.52,
        "long": 8.32,
        "elev ft": 2568,
        "pop est": 24446
    },
    {
        "name": "Ambe",
        "what": "city",
        "region": "Kaduna",
        "country": "Nigeria",
        "lat": 9.33,
        "long": 8.42,
        "elev ft": 1755,
        "pop est": 10132
    },
    {
        "name": "Ambe",
        "what": "city",
        "region": "Kaduna",
        "country": "Nigeria",
        "lat": 9.34,
        "long": 8.38,
        "elev ft": 1735,
        "pop est": 10132
    },
    {
        "name": "Ambe Madaki",
        "what": "city",
        "region": "Kaduna",
        "country": "Nigeria",
        "lat": 9.28,
        "long": 8.41,
        "elev ft": 1751,
        "pop est": 10132
    },
    {
        "name": "Ambe Sarki",
        "what": "city",
        "region": "Kaduna",
        "country": "Nigeria",
        "lat": 9.29,
        "long": 8.44,
        "elev ft": 1955,
        "pop est": 10132
    },
    {
        "name": "Amere",
        "what": "city",
        "region": "Kaduna",
        "country": "Nigeria",
        "lat": 9.46,
        "long": 8.21,
        "elev ft": 2063,
        "pop est": 11149
    },
    {
        "name": "Amfu",
        "what": "city",
        "region": "Kaduna",
        "country": "Nigeria",
        "lat": 9.8,
        "long": 7.52,
        "elev ft": 1942,
        "pop est": 5364
    },
    {
        "name": "Amon Kasa",
        "what": "city",
        "region": "Kaduna",
        "country": "Nigeria",
        "lat": 10.23,
        "long": 8.65,
        "elev ft": 2778,
        "pop est": 12665
    },
    {
        "name": "Amon Kasa Bisa",
        "what": "city",
        "region": "Kaduna",
        "country": "Nigeria",
        "lat": 10.23,
        "long": 8.65,
        "elev ft": 2778,
        "pop est": 12665
    },
    {
        "name": "Amon Kasa Villages",
        "what": "city",
        "region": "Kaduna",
        "country": "Nigeria",
        "lat": 10.23,
        "long": 8.65,
        "elev ft": 2778,
        "pop est": 12665
    },
    {
        "name": "Anaba",
        "what": "city",
        "region": "Kaduna",
        "country": "Nigeria",
        "lat": 10.9,
        "long": 7.44,
        "elev ft": 1991,
        "pop est": 2831
    },
    {
        "name": "Anbeguwa",
        "what": "city",
        "region": "Kaduna",
        "country": "Nigeria",
        "lat": 10.68,
        "long": 8.28,
        "elev ft": 2007,
        "pop est": 13261
    },
    {
        "name": "Ancha Sarki",
        "what": "city",
        "region": "Kaduna",
        "country": "Nigeria",
        "lat": 9.17,
        "long": 8.43,
        "elev ft": 1669,
        "pop est": 10132
    },
    {
        "name": "Anchao",
        "what": "city",
        "region": "Kaduna",
        "country": "Nigeria",
        "lat": 11.4,
        "long": 8.01,
        "elev ft": 2020,
        "pop est": 15977
    },
    {
        "name": "Anchau",
        "what": "city",
        "region": "Kaduna",
        "country": "Nigeria",
        "lat": 10.96,
        "long": 8.39,
        "elev ft": 2509,
        "pop est": 13261
    },
    {
        "name": "Anchina",
        "what": "city",
        "region": "Kaduna",
        "country": "Nigeria",
        "lat": 9.99,
        "long": 8.1,
        "elev ft": 2509,
        "pop est": 8046
    },
    {
        "name": "Anchona",
        "what": "city",
        "region": "Kaduna",
        "country": "Nigeria",
        "lat": 9.99,
        "long": 8.1,
        "elev ft": 2509,
        "pop est": 8046
    },
    {
        "name": "Anchuna",
        "what": "city",
        "region": "Kaduna",
        "country": "Nigeria",
        "lat": 9.99,
        "long": 8.1,
        "elev ft": 2509,
        "pop est": 8046
    },
    {
        "name": "Ancuna",
        "what": "city",
        "region": "Kaduna",
        "country": "Nigeria",
        "lat": 9.99,
        "long": 8.1,
        "elev ft": 2509,
        "pop est": 8046
    },
    {
        "name": "Andaha",
        "what": "city",
        "region": "Kaduna",
        "country": "Nigeria",
        "lat": 9.4,
        "long": 8.34,
        "elev ft": 1873,
        "pop est": 10132
    },
    {
        "name": "Andaha Worro",
        "what": "city",
        "region": "Kaduna",
        "country": "Nigeria",
        "lat": 9.1,
        "long": 8.12,
        "elev ft": 1870,
        "pop est": 7399
    },
    {
        "name": "Anga",
        "what": "city",
        "region": "Kaduna",
        "country": "Nigeria",
        "lat": 9.32,
        "long": 8.3,
        "elev ft": 1669,
        "pop est": 10132
    },
    {
        "name": "Ango",
        "what": "city",
        "region": "Kaduna",
        "country": "Nigeria",
        "lat": 11.16,
        "long": 8.15,
        "elev ft": 2053,
        "pop est": 13261
    },
    {
        "name": "Anguwan Alhaji",
        "what": "city",
        "region": "Kaduna",
        "country": "Nigeria",
        "lat": 10.99,
        "long": 7.02,
        "elev ft": 2050,
        "pop est": 3576
    },
    {
        "name": "Anguwan Damada",
        "what": "city",
        "region": "Kaduna",
        "country": "Nigeria",
        "lat": 10.86,
        "long": 7.49,
        "elev ft": 2007,
        "pop est": 2831
    },
    {
        "name": "Anguwan Daudu",
        "what": "city",
        "region": "Kaduna",
        "country": "Nigeria",
        "lat": 10.9,
        "long": 7.48,
        "elev ft": 2063,
        "pop est": 2831
    },
    {
        "name": "Anguwan Kajinjiri",
        "what": "city",
        "region": "Kaduna",
        "country": "Nigeria",
        "lat": 10.8,
        "long": 7.47,
        "elev ft": 2073,
        "pop est": 2831
    },
    {
        "name": "Anguwan Liman",
        "what": "city",
        "region": "Kaduna",
        "country": "Nigeria",
        "lat": 10.57,
        "long": 7.45,
        "elev ft": 1971,
        "pop est": 393895
    },
    {
        "name": "Anguwan Madaki",
        "what": "city",
        "region": "Kaduna",
        "country": "Nigeria",
        "lat": 10.76,
        "long": 7.14,
        "elev ft": 2001,
        "pop est": 4162
    },
    {
        "name": "Anguwan Sakin Pawa",
        "what": "city",
        "region": "Kaduna",
        "country": "Nigeria",
        "lat": 10.76,
        "long": 7.45,
        "elev ft": 1998,
        "pop est": 2831
    },
    {
        "name": "Anguwan Sarkin Pawa",
        "what": "city",
        "region": "Kaduna",
        "country": "Nigeria",
        "lat": 10.76,
        "long": 7.45,
        "elev ft": 1998,
        "pop est": 2831
    },
    {
        "name": "Anguwar Bawa",
        "what": "city",
        "region": "Kaduna",
        "country": "Nigeria",
        "lat": 10.43,
        "long": 8.65,
        "elev ft": 2650,
        "pop est": 12665
    },
    {
        "name": "Anguwar Jekada",
        "what": "city",
        "region": "Kaduna",
        "country": "Nigeria",
        "lat": 9.45,
        "long": 7.79,
        "elev ft": 2509,
        "pop est": 5364
    },
    {
        "name": "Anguwar Kotci",
        "what": "city",
        "region": "Kaduna",
        "country": "Nigeria",
        "lat": 10.43,
        "long": 8.61,
        "elev ft": 2572,
        "pop est": 12665
    },
    {
        "name": "Angwan Chitumu",
        "what": "city",
        "region": "Kaduna",
        "country": "Nigeria",
        "lat": 11.2,
        "long": 7.45,
        "elev ft": 1984,
        "pop est": 12963
    },
    {
        "name": "Angwan Chori",
        "what": "city",
        "region": "Kaduna",
        "country": "Nigeria",
        "lat": 11.01,
        "long": 7.43,
        "elev ft": 2060,
        "pop est": 11515
    },
    {
        "name": "Angwan Daji",
        "what": "city",
        "region": "Kaduna",
        "country": "Nigeria",
        "lat": 9.81,
        "long": 7.93,
        "elev ft": 2509,
        "pop est": 5364
    },
    {
        "name": "Angwan Dauda",
        "what": "city",
        "region": "Kaduna",
        "country": "Nigeria",
        "lat": 9.37,
        "long": 8.03,
        "elev ft": 2053,
        "pop est": 22068
    },
    {
        "name": "Angwan Duku",
        "what": "city",
        "region": "Kaduna",
        "country": "Nigeria",
        "lat": 11.26,
        "long": 8.17,
        "elev ft": 2047,
        "pop est": 13261
    },
    {
        "name": "Angwan Gagara",
        "what": "city",
        "region": "Kaduna",
        "country": "Nigeria",
        "lat": 11.02,
        "long": 7.28,
        "elev ft": 1988,
        "pop est": 12963
    },
    {
        "name": "Angwan Galadima",
        "what": "city",
        "region": "Kaduna",
        "country": "Nigeria",
        "lat": 11.14,
        "long": 8.42,
        "elev ft": 2509,
        "pop est": 13330
    },
    {
        "name": "Angwan Galadima",
        "what": "city",
        "region": "Kaduna",
        "country": "Nigeria",
        "lat": 9.43,
        "long": 7.82,
        "elev ft": 2509,
        "pop est": 5364
    },
    {
        "name": "Angwan Galadima",
        "what": "city",
        "region": "Kaduna",
        "country": "Nigeria",
        "lat": 11.24,
        "long": 7.3,
        "elev ft": 2004,
        "pop est": 12977
    },
    {
        "name": "Angwan Galadima",
        "what": "city",
        "region": "Kaduna",
        "country": "Nigeria",
        "lat": 10.43,
        "long": 7.46,
        "elev ft": 1971,
        "pop est": 249690
    },
    {
        "name": "Angwan Gedage",
        "what": "city",
        "region": "Kaduna",
        "country": "Nigeria",
        "lat": 11.13,
        "long": 8.34,
        "elev ft": 2030,
        "pop est": 13262
    },
    {
        "name": "Angwan Ita",
        "what": "city",
        "region": "Kaduna",
        "country": "Nigeria",
        "lat": 9.92,
        "long": 7.93,
        "elev ft": 2509,
        "pop est": 5453
    },
    {
        "name": "Angwan Jakada",
        "what": "city",
        "region": "Kaduna",
        "country": "Nigeria",
        "lat": 9.45,
        "long": 7.79,
        "elev ft": 2509,
        "pop est": 5364
    },
    {
        "name": "Angwan Kasa",
        "what": "city",
        "region": "Kaduna",
        "country": "Nigeria",
        "lat": 11.13,
        "long": 7.43,
        "elev ft": 2007,
        "pop est": 12963
    },
    {
        "name": "Angwan Kaura",
        "what": "city",
        "region": "Kaduna",
        "country": "Nigeria",
        "lat": 11.15,
        "long": 7.1,
        "elev ft": 2073,
        "pop est": 8642
    },
    {
        "name": "Angwan Koro",
        "what": "city",
        "region": "Kaduna",
        "country": "Nigeria",
        "lat": 9.32,
        "long": 7.76,
        "elev ft": 2053,
        "pop est": 5931
    },
    {
        "name": "Angwan Madaki",
        "what": "city",
        "region": "Kaduna",
        "country": "Nigeria",
        "lat": 9.43,
        "long": 7.82,
        "elev ft": 2509,
        "pop est": 5364
    },
    {
        "name": "Angwan Maje",
        "what": "city",
        "region": "Kaduna",
        "country": "Nigeria",
        "lat": 9.29,
        "long": 7.79,
        "elev ft": 2034,
        "pop est": 6139
    },
    {
        "name": "Angwan Mapera",
        "what": "city",
        "region": "Kaduna",
        "country": "Nigeria",
        "lat": 11.28,
        "long": 8.13,
        "elev ft": 1991,
        "pop est": 13261
    },
    {
        "name": "Angwan Pa",
        "what": "city",
        "region": "Kaduna",
        "country": "Nigeria",
        "lat": 9.83,
        "long": 7.33,
        "elev ft": 1797,
        "pop est": 5032
    },
    {
        "name": "Angwan Shehu",
        "what": "city",
        "region": "Kaduna",
        "country": "Nigeria",
        "lat": 11.25,
        "long": 7.46,
        "elev ft": 1994,
        "pop est": 12963
    },
    {
        "name": "Angwan Tanko",
        "what": "city",
        "region": "Kaduna",
        "country": "Nigeria",
        "lat": 10.4,
        "long": 7.48,
        "elev ft": 1929,
        "pop est": 151084
    },
    {
        "name": "Angwan Tsauni",
        "what": "city",
        "region": "Kaduna",
        "country": "Nigeria",
        "lat": 11.1,
        "long": 7.59,
        "elev ft": 2509,
        "pop est": 21344
    },
    {
        "name": "Angwan-Dangado",
        "what": "city",
        "region": "Kaduna",
        "country": "Nigeria",
        "lat": 11.26,
        "long": 6.99,
        "elev ft": 2043,
        "pop est": 6892
    },
    {
        "name": "Angwan-Pa",
        "what": "city",
        "region": "Kaduna",
        "country": "Nigeria",
        "lat": 9.36,
        "long": 7.75,
        "elev ft": 2509,
        "pop est": 5493
    },
    {
        "name": "Angwandawa",
        "what": "city",
        "region": "Kaduna",
        "country": "Nigeria",
        "lat": 11.13,
        "long": 8.56,
        "elev ft": 1830,
        "pop est": 13507
    },
    {
        "name": "Angwanpa",
        "what": "city",
        "region": "Kaduna",
        "country": "Nigeria",
        "lat": 9.85,
        "long": 7.84,
        "elev ft": 2509,
        "pop est": 5364
    },
    {
        "name": "Aninkwa",
        "what": "city",
        "region": "Kaduna",
        "country": "Nigeria",
        "lat": 9.89,
        "long": 7.94,
        "elev ft": 2509,
        "pop est": 5623
    },
    {
        "name": "Aninkwan",
        "what": "city",
        "region": "Kaduna",
        "country": "Nigeria",
        "lat": 9.89,
        "long": 7.94,
        "elev ft": 2509,
        "pop est": 5623
    },
    {
        "name": "Anji",
        "what": "city",
        "region": "Kaduna",
        "country": "Nigeria",
        "lat": 9.17,
        "long": 8.21,
        "elev ft": 1669,
        "pop est": 10132
    },
    {
        "name": "Anji",
        "what": "city",
        "region": "Kaduna",
        "country": "Nigeria",
        "lat": 9.18,
        "long": 8.17,
        "elev ft": 1669,
        "pop est": 10114
    },
    {
        "name": "Anji Madaki",
        "what": "city",
        "region": "Kaduna",
        "country": "Nigeria",
        "lat": 9.18,
        "long": 8.22,
        "elev ft": 1669,
        "pop est": 10132
    },
    {
        "name": "Anka",
        "what": "city",
        "region": "Kaduna",
        "country": "Nigeria",
        "lat": 9.13,
        "long": 8.58,
        "elev ft": 2011,
        "pop est": 10132
    },
    {
        "name": "Ankul",
        "what": "city",
        "region": "Kaduna",
        "country": "Nigeria",
        "lat": 9.41,
        "long": 7.96,
        "elev ft": 2509,
        "pop est": 20898
    },
    {
        "name": "Ankul Gida",
        "what": "city",
        "region": "Kaduna",
        "country": "Nigeria",
        "lat": 9.4,
        "long": 7.98,
        "elev ft": 2509,
        "pop est": 23985
    },
    {
        "name": "Ankuru",
        "what": "city",
        "region": "Kaduna",
        "country": "Nigeria",
        "lat": 9.77,
        "long": 7.68,
        "elev ft": 2509,
        "pop est": 5364
    },
    {
        "name": "Ankuwa",
        "what": "city",
        "region": "Kaduna",
        "country": "Nigeria",
        "lat": 9.85,
        "long": 7.88,
        "elev ft": 2519,
        "pop est": 5364
    },
    {
        "name": "Ankwa",
        "what": "city",
        "region": "Kaduna",
        "country": "Nigeria",
        "lat": 9.24,
        "long": 8.27,
        "elev ft": 1669,
        "pop est": 10132
    },
    {
        "name": "Ankwan Tukura",
        "what": "city",
        "region": "Kaduna",
        "country": "Nigeria",
        "lat": 9.37,
        "long": 7.77,
        "elev ft": 2509,
        "pop est": 5379
    },
    {
        "name": "Anta",
        "what": "city",
        "region": "Kaduna",
        "country": "Nigeria",
        "lat": 9.45,
        "long": 8.46,
        "elev ft": 1830,
        "pop est": 10132
    },
    {
        "name": "Antai",
        "what": "city",
        "region": "Kaduna",
        "country": "Nigeria",
        "lat": 10.01,
        "long": 7.91,
        "elev ft": 2667,
        "pop est": 4491
    },
    {
        "name": "Antai",
        "what": "city",
        "region": "Kaduna",
        "country": "Nigeria",
        "lat": 10.0,
        "long": 7.96,
        "elev ft": 2532,
        "pop est": 5272
    },
    {
        "name": "Antan",
        "what": "city",
        "region": "Kaduna",
        "country": "Nigeria",
        "lat": 9.45,
        "long": 8.46,
        "elev ft": 1830,
        "pop est": 10132
    },
    {
        "name": "Antong",
        "what": "city",
        "region": "Kaduna",
        "country": "Nigeria",
        "lat": 9.59,
        "long": 8.06,
        "elev ft": 2509,
        "pop est": 6280
    },
    {
        "name": "Anza",
        "what": "city",
        "region": "Kaduna",
        "country": "Nigeria",
        "lat": 9.84,
        "long": 8.21,
        "elev ft": 2509,
        "pop est": 8046
    },
    {
        "name": "Anzar Daji",
        "what": "city",
        "region": "Kaduna",
        "country": "Nigeria",
        "lat": 9.95,
        "long": 8.11,
        "elev ft": 2509,
        "pop est": 8046
    },
    {
        "name": "Anzere Daji",
        "what": "city",
        "region": "Kaduna",
        "country": "Nigeria",
        "lat": 9.15,
        "long": 8.46,
        "elev ft": 1669,
        "pop est": 10132
    },
    {
        "name": "Apakhah",
        "what": "city",
        "region": "Kaduna",
        "country": "Nigeria",
        "lat": 9.85,
        "long": 8.4,
        "elev ft": 2545,
        "pop est": 8046
    },
    {
        "name": "Apapa",
        "what": "city",
        "region": "Kaduna",
        "country": "Nigeria",
        "lat": 10.27,
        "long": 8.28,
        "elev ft": 2509,
        "pop est": 7833
    },
    {
        "name": "Apewohe",
        "what": "city",
        "region": "Kaduna",
        "country": "Nigeria",
        "lat": 10.45,
        "long": 7.06,
        "elev ft": 1788,
        "pop est": 0
    },
    {
        "name": "Arak",
        "what": "city",
        "region": "Kaduna",
        "country": "Nigeria",
        "lat": 9.39,
        "long": 8.36,
        "elev ft": 1778,
        "pop est": 10132
    },
    {
        "name": "Aribi",
        "what": "city",
        "region": "Kaduna",
        "country": "Nigeria",
        "lat": 9.57,
        "long": 7.87,
        "elev ft": 2509,
        "pop est": 5364
    },
    {
        "name": "Aribi",
        "what": "city",
        "region": "Kaduna",
        "country": "Nigeria",
        "lat": 9.49,
        "long": 7.85,
        "elev ft": 2509,
        "pop est": 5364
    },
    {
        "name": "Aribio",
        "what": "city",
        "region": "Kaduna",
        "country": "Nigeria",
        "lat": 9.49,
        "long": 7.85,
        "elev ft": 2509,
        "pop est": 5364
    },
    {
        "name": "Ariko",
        "what": "city",
        "region": "Kaduna",
        "country": "Nigeria",
        "lat": 9.75,
        "long": 7.68,
        "elev ft": 2828,
        "pop est": 5364
    },
    {
        "name": "Ariko",
        "what": "city",
        "region": "Kaduna",
        "country": "Nigeria",
        "lat": 9.75,
        "long": 7.68,
        "elev ft": 2828,
        "pop est": 5364
    },
    {
        "name": "Asau",
        "what": "city",
        "region": "Kaduna",
        "country": "Nigeria",
        "lat": 9.43,
        "long": 8.17,
        "elev ft": 1932,
        "pop est": 10776
    },
    {
        "name": "Ashehu",
        "what": "city",
        "region": "Kaduna",
        "country": "Nigeria",
        "lat": 10.88,
        "long": 7.76,
        "elev ft": 2007,
        "pop est": 14652
    },
    {
        "name": "Askale",
        "what": "city",
        "region": "Kaduna",
        "country": "Nigeria",
        "lat": 11.2,
        "long": 8.28,
        "elev ft": 1991,
        "pop est": 13333
    },
    {
        "name": "Aso",
        "what": "city",
        "region": "Kaduna",
        "country": "Nigeria",
        "lat": 9.43,
        "long": 8.17,
        "elev ft": 1932,
        "pop est": 10776
    },
    {
        "name": "Asonkwai",
        "what": "city",
        "region": "Kaduna",
        "country": "Nigeria",
        "lat": 9.68,
        "long": 8.2,
        "elev ft": 2509,
        "pop est": 8046
    },
    {
        "name": "Assob Barshi",
        "what": "city",
        "region": "Kaduna",
        "country": "Nigeria",
        "lat": 9.52,
        "long": 8.44,
        "elev ft": 1879,
        "pop est": 7861
    },
    {
        "name": "Asu",
        "what": "city",
        "region": "Kaduna",
        "country": "Nigeria",
        "lat": 9.31,
        "long": 7.33,
        "elev ft": 1715,
        "pop est": 8288
    },
    {
        "name": "Atara",
        "what": "city",
        "region": "Kaduna",
        "country": "Nigeria",
        "lat": 9.71,
        "long": 7.72,
        "elev ft": 2509,
        "pop est": 5364
    },
    {
        "name": "Atisa",
        "what": "city",
        "region": "Kaduna",
        "country": "Nigeria",
        "lat": 9.85,
        "long": 8.45,
        "elev ft": 2621,
        "pop est": 7974
    },
    {
        "name": "Atuku",
        "what": "city",
        "region": "Kaduna",
        "country": "Nigeria",
        "lat": 9.48,
        "long": 8.45,
        "elev ft": 1833,
        "pop est": 9363
    },
    {
        "name": "Atuku",
        "what": "city",
        "region": "Kaduna",
        "country": "Nigeria",
        "lat": 9.49,
        "long": 8.47,
        "elev ft": 1847,
        "pop est": 9336
    },
    {
        "name": "Auchan",
        "what": "city",
        "region": "Kaduna",
        "country": "Nigeria",
        "lat": 11.4,
        "long": 8.01,
        "elev ft": 2020,
        "pop est": 15977
    },
    {
        "name": "Auchanawa",
        "what": "city",
        "region": "Kaduna",
        "country": "Nigeria",
        "lat": 11.22,
        "long": 8.26,
        "elev ft": 2017,
        "pop est": 13285
    },
    {
        "name": "Audi",
        "what": "city",
        "region": "Kaduna",
        "country": "Nigeria",
        "lat": 9.3,
        "long": 8.29,
        "elev ft": 1669,
        "pop est": 10132
    },
    {
        "name": "Avong",
        "what": "city",
        "region": "Kaduna",
        "country": "Nigeria",
        "lat": 9.67,
        "long": 8.27,
        "elev ft": 2509,
        "pop est": 8046
    },
    {
        "name": "Awai",
        "what": "city",
        "region": "Kaduna",
        "country": "Nigeria",
        "lat": 11.07,
        "long": 7.9,
        "elev ft": 2063,
        "pop est": 14623
    },
    {
        "name": "Awam",
        "what": "city",
        "region": "Kaduna",
        "country": "Nigeria",
        "lat": 9.78,
        "long": 7.81,
        "elev ft": 2509,
        "pop est": 5364
    },
    {
        "name": "Awam",
        "what": "city",
        "region": "Kaduna",
        "country": "Nigeria",
        "lat": 9.79,
        "long": 7.78,
        "elev ft": 2509,
        "pop est": 5364
    },
    {
        "name": "Awan",
        "what": "city",
        "region": "Kaduna",
        "country": "Nigeria",
        "lat": 9.78,
        "long": 7.81,
        "elev ft": 2509,
        "pop est": 5364
    },
    {
        "name": "Awan",
        "what": "city",
        "region": "Kaduna",
        "country": "Nigeria",
        "lat": 9.79,
        "long": 7.78,
        "elev ft": 2509,
        "pop est": 5364
    },
    {
        "name": "Ayagan",
        "what": "city",
        "region": "Kaduna",
        "country": "Nigeria",
        "lat": 9.7,
        "long": 8.26,
        "elev ft": 2509,
        "pop est": 8046
    },
    {
        "name": "Azendi",
        "what": "city",
        "region": "Kaduna",
        "country": "Nigeria",
        "lat": 10.2,
        "long": 8.57,
        "elev ft": 2539,
        "pop est": 12665
    },
    {
        "name": "Azu",
        "what": "city",
        "region": "Kaduna",
        "country": "Nigeria",
        "lat": 9.31,
        "long": 7.33,
        "elev ft": 1715,
        "pop est": 8288
    },
    {
        "name": "Ba'awa",
        "what": "city",
        "region": "Kaduna",
        "country": "Nigeria",
        "lat": 11.34,
        "long": 7.98,
        "elev ft": 2509,
        "pop est": 10433
    },
    {
        "name": "Baban Rafi",
        "what": "city",
        "region": "Kaduna",
        "country": "Nigeria",
        "lat": 11.36,
        "long": 7.49,
        "elev ft": 2053,
        "pop est": 18175
    },
    {
        "name": "Babaru",
        "what": "city",
        "region": "Kaduna",
        "country": "Nigeria",
        "lat": 9.11,
        "long": 8.58,
        "elev ft": 1998,
        "pop est": 10132
    },
    {
        "name": "Babban Saura",
        "what": "city",
        "region": "Kaduna",
        "country": "Nigeria",
        "lat": 10.51,
        "long": 7.47,
        "elev ft": 1925,
        "pop est": 353968
    },
    {
        "name": "Babinda",
        "what": "city",
        "region": "Kaduna",
        "country": "Nigeria",
        "lat": 10.69,
        "long": 8.43,
        "elev ft": 2509,
        "pop est": 13261
    },
    {
        "name": "Bacha Forest Reserve",
        "what": "city",
        "region": "Kaduna",
        "country": "Nigeria",
        "lat": 9.42,
        "long": 7.82,
        "elev ft": 2509,
        "pop est": 5364
    },
    {
        "name": "Badiko",
        "what": "city",
        "region": "Kaduna",
        "country": "Nigeria",
        "lat": 10.53,
        "long": 7.41,
        "elev ft": 1961,
        "pop est": 480834
    },
    {
        "name": "Badna",
        "what": "city",
        "region": "Kaduna",
        "country": "Nigeria",
        "lat": 10.4,
        "long": 6.96,
        "elev ft": 1958,
        "pop est": 2059
    },
    {
        "name": "Badoko",
        "what": "city",
        "region": "Kaduna",
        "country": "Nigeria",
        "lat": 9.62,
        "long": 7.49,
        "elev ft": 1807,
        "pop est": 5364
    },
    {
        "name": "Badu",
        "what": "city",
        "region": "Kaduna",
        "country": "Nigeria",
        "lat": 11.28,
        "long": 8.01,
        "elev ft": 2509,
        "pop est": 9637
    },
    {
        "name": "Baduru",
        "what": "city",
        "region": "Kaduna",
        "country": "Nigeria",
        "lat": 9.91,
        "long": 8.58,
        "elev ft": 3349,
        "pop est": 8481
    },
    {
        "name": "Bafai",
        "what": "city",
        "region": "Kaduna",
        "country": "Nigeria",
        "lat": 9.86,
        "long": 8.3,
        "elev ft": 2522,
        "pop est": 8046
    },
    {
        "name": "Bafai Gora",
        "what": "city",
        "region": "Kaduna",
        "country": "Nigeria",
        "lat": 9.9,
        "long": 8.28,
        "elev ft": 2519,
        "pop est": 8046
    },
    {
        "name": "Baffot",
        "what": "city",
        "region": "Kaduna",
        "country": "Nigeria",
        "lat": 9.65,
        "long": 8.19,
        "elev ft": 2509,
        "pop est": 8035
    },
    {
        "name": "Bagaldi",
        "what": "city",
        "region": "Kaduna",
        "country": "Nigeria",
        "lat": 11.11,
        "long": 7.85,
        "elev ft": 2070,
        "pop est": 10701
    },
    {
        "name": "Bagwiwa",
        "what": "city",
        "region": "Kaduna",
        "country": "Nigeria",
        "lat": 11.06,
        "long": 8.25,
        "elev ft": 2509,
        "pop est": 13261
    },
    {
        "name": "Bahawa",
        "what": "city",
        "region": "Kaduna",
        "country": "Nigeria",
        "lat": 10.6,
        "long": 8.72,
        "elev ft": 2509,
        "pop est": 13559
    },
    {
        "name": "Bahozagom",
        "what": "city",
        "region": "Kaduna",
        "country": "Nigeria",
        "lat": 9.85,
        "long": 8.02,
        "elev ft": 2509,
        "pop est": 7614
    },
    {
        "name": "Bajimi",
        "what": "city",
        "region": "Kaduna",
        "country": "Nigeria",
        "lat": 11.14,
        "long": 7.57,
        "elev ft": 2509,
        "pop est": 16047
    },
    {
        "name": "Baka",
        "what": "city",
        "region": "Kaduna",
        "country": "Nigeria",
        "lat": 10.85,
        "long": 7.29,
        "elev ft": 1899,
        "pop est": 10311
    },
    {
        "name": "Bakara",
        "what": "city",
        "region": "Kaduna",
        "country": "Nigeria",
        "lat": 11.01,
        "long": 8.3,
        "elev ft": 2509,
        "pop est": 13261
    },
    {
        "name": "Bakin Kasua",
        "what": "city",
        "region": "Kaduna",
        "country": "Nigeria",
        "lat": 10.28,
        "long": 7.3,
        "elev ft": 2509,
        "pop est": 0
    },
    {
        "name": "Bakin Kasua",
        "what": "city",
        "region": "Kaduna",
        "country": "Nigeria",
        "lat": 10.3,
        "long": 7.28,
        "elev ft": 2509,
        "pop est": 0
    },
    {
        "name": "Bakin Kasua Gwari",
        "what": "city",
        "region": "Kaduna",
        "country": "Nigeria",
        "lat": 10.3,
        "long": 7.28,
        "elev ft": 2509,
        "pop est": 0
    },
    {
        "name": "Bakin Kasuan Gwari",
        "what": "city",
        "region": "Kaduna",
        "country": "Nigeria",
        "lat": 10.3,
        "long": 7.28,
        "elev ft": 2509,
        "pop est": 0
    },
    {
        "name": "Bakin Kogi",
        "what": "city",
        "region": "Kaduna",
        "country": "Nigeria",
        "lat": 9.3,
        "long": 7.77,
        "elev ft": 1994,
        "pop est": 6088
    },
    {
        "name": "Bakin Kogi",
        "what": "city",
        "region": "Kaduna",
        "country": "Nigeria",
        "lat": 9.98,
        "long": 8.08,
        "elev ft": 2509,
        "pop est": 8013
    },
    {
        "name": "Bakin Kogi",
        "what": "city",
        "region": "Kaduna",
        "country": "Nigeria",
        "lat": 9.98,
        "long": 8.41,
        "elev ft": 2539,
        "pop est": 8411
    },
    {
        "name": "Bakin Kogi",
        "what": "city",
        "region": "Kaduna",
        "country": "Nigeria",
        "lat": 9.99,
        "long": 8.44,
        "elev ft": 2591,
        "pop est": 9195
    },
    {
        "name": "Bakin Kogi",
        "what": "city",
        "region": "Kaduna",
        "country": "Nigeria",
        "lat": 9.49,
        "long": 8.27,
        "elev ft": 2509,
        "pop est": 9704
    },
    {
        "name": "Bakin Kogi",
        "what": "city",
        "region": "Kaduna",
        "country": "Nigeria",
        "lat": 10.54,
        "long": 6.84,
        "elev ft": 1669,
        "pop est": 3449
    },
    {
        "name": "Bakin Kogi",
        "what": "city",
        "region": "Kaduna",
        "country": "Nigeria",
        "lat": 9.88,
        "long": 8.43,
        "elev ft": 2549,
        "pop est": 7974
    },
    {
        "name": "Bakin Kogi",
        "what": "city",
        "region": "Kaduna",
        "country": "Nigeria",
        "lat": 9.88,
        "long": 8.49,
        "elev ft": 2677,
        "pop est": 7820
    },
    {
        "name": "Bakin Kogi Kazare",
        "what": "city",
        "region": "Kaduna",
        "country": "Nigeria",
        "lat": 9.91,
        "long": 8.42,
        "elev ft": 2536,
        "pop est": 7960
    },
    {
        "name": "Bakin Riga",
        "what": "city",
        "region": "Kaduna",
        "country": "Nigeria",
        "lat": 9.13,
        "long": 8.44,
        "elev ft": 1669,
        "pop est": 10132
    },
    {
        "name": "Bakin-Lamba",
        "what": "city",
        "region": "Kaduna",
        "country": "Nigeria",
        "lat": 9.92,
        "long": 8.18,
        "elev ft": 2509,
        "pop est": 8046
    },
    {
        "name": "Bakinkubau",
        "what": "city",
        "region": "Kaduna",
        "country": "Nigeria",
        "lat": 11.04,
        "long": 6.9,
        "elev ft": 1994,
        "pop est": 3576
    },
    {
        "name": "Bako",
        "what": "city",
        "region": "Kaduna",
        "country": "Nigeria",
        "lat": 9.23,
        "long": 8.22,
        "elev ft": 1669,
        "pop est": 10132
    },
    {
        "name": "Bakuchi",
        "what": "city",
        "region": "Kaduna",
        "country": "Nigeria",
        "lat": 9.48,
        "long": 7.31,
        "elev ft": 1902,
        "pop est": 5825
    },
    {
        "name": "Bakura",
        "what": "city",
        "region": "Kaduna",
        "country": "Nigeria",
        "lat": 10.91,
        "long": 8.03,
        "elev ft": 2047,
        "pop est": 14751
    },
    {
        "name": "Balet",
        "what": "city",
        "region": "Kaduna",
        "country": "Nigeria",
        "lat": 9.68,
        "long": 8.16,
        "elev ft": 2509,
        "pop est": 7947
    },
    {
        "name": "Balet",
        "what": "city",
        "region": "Kaduna",
        "country": "Nigeria",
        "lat": 9.66,
        "long": 8.16,
        "elev ft": 2509,
        "pop est": 7835
    },
    {
        "name": "Balo",
        "what": "city",
        "region": "Kaduna",
        "country": "Nigeria",
        "lat": 10.13,
        "long": 8.57,
        "elev ft": 2559,
        "pop est": 12665
    },
    {
        "name": "Baloje",
        "what": "city",
        "region": "Kaduna",
        "country": "Nigeria",
        "lat": 9.4,
        "long": 8.22,
        "elev ft": 1824,
        "pop est": 10132
    },
    {
        "name": "Banag",
        "what": "city",
        "region": "Kaduna",
        "country": "Nigeria",
        "lat": 11.03,
        "long": 7.21,
        "elev ft": 2093,
        "pop est": 11485
    },
    {
        "name": "Bandan",
        "what": "city",
        "region": "Kaduna",
        "country": "Nigeria",
        "lat": 9.73,
        "long": 8.57,
        "elev ft": 3349,
        "pop est": 7433
    },
    {
        "name": "Banga",
        "what": "city",
        "region": "Kaduna",
        "country": "Nigeria",
        "lat": 10.17,
        "long": 6.94,
        "elev ft": 1669,
        "pop est": 2863
    },
    {
        "name": "Bango",
        "what": "city",
        "region": "Kaduna",
        "country": "Nigeria",
        "lat": 10.65,
        "long": 7.68,
        "elev ft": 1889,
        "pop est": 2831
    },
    {
        "name": "Bango Darina",
        "what": "city",
        "region": "Kaduna",
        "country": "Nigeria",
        "lat": 10.65,
        "long": 7.68,
        "elev ft": 1889,
        "pop est": 2831
    },
    {
        "name": "Banke",
        "what": "city",
        "region": "Kaduna",
        "country": "Nigeria",
        "lat": 10.82,
        "long": 8.5,
        "elev ft": 2509,
        "pop est": 13261
    },
    {
        "name": "Bara",
        "what": "city",
        "region": "Kaduna",
        "country": "Nigeria",
        "lat": 9.49,
        "long": 8.15,
        "elev ft": 2519,
        "pop est": 20131
    },
    {
        "name": "Baraje",
        "what": "city",
        "region": "Kaduna",
        "country": "Nigeria",
        "lat": 11.33,
        "long": 7.51,
        "elev ft": 2027,
        "pop est": 17295
    },
    {
        "name": "Barau",
        "what": "city",
        "region": "Kaduna",
        "country": "Nigeria",
        "lat": 11.37,
        "long": 8.09,
        "elev ft": 2027,
        "pop est": 13261
    },
    {
        "name": "Barden Baka",
        "what": "city",
        "region": "Kaduna",
        "country": "Nigeria",
        "lat": 11.02,
        "long": 7.25,
        "elev ft": 2017,
        "pop est": 12963
    },
    {
        "name": "Barden Yana",
        "what": "city",
        "region": "Kaduna",
        "country": "Nigeria",
        "lat": 10.47,
        "long": 7.43,
        "elev ft": 1998,
        "pop est": 475711
    },
    {
        "name": "Bardon Yana",
        "what": "city",
        "region": "Kaduna",
        "country": "Nigeria",
        "lat": 10.47,
        "long": 7.43,
        "elev ft": 1998,
        "pop est": 475711
    },
    {
        "name": "Barebari",
        "what": "city",
        "region": "Kaduna",
        "country": "Nigeria",
        "lat": 11.29,
        "long": 7.42,
        "elev ft": 2007,
        "pop est": 12963
    },
    {
        "name": "Bargu",
        "what": "city",
        "region": "Kaduna",
        "country": "Nigeria",
        "lat": 10.86,
        "long": 7.67,
        "elev ft": 2509,
        "pop est": 2831
    },
    {
        "name": "Bari",
        "what": "city",
        "region": "Kaduna",
        "country": "Nigeria",
        "lat": 9.86,
        "long": 8.57,
        "elev ft": 2883,
        "pop est": 7748
    },
    {
        "name": "Baribare",
        "what": "city",
        "region": "Kaduna",
        "country": "Nigeria",
        "lat": 11.31,
        "long": 8.12,
        "elev ft": 1922,
        "pop est": 13606
    },
    {
        "name": "Barkin Kogi",
        "what": "city",
        "region": "Kaduna",
        "country": "Nigeria",
        "lat": 9.9,
        "long": 8.42,
        "elev ft": 2536,
        "pop est": 8007
    },
    {
        "name": "Barrakin Chori",
        "what": "city",
        "region": "Kaduna",
        "country": "Nigeria",
        "lat": 9.5,
        "long": 8.05,
        "elev ft": 2509,
        "pop est": 23786
    },
    {
        "name": "Basanko",
        "what": "city",
        "region": "Kaduna",
        "country": "Nigeria",
        "lat": 11.23,
        "long": 8.17,
        "elev ft": 2509,
        "pop est": 13261
    },
    {
        "name": "Basawa",
        "what": "city",
        "region": "Kaduna",
        "country": "Nigeria",
        "lat": 11.18,
        "long": 7.67,
        "elev ft": 2509,
        "pop est": 219659
    },
    {
        "name": "Bassam Rumbu",
        "what": "city",
        "region": "Kaduna",
        "country": "Nigeria",
        "lat": 9.34,
        "long": 8.66,
        "elev ft": 2509,
        "pop est": 11513
    },
    {
        "name": "Bassawa",
        "what": "city",
        "region": "Kaduna",
        "country": "Nigeria",
        "lat": 11.18,
        "long": 7.67,
        "elev ft": 2509,
        "pop est": 219659
    },
    {
        "name": "Bassawa",
        "what": "city",
        "region": "Kaduna",
        "country": "Nigeria",
        "lat": 10.87,
        "long": 6.72,
        "elev ft": 1912,
        "pop est": 3625
    },
    {
        "name": "Basurfe",
        "what": "city",
        "region": "Kaduna",
        "country": "Nigeria",
        "lat": 11.03,
        "long": 7.17,
        "elev ft": 2076,
        "pop est": 7316
    },
    {
        "name": "Bato",
        "what": "city",
        "region": "Kaduna",
        "country": "Nigeria",
        "lat": 9.97,
        "long": 8.25,
        "elev ft": 2509,
        "pop est": 8026
    },
    {
        "name": "Bato",
        "what": "city",
        "region": "Kaduna",
        "country": "Nigeria",
        "lat": 9.95,
        "long": 8.28,
        "elev ft": 2509,
        "pop est": 8043
    },
    {
        "name": "Bature",
        "what": "city",
        "region": "Kaduna",
        "country": "Nigeria",
        "lat": 11.07,
        "long": 8.06,
        "elev ft": 2509,
        "pop est": 14192
    },
    {
        "name": "Bature",
        "what": "city",
        "region": "Kaduna",
        "country": "Nigeria",
        "lat": 11.08,
        "long": 7.4,
        "elev ft": 2004,
        "pop est": 12963
    },
    {
        "name": "Baturi",
        "what": "city",
        "region": "Kaduna",
        "country": "Nigeria",
        "lat": 11.19,
        "long": 8.38,
        "elev ft": 1961,
        "pop est": 13433
    },
    {
        "name": "Bauda",
        "what": "city",
        "region": "Kaduna",
        "country": "Nigeria",
        "lat": 10.28,
        "long": 8.72,
        "elev ft": 2572,
        "pop est": 12665
    },
    {
        "name": "Bauna",
        "what": "city",
        "region": "Kaduna",
        "country": "Nigeria",
        "lat": 11.1,
        "long": 7.05,
        "elev ft": 2073,
        "pop est": 3576
    },
    {
        "name": "Baushe",
        "what": "city",
        "region": "Kaduna",
        "country": "Nigeria",
        "lat": 10.93,
        "long": 7.77,
        "elev ft": 2007,
        "pop est": 56117
    },
    {
        "name": "Baushe",
        "what": "city",
        "region": "Kaduna",
        "country": "Nigeria",
        "lat": 10.91,
        "long": 7.74,
        "elev ft": 2066,
        "pop est": 47358
    },
    {
        "name": "Bawa",
        "what": "city",
        "region": "Kaduna",
        "country": "Nigeria",
        "lat": 10.67,
        "long": 8.02,
        "elev ft": 2509,
        "pop est": 13984
    },
    {
        "name": "Bayan Dutse",
        "what": "city",
        "region": "Kaduna",
        "country": "Nigeria",
        "lat": 11.28,
        "long": 8.37,
        "elev ft": 1876,
        "pop est": 13288
    },
    {
        "name": "Ba\u2019awa",
        "what": "city",
        "region": "Kaduna",
        "country": "Nigeria",
        "lat": 11.34,
        "long": 7.98,
        "elev ft": 2509,
        "pop est": 10433
    },
    {
        "name": "Bebe",
        "what": "city",
        "region": "Kaduna",
        "country": "Nigeria",
        "lat": 9.31,
        "long": 8.03,
        "elev ft": 1958,
        "pop est": 10540
    },
    {
        "name": "Bede",
        "what": "city",
        "region": "Kaduna",
        "country": "Nigeria",
        "lat": 9.31,
        "long": 8.03,
        "elev ft": 1958,
        "pop est": 10540
    },
    {
        "name": "Bele",
        "what": "city",
        "region": "Kaduna",
        "country": "Nigeria",
        "lat": 10.94,
        "long": 8.04,
        "elev ft": 2066,
        "pop est": 14751
    },
    {
        "name": "Bereda",
        "what": "city",
        "region": "Kaduna",
        "country": "Nigeria",
        "lat": 11.21,
        "long": 8.39,
        "elev ft": 2066,
        "pop est": 13518
    },
    {
        "name": "Bida",
        "what": "city",
        "region": "Kaduna",
        "country": "Nigeria",
        "lat": 10.57,
        "long": 7.2,
        "elev ft": 1820,
        "pop est": 401
    },
    {
        "name": "Bigbel",
        "what": "city",
        "region": "Kaduna",
        "country": "Nigeria",
        "lat": 9.27,
        "long": 8.61,
        "elev ft": 2509,
        "pop est": 10132
    },
    {
        "name": "Bigyel",
        "what": "city",
        "region": "Kaduna",
        "country": "Nigeria",
        "lat": 9.27,
        "long": 8.61,
        "elev ft": 2509,
        "pop est": 10132
    },
    {
        "name": "Bijik",
        "what": "city",
        "region": "Kaduna",
        "country": "Nigeria",
        "lat": 9.51,
        "long": 8.45,
        "elev ft": 1820,
        "pop est": 8235
    },
    {
        "name": "Bijimi",
        "what": "city",
        "region": "Kaduna",
        "country": "Nigeria",
        "lat": 10.58,
        "long": 8.8,
        "elev ft": 2509,
        "pop est": 10604
    },
    {
        "name": "Bika",
        "what": "city",
        "region": "Kaduna",
        "country": "Nigeria",
        "lat": 9.73,
        "long": 7.93,
        "elev ft": 2509,
        "pop est": 5364
    },
    {
        "name": "Bikal",
        "what": "city",
        "region": "Kaduna",
        "country": "Nigeria",
        "lat": 10.09,
        "long": 8.25,
        "elev ft": 2080,
        "pop est": 7765
    },
    {
        "name": "Bikaratu",
        "what": "city",
        "region": "Kaduna",
        "country": "Nigeria",
        "lat": 10.63,
        "long": 7.7,
        "elev ft": 1873,
        "pop est": 2824
    },
    {
        "name": "Bina",
        "what": "city",
        "region": "Kaduna",
        "country": "Nigeria",
        "lat": 10.96,
        "long": 7.5,
        "elev ft": 2007,
        "pop est": 6905
    },
    {
        "name": "Binawa",
        "what": "city",
        "region": "Kaduna",
        "country": "Nigeria",
        "lat": 10.12,
        "long": 8.38,
        "elev ft": 2637,
        "pop est": 7748
    },
    {
        "name": "Binawa",
        "what": "city",
        "region": "Kaduna",
        "country": "Nigeria",
        "lat": 10.13,
        "long": 8.46,
        "elev ft": 2536,
        "pop est": 11309
    },
    {
        "name": "Biniki",
        "what": "city",
        "region": "Kaduna",
        "country": "Nigeria",
        "lat": 9.7,
        "long": 8.51,
        "elev ft": 2847,
        "pop est": 7291
    },
    {
        "name": "Birnawa",
        "what": "city",
        "region": "Kaduna",
        "country": "Nigeria",
        "lat": 10.48,
        "long": 7.43,
        "elev ft": 1863,
        "pop est": 484700
    },
    {
        "name": "Birni-Gwari",
        "what": "city",
        "region": "Kaduna",
        "country": "Nigeria",
        "lat": 11.02,
        "long": 6.78,
        "elev ft": 1893,
        "pop est": 3576
    },
    {
        "name": "Birnin Barwa",
        "what": "city",
        "region": "Kaduna",
        "country": "Nigeria",
        "lat": 10.87,
        "long": 7.77,
        "elev ft": 1922,
        "pop est": 5307
    },
    {
        "name": "Birnin Gwari",
        "what": "city",
        "region": "Kaduna",
        "country": "Nigeria",
        "lat": 10.66,
        "long": 6.54,
        "elev ft": 1669,
        "pop est": 3725
    },
    {
        "name": "Birnin Yero",
        "what": "city",
        "region": "Kaduna",
        "country": "Nigeria",
        "lat": 10.79,
        "long": 7.55,
        "elev ft": 2509,
        "pop est": 2831
    },
    {
        "name": "Birnin-Gwari",
        "what": "city",
        "region": "Kaduna",
        "country": "Nigeria",
        "lat": 11.02,
        "long": 6.78,
        "elev ft": 1893,
        "pop est": 3576
    },
    {
        "name": "Birugu",
        "what": "city",
        "region": "Kaduna",
        "country": "Nigeria",
        "lat": 10.42,
        "long": 7.07,
        "elev ft": 1866,
        "pop est": 0
    },
    {
        "name": "Bisaye",
        "what": "city",
        "region": "Kaduna",
        "country": "Nigeria",
        "lat": 9.54,
        "long": 7.36,
        "elev ft": 1715,
        "pop est": 5718
    },
    {
        "name": "Bishini",
        "what": "city",
        "region": "Kaduna",
        "country": "Nigeria",
        "lat": 9.61,
        "long": 7.43,
        "elev ft": 1755,
        "pop est": 5364
    },
    {
        "name": "Bital",
        "what": "city",
        "region": "Kaduna",
        "country": "Nigeria",
        "lat": 10.25,
        "long": 8.27,
        "elev ft": 2509,
        "pop est": 7748
    },
    {
        "name": "Bitari",
        "what": "city",
        "region": "Kaduna",
        "country": "Nigeria",
        "lat": 10.51,
        "long": 6.17,
        "elev ft": 1056,
        "pop est": 3734
    },
    {
        "name": "Bitaro",
        "what": "city",
        "region": "Kaduna",
        "country": "Nigeria",
        "lat": 9.49,
        "long": 7.97,
        "elev ft": 2509,
        "pop est": 10033
    },
    {
        "name": "Biye",
        "what": "city",
        "region": "Kaduna",
        "country": "Nigeria",
        "lat": 11.16,
        "long": 7.58,
        "elev ft": 2509,
        "pop est": 77207
    },
    {
        "name": "Bogari",
        "what": "city",
        "region": "Kaduna",
        "country": "Nigeria",
        "lat": 11.02,
        "long": 7.77,
        "elev ft": 1994,
        "pop est": 199521
    },
    {
        "name": "Bongo",
        "what": "city",
        "region": "Kaduna",
        "country": "Nigeria",
        "lat": 10.65,
        "long": 7.68,
        "elev ft": 1889,
        "pop est": 2831
    },
    {
        "name": "Bonkwa",
        "what": "city",
        "region": "Kaduna",
        "country": "Nigeria",
        "lat": 9.71,
        "long": 8.29,
        "elev ft": 2509,
        "pop est": 8046
    },
    {
        "name": "Bora Chori",
        "what": "city",
        "region": "Kaduna",
        "country": "Nigeria",
        "lat": 9.44,
        "long": 8.06,
        "elev ft": 2509,
        "pop est": 26407
    },
    {
        "name": "Borrakin Chori",
        "what": "city",
        "region": "Kaduna",
        "country": "Nigeria",
        "lat": 9.5,
        "long": 8.05,
        "elev ft": 2509,
        "pop est": 23786
    },
    {
        "name": "Bot",
        "what": "city",
        "region": "Kaduna",
        "country": "Nigeria",
        "lat": 9.68,
        "long": 8.31,
        "elev ft": 2565,
        "pop est": 8028
    },
    {
        "name": "Brinya",
        "what": "city",
        "region": "Kaduna",
        "country": "Nigeria",
        "lat": 9.62,
        "long": 7.36,
        "elev ft": 2047,
        "pop est": 6110
    },
    {
        "name": "Buda",
        "what": "city",
        "region": "Kaduna",
        "country": "Nigeria",
        "lat": 11.11,
        "long": 7.47,
        "elev ft": 2080,
        "pop est": 12963
    },
    {
        "name": "Bugau",
        "what": "city",
        "region": "Kaduna",
        "country": "Nigeria",
        "lat": 10.94,
        "long": 8.43,
        "elev ft": 2509,
        "pop est": 13261
    },
    {
        "name": "Bula",
        "what": "city",
        "region": "Kaduna",
        "country": "Nigeria",
        "lat": 10.93,
        "long": 7.13,
        "elev ft": 2043,
        "pop est": 5811
    },
    {
        "name": "Bunsura",
        "what": "city",
        "region": "Kaduna",
        "country": "Nigeria",
        "lat": 11.19,
        "long": 8.4,
        "elev ft": 2509,
        "pop est": 13479
    },
    {
        "name": "Burji",
        "what": "city",
        "region": "Kaduna",
        "country": "Nigeria",
        "lat": 11.17,
        "long": 8.55,
        "elev ft": 1952,
        "pop est": 13478
    },
    {
        "name": "Burkornu",
        "what": "city",
        "region": "Kaduna",
        "country": "Nigeria",
        "lat": 10.63,
        "long": 7.61,
        "elev ft": 1850,
        "pop est": 2831
    },
    {
        "name": "Buruku",
        "what": "city",
        "region": "Kaduna",
        "country": "Nigeria",
        "lat": 10.62,
        "long": 7.23,
        "elev ft": 1899,
        "pop est": 1425
    },
    {
        "name": "Burumburum",
        "what": "city",
        "region": "Kaduna",
        "country": "Nigeria",
        "lat": 11.39,
        "long": 8.72,
        "elev ft": 1955,
        "pop est": 17685
    },
    {
        "name": "Butari",
        "what": "city",
        "region": "Kaduna",
        "country": "Nigeria",
        "lat": 11.19,
        "long": 8.38,
        "elev ft": 1961,
        "pop est": 13433
    },
    {
        "name": "Butswan",
        "what": "city",
        "region": "Kaduna",
        "country": "Nigeria",
        "lat": 9.63,
        "long": 8.02,
        "elev ft": 2509,
        "pop est": 5364
    },
    {
        "name": "Buzai",
        "what": "city",
        "region": "Kaduna",
        "country": "Nigeria",
        "lat": 9.62,
        "long": 7.9,
        "elev ft": 2509,
        "pop est": 5364
    },
    {
        "name": "Bwashishi",
        "what": "city",
        "region": "Kaduna",
        "country": "Nigeria",
        "lat": 10.19,
        "long": 7.22,
        "elev ft": 1925,
        "pop est": 0
    },
    {
        "name": "Chagwa",
        "what": "city",
        "region": "Kaduna",
        "country": "Nigeria",
        "lat": 10.19,
        "long": 7.0,
        "elev ft": 1755,
        "pop est": 1470
    },
    {
        "name": "Chakwama",
        "what": "city",
        "region": "Kaduna",
        "country": "Nigeria",
        "lat": 9.44,
        "long": 7.36,
        "elev ft": 2509,
        "pop est": 5364
    },
    {
        "name": "Chanchuk",
        "what": "city",
        "region": "Kaduna",
        "country": "Nigeria",
        "lat": 9.62,
        "long": 8.22,
        "elev ft": 2509,
        "pop est": 11913
    },
    {
        "name": "Chara",
        "what": "city",
        "region": "Kaduna",
        "country": "Nigeria",
        "lat": 11.16,
        "long": 8.42,
        "elev ft": 2047,
        "pop est": 13389
    },
    {
        "name": "Charika",
        "what": "city",
        "region": "Kaduna",
        "country": "Nigeria",
        "lat": 11.09,
        "long": 8.24,
        "elev ft": 2509,
        "pop est": 13261
    },
    {
        "name": "Charika Maiwada",
        "what": "city",
        "region": "Kaduna",
        "country": "Nigeria",
        "lat": 11.11,
        "long": 8.24,
        "elev ft": 2509,
        "pop est": 13261
    },
    {
        "name": "Chi-Patake",
        "what": "city",
        "region": "Kaduna",
        "country": "Nigeria",
        "lat": 10.76,
        "long": 7.46,
        "elev ft": 2509,
        "pop est": 2831
    },
    {
        "name": "Chidunu",
        "what": "city",
        "region": "Kaduna",
        "country": "Nigeria",
        "lat": 10.39,
        "long": 7.49,
        "elev ft": 1994,
        "pop est": 126169
    },
    {
        "name": "Chigwa",
        "what": "city",
        "region": "Kaduna",
        "country": "Nigeria",
        "lat": 9.37,
        "long": 7.82,
        "elev ft": 2509,
        "pop est": 5364
    },
    {
        "name": "Chigwa",
        "what": "city",
        "region": "Kaduna",
        "country": "Nigeria",
        "lat": 9.35,
        "long": 7.8,
        "elev ft": 2509,
        "pop est": 5408
    },
    {
        "name": "Chikun",
        "what": "city",
        "region": "Kaduna",
        "country": "Nigeria",
        "lat": 10.27,
        "long": 7.11,
        "elev ft": 1751,
        "pop est": 170
    },
    {
        "name": "Chimana",
        "what": "city",
        "region": "Kaduna",
        "country": "Nigeria",
        "lat": 10.73,
        "long": 7.29,
        "elev ft": 1932,
        "pop est": 2831
    },
    {
        "name": "Chindu",
        "what": "city",
        "region": "Kaduna",
        "country": "Nigeria",
        "lat": 9.21,
        "long": 8.19,
        "elev ft": 1669,
        "pop est": 10132
    },
    {
        "name": "Chirani",
        "what": "city",
        "region": "Kaduna",
        "country": "Nigeria",
        "lat": 9.87,
        "long": 8.26,
        "elev ft": 2509,
        "pop est": 8046
    },
    {
        "name": "Chiroma",
        "what": "city",
        "region": "Kaduna",
        "country": "Nigeria",
        "lat": 11.2,
        "long": 8.17,
        "elev ft": 2509,
        "pop est": 13261
    },
    {
        "name": "Chivi",
        "what": "city",
        "region": "Kaduna",
        "country": "Nigeria",
        "lat": 9.45,
        "long": 7.25,
        "elev ft": 1853,
        "pop est": 4228
    },
    {
        "name": "Chori",
        "what": "city",
        "region": "Kaduna",
        "country": "Nigeria",
        "lat": 9.53,
        "long": 8.08,
        "elev ft": 2509,
        "pop est": 23119
    },
    {
        "name": "Chori",
        "what": "city",
        "region": "Kaduna",
        "country": "Nigeria",
        "lat": 9.53,
        "long": 8.07,
        "elev ft": 2509,
        "pop est": 21597
    },
    {
        "name": "Chori",
        "what": "city",
        "region": "Kaduna",
        "country": "Nigeria",
        "lat": 9.52,
        "long": 8.11,
        "elev ft": 2509,
        "pop est": 26937
    },
    {
        "name": "Chubu",
        "what": "city",
        "region": "Kaduna",
        "country": "Nigeria",
        "lat": 9.13,
        "long": 8.22,
        "elev ft": 1669,
        "pop est": 10132
    },
    {
        "name": "Cigwa",
        "what": "city",
        "region": "Kaduna",
        "country": "Nigeria",
        "lat": 9.37,
        "long": 7.82,
        "elev ft": 2509,
        "pop est": 5364
    },
    {
        "name": "Cigwa Daji",
        "what": "city",
        "region": "Kaduna",
        "country": "Nigeria",
        "lat": 9.35,
        "long": 7.8,
        "elev ft": 2509,
        "pop est": 5408
    },
    {
        "name": "Cila",
        "what": "city",
        "region": "Kaduna",
        "country": "Nigeria",
        "lat": 9.39,
        "long": 7.71,
        "elev ft": 2519,
        "pop est": 5403
    },
    {
        "name": "Cucula",
        "what": "city",
        "region": "Kaduna",
        "country": "Nigeria",
        "lat": 9.37,
        "long": 7.76,
        "elev ft": 2509,
        "pop est": 5419
    },
    {
        "name": "Cukula Daji",
        "what": "city",
        "region": "Kaduna",
        "country": "Nigeria",
        "lat": 9.36,
        "long": 7.76,
        "elev ft": 2509,
        "pop est": 5465
    },
    {
        "name": "Dabo",
        "what": "city",
        "region": "Kaduna",
        "country": "Nigeria",
        "lat": 9.77,
        "long": 8.53,
        "elev ft": 2916,
        "pop est": 7699
    },
    {
        "name": "Dadin Kowa",
        "what": "city",
        "region": "Kaduna",
        "country": "Nigeria",
        "lat": 11.27,
        "long": 7.97,
        "elev ft": 2014,
        "pop est": 5316
    },
    {
        "name": "Dadin Kowa",
        "what": "city",
        "region": "Kaduna",
        "country": "Nigeria",
        "lat": 10.7,
        "long": 8.63,
        "elev ft": 2509,
        "pop est": 13501
    },
    {
        "name": "Dagara",
        "what": "city",
        "region": "Kaduna",
        "country": "Nigeria",
        "lat": 10.73,
        "long": 6.4,
        "elev ft": 1669,
        "pop est": 3725
    },
    {
        "name": "Dagara",
        "what": "city",
        "region": "Kaduna",
        "country": "Nigeria",
        "lat": 11.06,
        "long": 7.22,
        "elev ft": 2066,
        "pop est": 12126
    },
    {
        "name": "Dagwarga",
        "what": "city",
        "region": "Kaduna",
        "country": "Nigeria",
        "lat": 9.74,
        "long": 7.97,
        "elev ft": 2509,
        "pop est": 5581
    },
    {
        "name": "Dajin Gafuri",
        "what": "city",
        "region": "Kaduna",
        "country": "Nigeria",
        "lat": 9.82,
        "long": 8.28,
        "elev ft": 2526,
        "pop est": 8046
    },
    {
        "name": "Dajin Gafuri",
        "what": "city",
        "region": "Kaduna",
        "country": "Nigeria",
        "lat": 9.85,
        "long": 8.27,
        "elev ft": 2519,
        "pop est": 8046
    },
    {
        "name": "Dajin Lafat",
        "what": "city",
        "region": "Kaduna",
        "country": "Nigeria",
        "lat": 9.93,
        "long": 8.33,
        "elev ft": 2519,
        "pop est": 8046
    },
    {
        "name": "Dajin Pama",
        "what": "city",
        "region": "Kaduna",
        "country": "Nigeria",
        "lat": 9.95,
        "long": 8.33,
        "elev ft": 2509,
        "pop est": 8026
    },
    {
        "name": "Dakabi",
        "what": "city",
        "region": "Kaduna",
        "country": "Nigeria",
        "lat": 11.12,
        "long": 7.25,
        "elev ft": 2034,
        "pop est": 12978
    },
    {
        "name": "Dakabusi",
        "what": "city",
        "region": "Kaduna",
        "country": "Nigeria",
        "lat": 9.4,
        "long": 7.69,
        "elev ft": 2509,
        "pop est": 5365
    },
    {
        "name": "Dakace",
        "what": "city",
        "region": "Kaduna",
        "country": "Nigeria",
        "lat": 11.08,
        "long": 7.76,
        "elev ft": 1978,
        "pop est": 293433
    },
    {
        "name": "Dako",
        "what": "city",
        "region": "Kaduna",
        "country": "Nigeria",
        "lat": 9.4,
        "long": 7.7,
        "elev ft": 2509,
        "pop est": 5364
    },
    {
        "name": "Dako",
        "what": "city",
        "region": "Kaduna",
        "country": "Nigeria",
        "lat": 11.13,
        "long": 8.2,
        "elev ft": 2509,
        "pop est": 13261
    },
    {
        "name": "Dakunu",
        "what": "city",
        "region": "Kaduna",
        "country": "Nigeria",
        "lat": 10.22,
        "long": 7.04,
        "elev ft": 1709,
        "pop est": 1541
    },
    {
        "name": "Dakwala",
        "what": "city",
        "region": "Kaduna",
        "country": "Nigeria",
        "lat": 10.42,
        "long": 7.04,
        "elev ft": 1925,
        "pop est": 0
    },
    {
        "name": "Dallatu",
        "what": "city",
        "region": "Kaduna",
        "country": "Nigeria",
        "lat": 10.85,
        "long": 7.47,
        "elev ft": 2509,
        "pop est": 2831
    },
    {
        "name": "Dalle",
        "what": "city",
        "region": "Kaduna",
        "country": "Nigeria",
        "lat": 9.41,
        "long": 8.22,
        "elev ft": 1876,
        "pop est": 10132
    },
    {
        "name": "Dalma",
        "what": "city",
        "region": "Kaduna",
        "country": "Nigeria",
        "lat": 10.79,
        "long": 8.26,
        "elev ft": 2509,
        "pop est": 13261
    },
    {
        "name": "Damakasuwa",
        "what": "city",
        "region": "Kaduna",
        "country": "Nigeria",
        "lat": 9.97,
        "long": 8.54,
        "elev ft": 2814,
        "pop est": 10389
    },
    {
        "name": "Damari",
        "what": "city",
        "region": "Kaduna",
        "country": "Nigeria",
        "lat": 10.57,
        "long": 6.87,
        "elev ft": 1886,
        "pop est": 1569
    },
    {
        "name": "Damau",
        "what": "city",
        "region": "Kaduna",
        "country": "Nigeria",
        "lat": 10.9,
        "long": 8.44,
        "elev ft": 2509,
        "pop est": 13261
    },
    {
        "name": "Damba",
        "what": "city",
        "region": "Kaduna",
        "country": "Nigeria",
        "lat": 10.48,
        "long": 7.2,
        "elev ft": 2007,
        "pop est": 525
    },
    {
        "name": "Dambo",
        "what": "city",
        "region": "Kaduna",
        "country": "Nigeria",
        "lat": 11.07,
        "long": 7.78,
        "elev ft": 2007,
        "pop est": 219696
    },
    {
        "name": "Damina",
        "what": "city",
        "region": "Kaduna",
        "country": "Nigeria",
        "lat": 11.25,
        "long": 8.19,
        "elev ft": 2024,
        "pop est": 13261
    },
    {
        "name": "Damou",
        "what": "city",
        "region": "Kaduna",
        "country": "Nigeria",
        "lat": 10.37,
        "long": 8.6,
        "elev ft": 2509,
        "pop est": 12665
    },
    {
        "name": "Dan Alhaji",
        "what": "city",
        "region": "Kaduna",
        "country": "Nigeria",
        "lat": 10.53,
        "long": 8.69,
        "elev ft": 2778,
        "pop est": 13064
    },
    {
        "name": "Dan Alhaji",
        "what": "city",
        "region": "Kaduna",
        "country": "Nigeria",
        "lat": 10.42,
        "long": 8.53,
        "elev ft": 2509,
        "pop est": 12665
    },
    {
        "name": "Dan Azumi",
        "what": "city",
        "region": "Kaduna",
        "country": "Nigeria",
        "lat": 11.02,
        "long": 8.11,
        "elev ft": 2509,
        "pop est": 13914
    },
    {
        "name": "Dan Bami",
        "what": "city",
        "region": "Kaduna",
        "country": "Nigeria",
        "lat": 11.22,
        "long": 7.7,
        "elev ft": 2020,
        "pop est": 62625
    },
    {
        "name": "Dan Damisa",
        "what": "city",
        "region": "Kaduna",
        "country": "Nigeria",
        "lat": 11.23,
        "long": 7.84,
        "elev ft": 2060,
        "pop est": 2980
    },
    {
        "name": "Dan Galadima",
        "what": "city",
        "region": "Kaduna",
        "country": "Nigeria",
        "lat": 10.79,
        "long": 8.17,
        "elev ft": 2063,
        "pop est": 14112
    },
    {
        "name": "Dan Galadima",
        "what": "city",
        "region": "Kaduna",
        "country": "Nigeria",
        "lat": 10.87,
        "long": 7.48,
        "elev ft": 2089,
        "pop est": 2831
    },
    {
        "name": "Dan Jaba",
        "what": "city",
        "region": "Kaduna",
        "country": "Nigeria",
        "lat": 10.38,
        "long": 8.63,
        "elev ft": 2509,
        "pop est": 12665
    },
    {
        "name": "Dan Jaba",
        "what": "city",
        "region": "Kaduna",
        "country": "Nigeria",
        "lat": 10.84,
        "long": 7.86,
        "elev ft": 2007,
        "pop est": 13790
    },
    {
        "name": "Dan Juma",
        "what": "city",
        "region": "Kaduna",
        "country": "Nigeria",
        "lat": 11.16,
        "long": 8.31,
        "elev ft": 1971,
        "pop est": 13295
    },
    {
        "name": "Dan Kade",
        "what": "city",
        "region": "Kaduna",
        "country": "Nigeria",
        "lat": 10.76,
        "long": 8.23,
        "elev ft": 2027,
        "pop est": 13261
    },
    {
        "name": "Dan Kande",
        "what": "city",
        "region": "Kaduna",
        "country": "Nigeria",
        "lat": 11.04,
        "long": 8.15,
        "elev ft": 2509,
        "pop est": 13426
    },
    {
        "name": "Dan Kano",
        "what": "city",
        "region": "Kaduna",
        "country": "Nigeria",
        "lat": 11.24,
        "long": 7.35,
        "elev ft": 1998,
        "pop est": 12963
    },
    {
        "name": "Dan Ladi",
        "what": "city",
        "region": "Kaduna",
        "country": "Nigeria",
        "lat": 11.29,
        "long": 8.22,
        "elev ft": 1922,
        "pop est": 18922
    },
    {
        "name": "Dan Ladi (4)",
        "what": "city",
        "region": "Kaduna",
        "country": "Nigeria",
        "lat": 11.4,
        "long": 8.1,
        "elev ft": 2086,
        "pop est": 13293
    },
    {
        "name": "Dan Ladi 4",
        "what": "city",
        "region": "Kaduna",
        "country": "Nigeria",
        "lat": 11.4,
        "long": 8.1,
        "elev ft": 2086,
        "pop est": 13293
    },
    {
        "name": "Dan Lami (1)",
        "what": "city",
        "region": "Kaduna",
        "country": "Nigeria",
        "lat": 11.41,
        "long": 8.16,
        "elev ft": 2011,
        "pop est": 19712
    },
    {
        "name": "Dan Lami (2)",
        "what": "city",
        "region": "Kaduna",
        "country": "Nigeria",
        "lat": 11.01,
        "long": 8.07,
        "elev ft": 2509,
        "pop est": 14576
    },
    {
        "name": "Dan Lami 1",
        "what": "city",
        "region": "Kaduna",
        "country": "Nigeria",
        "lat": 11.41,
        "long": 8.16,
        "elev ft": 2011,
        "pop est": 19712
    },
    {
        "name": "Dan Lami 2",
        "what": "city",
        "region": "Kaduna",
        "country": "Nigeria",
        "lat": 11.01,
        "long": 8.07,
        "elev ft": 2509,
        "pop est": 14576
    },
    {
        "name": "Dan Lawal",
        "what": "city",
        "region": "Kaduna",
        "country": "Nigeria",
        "lat": 11.21,
        "long": 8.18,
        "elev ft": 2509,
        "pop est": 13261
    },
    {
        "name": "Dan Maliki",
        "what": "city",
        "region": "Kaduna",
        "country": "Nigeria",
        "lat": 10.59,
        "long": 8.35,
        "elev ft": 2066,
        "pop est": 13237
    },
    {
        "name": "Dan Sambo",
        "what": "city",
        "region": "Kaduna",
        "country": "Nigeria",
        "lat": 11.35,
        "long": 8.0,
        "elev ft": 2509,
        "pop est": 12994
    },
    {
        "name": "Dan Taro",
        "what": "city",
        "region": "Kaduna",
        "country": "Nigeria",
        "lat": 11.26,
        "long": 7.78,
        "elev ft": 2034,
        "pop est": 8254
    },
    {
        "name": "Dan Waire",
        "what": "city",
        "region": "Kaduna",
        "country": "Nigeria",
        "lat": 11.2,
        "long": 7.37,
        "elev ft": 1998,
        "pop est": 12963
    },
    {
        "name": "Dan Wata",
        "what": "city",
        "region": "Kaduna",
        "country": "Nigeria",
        "lat": 10.94,
        "long": 8.19,
        "elev ft": 2509,
        "pop est": 13574
    },
    {
        "name": "Dan-Bakaba",
        "what": "city",
        "region": "Kaduna",
        "country": "Nigeria",
        "lat": 11.3,
        "long": 6.98,
        "elev ft": 2060,
        "pop est": 7394
    },
    {
        "name": "Danbaki",
        "what": "city",
        "region": "Kaduna",
        "country": "Nigeria",
        "lat": 9.83,
        "long": 7.62,
        "elev ft": 2509,
        "pop est": 5364
    },
    {
        "name": "Danbaki",
        "what": "city",
        "region": "Kaduna",
        "country": "Nigeria",
        "lat": 9.82,
        "long": 7.67,
        "elev ft": 2509,
        "pop est": 5364
    },
    {
        "name": "Danbazau",
        "what": "city",
        "region": "Kaduna",
        "country": "Nigeria",
        "lat": 11.36,
        "long": 8.79,
        "elev ft": 1945,
        "pop est": 19130
    },
    {
        "name": "Danbazau",
        "what": "city",
        "region": "Kaduna",
        "country": "Nigeria",
        "lat": 11.36,
        "long": 8.79,
        "elev ft": 1945,
        "pop est": 20019
    },
    {
        "name": "Dandan",
        "what": "city",
        "region": "Kaduna",
        "country": "Nigeria",
        "lat": 9.71,
        "long": 8.06,
        "elev ft": 2509,
        "pop est": 7277
    },
    {
        "name": "Dandoki",
        "what": "city",
        "region": "Kaduna",
        "country": "Nigeria",
        "lat": 10.73,
        "long": 8.61,
        "elev ft": 2509,
        "pop est": 13415
    },
    {
        "name": "Dandole",
        "what": "city",
        "region": "Kaduna",
        "country": "Nigeria",
        "lat": 10.36,
        "long": 8.51,
        "elev ft": 2509,
        "pop est": 12665
    },
    {
        "name": "Dandure",
        "what": "city",
        "region": "Kaduna",
        "country": "Nigeria",
        "lat": 10.35,
        "long": 8.49,
        "elev ft": 2509,
        "pop est": 12665
    },
    {
        "name": "Dangangi",
        "what": "city",
        "region": "Kaduna",
        "country": "Nigeria",
        "lat": 11.02,
        "long": 6.59,
        "elev ft": 1669,
        "pop est": 4367
    },
    {
        "name": "Dangobe",
        "what": "city",
        "region": "Kaduna",
        "country": "Nigeria",
        "lat": 9.95,
        "long": 8.4,
        "elev ft": 2532,
        "pop est": 8063
    },
    {
        "name": "Dangoma",
        "what": "city",
        "region": "Kaduna",
        "country": "Nigeria",
        "lat": 9.51,
        "long": 8.33,
        "elev ft": 2539,
        "pop est": 11175
    },
    {
        "name": "Dangoma",
        "what": "city",
        "region": "Kaduna",
        "country": "Nigeria",
        "lat": 9.49,
        "long": 8.32,
        "elev ft": 2509,
        "pop est": 9977
    },
    {
        "name": "Dankutu",
        "what": "city",
        "region": "Kaduna",
        "country": "Nigeria",
        "lat": 10.68,
        "long": 6.8,
        "elev ft": 1814,
        "pop est": 1731
    },
    {
        "name": "Danza",
        "what": "city",
        "region": "Kaduna",
        "country": "Nigeria",
        "lat": 11.13,
        "long": 7.51,
        "elev ft": 2509,
        "pop est": 12963
    },
    {
        "name": "Dare Biyar",
        "what": "city",
        "region": "Kaduna",
        "country": "Nigeria",
        "lat": 11.08,
        "long": 8.3,
        "elev ft": 2509,
        "pop est": 13261
    },
    {
        "name": "Dariya",
        "what": "city",
        "region": "Kaduna",
        "country": "Nigeria",
        "lat": 10.66,
        "long": 8.81,
        "elev ft": 2509,
        "pop est": 13164
    },
    {
        "name": "Dau",
        "what": "city",
        "region": "Kaduna",
        "country": "Nigeria",
        "lat": 11.22,
        "long": 8.09,
        "elev ft": 2509,
        "pop est": 12022
    },
    {
        "name": "Dauda",
        "what": "city",
        "region": "Kaduna",
        "country": "Nigeria",
        "lat": 9.37,
        "long": 8.03,
        "elev ft": 2053,
        "pop est": 22068
    },
    {
        "name": "Daudu Kashabushi",
        "what": "city",
        "region": "Kaduna",
        "country": "Nigeria",
        "lat": 11.13,
        "long": 7.01,
        "elev ft": 2043,
        "pop est": 3576
    },
    {
        "name": "Dawaki",
        "what": "city",
        "region": "Kaduna",
        "country": "Nigeria",
        "lat": 9.74,
        "long": 8.42,
        "elev ft": 2637,
        "pop est": 8046
    },
    {
        "name": "Dawaki",
        "what": "city",
        "region": "Kaduna",
        "country": "Nigeria",
        "lat": 9.72,
        "long": 8.41,
        "elev ft": 2644,
        "pop est": 8017
    },
    {
        "name": "Dawakin Bassa",
        "what": "city",
        "region": "Kaduna",
        "country": "Nigeria",
        "lat": 10.56,
        "long": 6.32,
        "elev ft": 1197,
        "pop est": 3725
    },
    {
        "name": "Dawka",
        "what": "city",
        "region": "Kaduna",
        "country": "Nigeria",
        "lat": 10.59,
        "long": 7.53,
        "elev ft": 1932,
        "pop est": 77698
    },
    {
        "name": "Dega",
        "what": "city",
        "region": "Kaduna",
        "country": "Nigeria",
        "lat": 10.81,
        "long": 7.29,
        "elev ft": 1889,
        "pop est": 6588
    },
    {
        "name": "Diko",
        "what": "city",
        "region": "Kaduna",
        "country": "Nigeria",
        "lat": 9.4,
        "long": 7.7,
        "elev ft": 2509,
        "pop est": 5364
    },
    {
        "name": "Dinye",
        "what": "city",
        "region": "Kaduna",
        "country": "Nigeria",
        "lat": 11.15,
        "long": 8.01,
        "elev ft": 2509,
        "pop est": 5253
    },
    {
        "name": "Dogara",
        "what": "city",
        "region": "Kaduna",
        "country": "Nigeria",
        "lat": 10.73,
        "long": 6.4,
        "elev ft": 1669,
        "pop est": 3725
    },
    {
        "name": "Dogo Kurmi",
        "what": "city",
        "region": "Kaduna",
        "country": "Nigeria",
        "lat": 9.31,
        "long": 7.31,
        "elev ft": 1669,
        "pop est": 5863
    },
    {
        "name": "Dogo Wdaji",
        "what": "city",
        "region": "Kaduna",
        "country": "Nigeria",
        "lat": 9.22,
        "long": 8.63,
        "elev ft": 2509,
        "pop est": 10132
    },
    {
        "name": "Dogo-Ndaji",
        "what": "city",
        "region": "Kaduna",
        "country": "Nigeria",
        "lat": 9.22,
        "long": 8.63,
        "elev ft": 2509,
        "pop est": 10132
    },
    {
        "name": "Dogon Daji",
        "what": "city",
        "region": "Kaduna",
        "country": "Nigeria",
        "lat": 10.31,
        "long": 8.55,
        "elev ft": 2509,
        "pop est": 12665
    },
    {
        "name": "Dogon Dawa",
        "what": "city",
        "region": "Kaduna",
        "country": "Nigeria",
        "lat": 9.65,
        "long": 7.83,
        "elev ft": 2509,
        "pop est": 5364
    },
    {
        "name": "Dogon Dawa",
        "what": "city",
        "region": "Kaduna",
        "country": "Nigeria",
        "lat": 11.04,
        "long": 7.08,
        "elev ft": 2509,
        "pop est": 3576
    },
    {
        "name": "Dogon Fili",
        "what": "city",
        "region": "Kaduna",
        "country": "Nigeria",
        "lat": 9.46,
        "long": 8.44,
        "elev ft": 1820,
        "pop est": 9960
    },
    {
        "name": "Dogon Kawo",
        "what": "city",
        "region": "Kaduna",
        "country": "Nigeria",
        "lat": 11.17,
        "long": 8.56,
        "elev ft": 1866,
        "pop est": 13478
    },
    {
        "name": "Dogon Kurmi",
        "what": "city",
        "region": "Kaduna",
        "country": "Nigeria",
        "lat": 9.43,
        "long": 7.77,
        "elev ft": 2509,
        "pop est": 5364
    },
    {
        "name": "Dogon Kurmi",
        "what": "city",
        "region": "Kaduna",
        "country": "Nigeria",
        "lat": 9.45,
        "long": 7.77,
        "elev ft": 2509,
        "pop est": 5364
    },
    {
        "name": "Dogon Kurmi",
        "what": "city",
        "region": "Kaduna",
        "country": "Nigeria",
        "lat": 9.44,
        "long": 7.77,
        "elev ft": 2509,
        "pop est": 5364
    },
    {
        "name": "Dogon Kurmi",
        "what": "city",
        "region": "Kaduna",
        "country": "Nigeria",
        "lat": 9.44,
        "long": 7.77,
        "elev ft": 2509,
        "pop est": 5364
    },
    {
        "name": "Dogon-Fili",
        "what": "city",
        "region": "Kaduna",
        "country": "Nigeria",
        "lat": 9.46,
        "long": 8.45,
        "elev ft": 1833,
        "pop est": 10015
    },
    {
        "name": "Dogontudu",
        "what": "city",
        "region": "Kaduna",
        "country": "Nigeria",
        "lat": 9.84,
        "long": 8.01,
        "elev ft": 2526,
        "pop est": 7362
    },
    {
        "name": "Doka",
        "what": "city",
        "region": "Kaduna",
        "country": "Nigeria",
        "lat": 11.36,
        "long": 8.76,
        "elev ft": 1745,
        "pop est": 16392
    },
    {
        "name": "Doka",
        "what": "city",
        "region": "Kaduna",
        "country": "Nigeria",
        "lat": 10.25,
        "long": 7.91,
        "elev ft": 2509,
        "pop est": 0
    },
    {
        "name": "Doka",
        "what": "city",
        "region": "Kaduna",
        "country": "Nigeria",
        "lat": 9.92,
        "long": 7.38,
        "elev ft": 1742,
        "pop est": 5364
    },
    {
        "name": "Doka",
        "what": "city",
        "region": "Kaduna",
        "country": "Nigeria",
        "lat": 11.0,
        "long": 6.57,
        "elev ft": 1669,
        "pop est": 4183
    },
    {
        "name": "Doka",
        "what": "city",
        "region": "Kaduna",
        "country": "Nigeria",
        "lat": 10.6,
        "long": 8.66,
        "elev ft": 2509,
        "pop est": 13177
    },
    {
        "name": "Doka",
        "what": "city",
        "region": "Kaduna",
        "country": "Nigeria",
        "lat": 11.09,
        "long": 7.2,
        "elev ft": 2086,
        "pop est": 11039
    },
    {
        "name": "Doka",
        "what": "city",
        "region": "Kaduna",
        "country": "Nigeria",
        "lat": 11.2,
        "long": 7.42,
        "elev ft": 1994,
        "pop est": 12963
    },
    {
        "name": "Doka",
        "what": "city",
        "region": "Kaduna",
        "country": "Nigeria",
        "lat": 10.28,
        "long": 8.56,
        "elev ft": 2509,
        "pop est": 12665
    },
    {
        "name": "Doki",
        "what": "city",
        "region": "Kaduna",
        "country": "Nigeria",
        "lat": 11.11,
        "long": 8.3,
        "elev ft": 2509,
        "pop est": 13261
    },
    {
        "name": "Dorayi",
        "what": "city",
        "region": "Kaduna",
        "country": "Nigeria",
        "lat": 11.28,
        "long": 8.08,
        "elev ft": 2509,
        "pop est": 13261
    },
    {
        "name": "Duchin Bako Station",
        "what": "city",
        "region": "Kaduna",
        "country": "Nigeria",
        "lat": 9.97,
        "long": 8.15,
        "elev ft": 2509,
        "pop est": 8046
    },
    {
        "name": "Dudu",
        "what": "city",
        "region": "Kaduna",
        "country": "Nigeria",
        "lat": 9.67,
        "long": 7.4,
        "elev ft": 1876,
        "pop est": 5364
    },
    {
        "name": "Dufe",
        "what": "city",
        "region": "Kaduna",
        "country": "Nigeria",
        "lat": 9.45,
        "long": 7.39,
        "elev ft": 1984,
        "pop est": 5364
    },
    {
        "name": "Dufpe",
        "what": "city",
        "region": "Kaduna",
        "country": "Nigeria",
        "lat": 9.45,
        "long": 7.39,
        "elev ft": 1984,
        "pop est": 5364
    },
    {
        "name": "Dufu",
        "what": "city",
        "region": "Kaduna",
        "country": "Nigeria",
        "lat": 9.2,
        "long": 8.29,
        "elev ft": 1669,
        "pop est": 10132
    },
    {
        "name": "Duku",
        "what": "city",
        "region": "Kaduna",
        "country": "Nigeria",
        "lat": 11.26,
        "long": 8.17,
        "elev ft": 2047,
        "pop est": 13261
    },
    {
        "name": "Duku",
        "what": "city",
        "region": "Kaduna",
        "country": "Nigeria",
        "lat": 10.17,
        "long": 7.31,
        "elev ft": 1706,
        "pop est": 0
    },
    {
        "name": "Dumali",
        "what": "city",
        "region": "Kaduna",
        "country": "Nigeria",
        "lat": 9.56,
        "long": 7.33,
        "elev ft": 1679,
        "pop est": 6780
    },
    {
        "name": "Dunki",
        "what": "city",
        "region": "Kaduna",
        "country": "Nigeria",
        "lat": 10.95,
        "long": 7.55,
        "elev ft": 2050,
        "pop est": 5357
    },
    {
        "name": "Duntse",
        "what": "city",
        "region": "Kaduna",
        "country": "Nigeria",
        "lat": 9.29,
        "long": 8.22,
        "elev ft": 1669,
        "pop est": 10132
    },
    {
        "name": "Dunya",
        "what": "city",
        "region": "Kaduna",
        "country": "Nigeria",
        "lat": 11.22,
        "long": 6.98,
        "elev ft": 2047,
        "pop est": 5993
    },
    {
        "name": "Durubawa",
        "what": "city",
        "region": "Kaduna",
        "country": "Nigeria",
        "lat": 11.13,
        "long": 8.52,
        "elev ft": 2027,
        "pop est": 13441
    },
    {
        "name": "Durum",
        "what": "city",
        "region": "Kaduna",
        "country": "Nigeria",
        "lat": 11.29,
        "long": 7.96,
        "elev ft": 2050,
        "pop est": 6133
    },
    {
        "name": "Dusa Ma",
        "what": "city",
        "region": "Kaduna",
        "country": "Nigeria",
        "lat": 10.85,
        "long": 7.7,
        "elev ft": 2509,
        "pop est": 2831
    },
    {
        "name": "Dusa Mai",
        "what": "city",
        "region": "Kaduna",
        "country": "Nigeria",
        "lat": 10.85,
        "long": 7.7,
        "elev ft": 2509,
        "pop est": 2831
    },
    {
        "name": "Dustun Kadun",
        "what": "city",
        "region": "Kaduna",
        "country": "Nigeria",
        "lat": 9.65,
        "long": 7.71,
        "elev ft": 2020,
        "pop est": 5364
    },
    {
        "name": "Dutsan Wai",
        "what": "city",
        "region": "Kaduna",
        "country": "Nigeria",
        "lat": 10.85,
        "long": 8.2,
        "elev ft": 2509,
        "pop est": 14337
    },
    {
        "name": "Dutsen Giginia",
        "what": "city",
        "region": "Kaduna",
        "country": "Nigeria",
        "lat": 10.73,
        "long": 8.59,
        "elev ft": 2509,
        "pop est": 13361
    },
    {
        "name": "Dutsen Mai",
        "what": "city",
        "region": "Kaduna",
        "country": "Nigeria",
        "lat": 10.89,
        "long": 7.7,
        "elev ft": 2509,
        "pop est": 23600
    },
    {
        "name": "Dutsen Wai",
        "what": "city",
        "region": "Kaduna",
        "country": "Nigeria",
        "lat": 10.85,
        "long": 8.2,
        "elev ft": 2509,
        "pop est": 14337
    },
    {
        "name": "Dutsin Bako",
        "what": "city",
        "region": "Kaduna",
        "country": "Nigeria",
        "lat": 9.97,
        "long": 8.15,
        "elev ft": 2509,
        "pop est": 8046
    },
    {
        "name": "Dutsin Kadun",
        "what": "city",
        "region": "Kaduna",
        "country": "Nigeria",
        "lat": 9.65,
        "long": 7.71,
        "elev ft": 2020,
        "pop est": 5364
    },
    {
        "name": "Encha",
        "what": "city",
        "region": "Kaduna",
        "country": "Nigeria",
        "lat": 9.13,
        "long": 8.44,
        "elev ft": 1669,
        "pop est": 10132
    },
    {
        "name": "Eriebok",
        "what": "city",
        "region": "Kaduna",
        "country": "Nigeria",
        "lat": 9.68,
        "long": 8.29,
        "elev ft": 2519,
        "pop est": 8046
    },
    {
        "name": "Fada",
        "what": "city",
        "region": "Kaduna",
        "country": "Nigeria",
        "lat": 9.56,
        "long": 8.29,
        "elev ft": 2509,
        "pop est": 63309
    },
    {
        "name": "Fadaman Kale",
        "what": "city",
        "region": "Kaduna",
        "country": "Nigeria",
        "lat": 11.3,
        "long": 8.11,
        "elev ft": 2057,
        "pop est": 13261
    },
    {
        "name": "Fadan Chawai",
        "what": "city",
        "region": "Kaduna",
        "country": "Nigeria",
        "lat": 9.95,
        "long": 8.6,
        "elev ft": 3349,
        "pop est": 10322
    },
    {
        "name": "Fadan Ikulu",
        "what": "city",
        "region": "Kaduna",
        "country": "Nigeria",
        "lat": 9.93,
        "long": 8.3,
        "elev ft": 2509,
        "pop est": 8046
    },
    {
        "name": "Fadan Ikulu",
        "what": "city",
        "region": "Kaduna",
        "country": "Nigeria",
        "lat": 9.93,
        "long": 8.23,
        "elev ft": 2509,
        "pop est": 8046
    },