[
    {
        "name": "Abarsh",
        "what": "city",
        "region": "Kebbi",
        "country": "Nigeria",
        "lat": 12.12,
        "long": 3.86,
        "elev ft": 830,
        "pop est": 10953
    },
    {
        "name": "Abdul Rahini",
        "what": "city",
        "region": "Kebbi",
        "country": "Nigeria",
        "lat": 12.39,
        "long": 4.53,
        "elev ft": 853,
        "pop est": 17320
    },
    {
        "name": "Achikaratu Ubandawaki",
        "what": "city",
        "region": "Kebbi",
        "country": "Nigeria",
        "lat": 11.99,
        "long": 4.3,
        "elev ft": 830,
        "pop est": 13093
    },
    {
        "name": "Adakaka",
        "what": "city",
        "region": "Kebbi",
        "country": "Nigeria",
        "lat": 12.33,
        "long": 3.83,
        "elev ft": 830,
        "pop est": 4172
    },
    {
        "name": "Adamu",
        "what": "city",
        "region": "Kebbi",
        "country": "Nigeria",
        "lat": 11.71,
        "long": 3.69,
        "elev ft": 830,
        "pop est": 5931
    },
    {
        "name": "Adawa",
        "what": "city",
        "region": "Kebbi",
        "country": "Nigeria",
        "lat": 11.41,
        "long": 4.37,
        "elev ft": 830,
        "pop est": 7009
    },
    {
        "name": "Adegari",
        "what": "city",
        "region": "Kebbi",
        "country": "Nigeria",
        "lat": 12.85,
        "long": 4.33,
        "elev ft": 944,
        "pop est": 4172
    },
    {
        "name": "Afaja Belo",
        "what": "city",
        "region": "Kebbi",
        "country": "Nigeria",
        "lat": 12.4,
        "long": 3.98,
        "elev ft": 830,
        "pop est": 7102
    },
    {
        "name": "Afka",
        "what": "city",
        "region": "Kebbi",
        "country": "Nigeria",
        "lat": 11.36,
        "long": 5.31,
        "elev ft": 997,
        "pop est": 9399
    },
    {
        "name": "Ahonda",
        "what": "city",
        "region": "Kebbi",
        "country": "Nigeria",
        "lat": 11.67,
        "long": 4.86,
        "elev ft": 1003,
        "pop est": 9643
    },
    {
        "name": "Aida",
        "what": "city",
        "region": "Kebbi",
        "country": "Nigeria",
        "lat": 11.76,
        "long": 4.37,
        "elev ft": 830,
        "pop est": 12904
    },
    {
        "name": "Aile",
        "what": "city",
        "region": "Kebbi",
        "country": "Nigeria",
        "lat": 12.54,
        "long": 3.87,
        "elev ft": 830,
        "pop est": 4172
    },
    {
        "name": "Akalole",
        "what": "city",
        "region": "Kebbi",
        "country": "Nigeria",
        "lat": 11.67,
        "long": 3.79,
        "elev ft": 830,
        "pop est": 6894
    },
    {
        "name": "Akangala",
        "what": "city",
        "region": "Kebbi",
        "country": "Nigeria",
        "lat": 10.75,
        "long": 4.72,
        "elev ft": 830,
        "pop est": 5133
    },
    {
        "name": "Akoilawa",
        "what": "city",
        "region": "Kebbi",
        "country": "Nigeria",
        "lat": 12.18,
        "long": 4.31,
        "elev ft": 830,
        "pop est": 13112
    },
    {
        "name": "Akwara",
        "what": "city",
        "region": "Kebbi",
        "country": "Nigeria",
        "lat": 12.52,
        "long": 4.18,
        "elev ft": 830,
        "pop est": 33006
    },
    {
        "name": "Aleiro",
        "what": "city",
        "region": "Kebbi",
        "country": "Nigeria",
        "lat": 12.29,
        "long": 4.47,
        "elev ft": 830,
        "pop est": 28012
    },
    {
        "name": "Alelu",
        "what": "city",
        "region": "Kebbi",
        "country": "Nigeria",
        "lat": 12.19,
        "long": 4.46,
        "elev ft": 830,
        "pop est": 28124
    },
    {
        "name": "Alhaji Dula",
        "what": "city",
        "region": "Kebbi",
        "country": "Nigeria",
        "lat": 11.39,
        "long": 4.37,
        "elev ft": 830,
        "pop est": 7767
    },
    {
        "name": "Aliero",
        "what": "city",
        "region": "Kebbi",
        "country": "Nigeria",
        "lat": 12.29,
        "long": 4.47,
        "elev ft": 830,
        "pop est": 28012
    },
    {
        "name": "Aliu",
        "what": "city",
        "region": "Kebbi",
        "country": "Nigeria",
        "lat": 11.18,
        "long": 5.38,
        "elev ft": 990,
        "pop est": 7178
    },
    {
        "name": "Aljena",
        "what": "city",
        "region": "Kebbi",
        "country": "Nigeria",
        "lat": 12.77,
        "long": 4.01,
        "elev ft": 830,
        "pop est": 4214
    },
    {
        "name": "Aljenaari",
        "what": "city",
        "region": "Kebbi",
        "country": "Nigeria",
        "lat": 11.59,
        "long": 3.91,
        "elev ft": 830,
        "pop est": 9362
    },
    {
        "name": "Aljenaari",
        "what": "city",
        "region": "Kebbi",
        "country": "Nigeria",
        "lat": 11.6,
        "long": 3.89,
        "elev ft": 830,
        "pop est": 8552
    },
    {
        "name": "Aljenna",
        "what": "city",
        "region": "Kebbi",
        "country": "Nigeria",
        "lat": 12.77,
        "long": 4.01,
        "elev ft": 830,
        "pop est": 4214
    },
    {
        "name": "Allelu",
        "what": "city",
        "region": "Kebbi",
        "country": "Nigeria",
        "lat": 12.19,
        "long": 4.46,
        "elev ft": 830,
        "pop est": 28124
    },
    {
        "name": "Alpagay",
        "what": "city",
        "region": "Kebbi",
        "country": "Nigeria",
        "lat": 12.58,
        "long": 4.21,
        "elev ft": 830,
        "pop est": 8051
    },
    {
        "name": "Alsure",
        "what": "city",
        "region": "Kebbi",
        "country": "Nigeria",
        "lat": 11.78,
        "long": 4.13,
        "elev ft": 830,
        "pop est": 12800
    },
    {
        "name": "Alu",
        "what": "city",
        "region": "Kebbi",
        "country": "Nigeria",
        "lat": 11.2,
        "long": 4.53,
        "elev ft": 830,
        "pop est": 10788
    },
    {
        "name": "Aluhasa",
        "what": "city",
        "region": "Kebbi",
        "country": "Nigeria",
        "lat": 12.62,
        "long": 4.44,
        "elev ft": 830,
        "pop est": 15645
    },
    {
        "name": "Alumadi",
        "what": "city",
        "region": "Kebbi",
        "country": "Nigeria",
        "lat": 12.51,
        "long": 4.17,
        "elev ft": 830,
        "pop est": 28142
    },
    {
        "name": "Alunguci",
        "what": "city",
        "region": "Kebbi",
        "country": "Nigeria",
        "lat": 10.34,
        "long": 4.79,
        "elev ft": 830,
        "pop est": 5364
    },
    {
        "name": "Alunguci",
        "what": "city",
        "region": "Kebbi",
        "country": "Nigeria",
        "lat": 10.35,
        "long": 4.87,
        "elev ft": 1000,
        "pop est": 5364
    },
    {
        "name": "Alungushi",
        "what": "city",
        "region": "Kebbi",
        "country": "Nigeria",
        "lat": 10.39,
        "long": 4.74,
        "elev ft": 830,
        "pop est": 5304
    },
    {
        "name": "Alwaza",
        "what": "city",
        "region": "Kebbi",
        "country": "Nigeria",
        "lat": 12.62,
        "long": 4.44,
        "elev ft": 830,
        "pop est": 15645
    },
    {
        "name": "Amada",
        "what": "city",
        "region": "Kebbi",
        "country": "Nigeria",
        "lat": 12.19,
        "long": 3.92,
        "elev ft": 830,
        "pop est": 12218
    },
    {
        "name": "Amagoro",
        "what": "city",
        "region": "Kebbi",
        "country": "Nigeria",
        "lat": 12.68,
        "long": 3.9,
        "elev ft": 830,
        "pop est": 6144
    },
    {
        "name": "Amanawa",
        "what": "city",
        "region": "Kebbi",
        "country": "Nigeria",
        "lat": 12.35,
        "long": 4.19,
        "elev ft": 830,
        "pop est": 13118
    },
    {
        "name": "Ambere",
        "what": "city",
        "region": "Kebbi",
        "country": "Nigeria",
        "lat": 11.68,
        "long": 4.98,
        "elev ft": 905,
        "pop est": 8879
    },
    {
        "name": "Ambursa",
        "what": "city",
        "region": "Kebbi",
        "country": "Nigeria",
        "lat": 12.51,
        "long": 4.34,
        "elev ft": 830,
        "pop est": 13745
    },
    {
        "name": "Amdullahi",
        "what": "city",
        "region": "Kebbi",
        "country": "Nigeria",
        "lat": 11.55,
        "long": 4.01,
        "elev ft": 830,
        "pop est": 9623
    },
    {
        "name": "Amiru",
        "what": "city",
        "region": "Kebbi",
        "country": "Nigeria",
        "lat": 11.49,
        "long": 4.75,
        "elev ft": 830,
        "pop est": 9320
    },
    {
        "name": "Amore",
        "what": "city",
        "region": "Kebbi",
        "country": "Nigeria",
        "lat": 12.56,
        "long": 4.62,
        "elev ft": 1017,
        "pop est": 31476
    },
    {
        "name": "Amore Aduway",
        "what": "city",
        "region": "Kebbi",
        "country": "Nigeria",
        "lat": 12.57,
        "long": 4.65,
        "elev ft": 1030,
        "pop est": 31739
    },
    {
        "name": "Amori",
        "what": "city",
        "region": "Kebbi",
        "country": "Nigeria",
        "lat": 12.56,
        "long": 4.62,
        "elev ft": 1017,
        "pop est": 31476
    },
    {
        "name": "Amugoro",
        "what": "city",
        "region": "Kebbi",
        "country": "Nigeria",
        "lat": 12.68,
        "long": 3.9,
        "elev ft": 830,
        "pop est": 6144
    },
    {
        "name": "Anai",
        "what": "city",
        "region": "Kebbi",
        "country": "Nigeria",
        "lat": 11.38,
        "long": 5.17,
        "elev ft": 938,
        "pop est": 9654
    },
    {
        "name": "Andarai",
        "what": "city",
        "region": "Kebbi",
        "country": "Nigeria",
        "lat": 11.9,
        "long": 4.39,
        "elev ft": 830,
        "pop est": 13112
    },
    {
        "name": "Anderai",
        "what": "city",
        "region": "Kebbi",
        "country": "Nigeria",
        "lat": 11.9,
        "long": 4.39,
        "elev ft": 830,
        "pop est": 13112
    },
    {
        "name": "Ango Gali",
        "what": "city",
        "region": "Kebbi",
        "country": "Nigeria",
        "lat": 13.17,
        "long": 4.35,
        "elev ft": 830,
        "pop est": 4162
    },
    {
        "name": "Angu",
        "what": "city",
        "region": "Kebbi",
        "country": "Nigeria",
        "lat": 10.96,
        "long": 5.12,
        "elev ft": 931,
        "pop est": 7277
    },
    {
        "name": "Angwa Sarkin",
        "what": "city",
        "region": "Kebbi",
        "country": "Nigeria",
        "lat": 13.18,
        "long": 4.16,
        "elev ft": 830,
        "pop est": 4981
    },
    {
        "name": "Angwan Hima",
        "what": "city",
        "region": "Kebbi",
        "country": "Nigeria",
        "lat": 11.65,
        "long": 3.77,
        "elev ft": 830,
        "pop est": 6155
    },
    {
        "name": "Angwan Shiaka",
        "what": "city",
        "region": "Kebbi",
        "country": "Nigeria",
        "lat": 11.7,
        "long": 3.67,
        "elev ft": 830,
        "pop est": 5532
    },
    {
        "name": "Annua",
        "what": "city",
        "region": "Kebbi",
        "country": "Nigeria",
        "lat": 10.53,
        "long": 4.6,
        "elev ft": 331,
        "pop est": 1308
    },
    {
        "name": "Anzakwara",
        "what": "city",
        "region": "Kebbi",
        "country": "Nigeria",
        "lat": 11.88,
        "long": 3.64,
        "elev ft": 830,
        "pop est": 6574
    },
    {
        "name": "Arause",
        "what": "city",
        "region": "Kebbi",
        "country": "Nigeria",
        "lat": 12.13,
        "long": 4.54,
        "elev ft": 882,
        "pop est": 21395
    },
    {
        "name": "Argungu",
        "what": "city",
        "region": "Kebbi",
        "country": "Nigeria",
        "lat": 12.74,
        "long": 4.53,
        "elev ft": 830,
        "pop est": 15645
    },
    {
        "name": "Asarara",
        "what": "city",
        "region": "Kebbi",
        "country": "Nigeria",
        "lat": 11.83,
        "long": 4.18,
        "elev ft": 830,
        "pop est": 12814
    },
    {
        "name": "Asarara",
        "what": "city",
        "region": "Kebbi",
        "country": "Nigeria",
        "lat": 12.36,
        "long": 4.32,
        "elev ft": 830,
        "pop est": 12914
    },
    {
        "name": "Asarara",
        "what": "city",
        "region": "Kebbi",
        "country": "Nigeria",
        "lat": 12.06,
        "long": 4.37,
        "elev ft": 830,
        "pop est": 14556
    },
    {
        "name": "Asarara",
        "what": "city",
        "region": "Kebbi",
        "country": "Nigeria",
        "lat": 12.85,
        "long": 4.7,
        "elev ft": 830,
        "pop est": 15645
    },
    {
        "name": "Asarara",
        "what": "city",
        "region": "Kebbi",
        "country": "Nigeria",
        "lat": 12.29,
        "long": 4.54,
        "elev ft": 843,
        "pop est": 22028
    },
    {
        "name": "Asarara",
        "what": "city",
        "region": "Kebbi",
        "country": "Nigeria",
        "lat": 11.78,
        "long": 3.96,
        "elev ft": 830,
        "pop est": 7152
    },
    {
        "name": "Asarara",
        "what": "city",
        "region": "Kebbi",
        "country": "Nigeria",
        "lat": 12.27,
        "long": 4.13,
        "elev ft": 830,
        "pop est": 12218
    },
    {
        "name": "Asawaka",
        "what": "city",
        "region": "Kebbi",
        "country": "Nigeria",
        "lat": 12.87,
        "long": 4.65,
        "elev ft": 830,
        "pop est": 15645
    },
    {
        "name": "Ashana",
        "what": "city",
        "region": "Kebbi",
        "country": "Nigeria",
        "lat": 11.34,
        "long": 4.85,
        "elev ft": 830,
        "pop est": 9469
    },
    {
        "name": "Assasara",
        "what": "city",
        "region": "Kebbi",
        "country": "Nigeria",
        "lat": 12.21,
        "long": 4.54,
        "elev ft": 830,
        "pop est": 22997
    },
    {
        "name": "Atagara",
        "what": "city",
        "region": "Kebbi",
        "country": "Nigeria",
        "lat": 12.22,
        "long": 4.49,
        "elev ft": 830,
        "pop est": 28084
    },
    {
        "name": "Augi",
        "what": "city",
        "region": "Kebbi",
        "country": "Nigeria",
        "lat": 12.89,
        "long": 4.6,
        "elev ft": 830,
        "pop est": 15645
    },
    {
        "name": "Augie",
        "what": "city",
        "region": "Kebbi",
        "country": "Nigeria",
        "lat": 12.89,
        "long": 4.6,
        "elev ft": 830,
        "pop est": 15645
    },
    {
        "name": "Auta",
        "what": "city",
        "region": "Kebbi",
        "country": "Nigeria",
        "lat": 10.86,
        "long": 4.43,
        "elev ft": 830,
        "pop est": 6881
    },
    {
        "name": "Auta",
        "what": "city",
        "region": "Kebbi",
        "country": "Nigeria",
        "lat": 10.89,
        "long": 4.42,
        "elev ft": 830,
        "pop est": 7631
    },
    {
        "name": "Auta Kilimou",
        "what": "city",
        "region": "Kebbi",
        "country": "Nigeria",
        "lat": 10.92,
        "long": 4.41,
        "elev ft": 830,
        "pop est": 8126
    },
    {
        "name": "Awadi",
        "what": "city",
        "region": "Kebbi",
        "country": "Nigeria",
        "lat": 12.82,
        "long": 4.63,
        "elev ft": 830,
        "pop est": 15645
    },
    {
        "name": "Baban Dutse",
        "what": "city",
        "region": "Kebbi",
        "country": "Nigeria",
        "lat": 12.55,
        "long": 4.1,
        "elev ft": 830,
        "pop est": 5044
    },
    {
        "name": "Baban Jori Dikko",
        "what": "city",
        "region": "Kebbi",
        "country": "Nigeria",
        "lat": 12.14,
        "long": 4.0,
        "elev ft": 830,
        "pop est": 12218
    },
    {
        "name": "Baban-Dada",
        "what": "city",
        "region": "Kebbi",
        "country": "Nigeria",
        "lat": 11.54,
        "long": 4.48,
        "elev ft": 830,
        "pop est": 11763
    },
    {
        "name": "Babarijo",
        "what": "city",
        "region": "Kebbi",
        "country": "Nigeria",
        "lat": 11.73,
        "long": 4.13,
        "elev ft": 830,
        "pop est": 12813
    },
    {
        "name": "Babban Kwari",
        "what": "city",
        "region": "Kebbi",
        "country": "Nigeria",
        "lat": 12.0,
        "long": 4.15,
        "elev ft": 830,
        "pop est": 12668
    },
    {
        "name": "Babuchi",
        "what": "city",
        "region": "Kebbi",
        "country": "Nigeria",
        "lat": 12.86,
        "long": 4.63,
        "elev ft": 830,
        "pop est": 15645
    },
    {
        "name": "Babulada",
        "what": "city",
        "region": "Kebbi",
        "country": "Nigeria",
        "lat": 12.4,
        "long": 3.87,
        "elev ft": 830,
        "pop est": 4172
    },
    {
        "name": "Bachaka",
        "what": "city",
        "region": "Kebbi",
        "country": "Nigeria",
        "lat": 13.16,
        "long": 4.14,
        "elev ft": 830,
        "pop est": 6325
    },
    {
        "name": "Bachaka",
        "what": "city",
        "region": "Kebbi",
        "country": "Nigeria",
        "lat": 12.12,
        "long": 3.87,
        "elev ft": 830,
        "pop est": 11778
    },
    {
        "name": "Badaria",
        "what": "city",
        "region": "Kebbi",
        "country": "Nigeria",
        "lat": 12.22,
        "long": 4.26,
        "elev ft": 830,
        "pop est": 13062
    },
    {
        "name": "Badaria",
        "what": "city",
        "region": "Kebbi",
        "country": "Nigeria",
        "lat": 12.2,
        "long": 4.27,
        "elev ft": 830,
        "pop est": 13112
    },
    {
        "name": "Badaria",
        "what": "city",
        "region": "Kebbi",
        "country": "Nigeria",
        "lat": 12.44,
        "long": 4.15,
        "elev ft": 830,
        "pop est": 45320
    },
    {
        "name": "Badaria Baba",
        "what": "city",
        "region": "Kebbi",
        "country": "Nigeria",
        "lat": 12.3,
        "long": 4.18,
        "elev ft": 830,
        "pop est": 12218
    },
    {
        "name": "Badariya",
        "what": "city",
        "region": "Kebbi",
        "country": "Nigeria",
        "lat": 11.46,
        "long": 4.27,
        "elev ft": 830,
        "pop est": 4619
    },
    {
        "name": "Badariya",
        "what": "city",
        "region": "Kebbi",
        "country": "Nigeria",
        "lat": 12.3,
        "long": 4.18,
        "elev ft": 830,
        "pop est": 12218
    },
    {
        "name": "Badariya",
        "what": "city",
        "region": "Kebbi",
        "country": "Nigeria",
        "lat": 11.43,
        "long": 4.23,
        "elev ft": 830,
        "pop est": 4619
    },
    {
        "name": "Baeban-Tabkin",
        "what": "city",
        "region": "Kebbi",
        "country": "Nigeria",
        "lat": 11.94,
        "long": 3.9,
        "elev ft": 830,
        "pop est": 7152
    },
    {
        "name": "Bagai",
        "what": "city",
        "region": "Kebbi",
        "country": "Nigeria",
        "lat": 12.86,
        "long": 4.58,
        "elev ft": 830,
        "pop est": 15645
    },
    {
        "name": "Bagala",
        "what": "city",
        "region": "Kebbi",
        "country": "Nigeria",
        "lat": 12.36,
        "long": 3.84,
        "elev ft": 830,
        "pop est": 4172
    },
    {
        "name": "Bagare",
        "what": "city",
        "region": "Kebbi",
        "country": "Nigeria",
        "lat": 12.51,
        "long": 4.69,
        "elev ft": 974,
        "pop est": 35164
    },
    {
        "name": "Bagga",
        "what": "city",
        "region": "Kebbi",
        "country": "Nigeria",
        "lat": 12.63,
        "long": 4.12,
        "elev ft": 830,
        "pop est": 4172
    },
    {
        "name": "Bagizza",
        "what": "city",
        "region": "Kebbi",
        "country": "Nigeria",
        "lat": 12.97,
        "long": 4.41,
        "elev ft": 980,
        "pop est": 4172
    },
    {
        "name": "Bagoni",
        "what": "city",
        "region": "Kebbi",
        "country": "Nigeria",
        "lat": 12.82,
        "long": 4.48,
        "elev ft": 830,
        "pop est": 13486
    },
    {
        "name": "Baguda",
        "what": "city",
        "region": "Kebbi",
        "country": "Nigeria",
        "lat": 12.55,
        "long": 4.16,
        "elev ft": 830,
        "pop est": 6944
    },
    {
        "name": "Bagudo",
        "what": "city",
        "region": "Kebbi",
        "country": "Nigeria",
        "lat": 11.4,
        "long": 4.23,
        "elev ft": 830,
        "pop est": 4619
    },
    {
        "name": "Bahindi",
        "what": "city",
        "region": "Kebbi",
        "country": "Nigeria",
        "lat": 11.46,
        "long": 4.18,
        "elev ft": 830,
        "pop est": 4619
    },
    {
        "name": "Bahoda",
        "what": "city",
        "region": "Kebbi",
        "country": "Nigeria",
        "lat": 11.97,
        "long": 3.94,
        "elev ft": 830,
        "pop est": 7458
    },
    {
        "name": "Bajida",
        "what": "city",
        "region": "Kebbi",
        "country": "Nigeria",
        "lat": 11.4,
        "long": 4.97,
        "elev ft": 938,
        "pop est": 9834
    },
    {
        "name": "Bak-n-Ruwa",
        "what": "city",
        "region": "Kebbi",
        "country": "Nigeria",
        "lat": 10.48,
        "long": 4.64,
        "elev ft": 328,
        "pop est": 2246
    },
    {
        "name": "Baka",
        "what": "city",
        "region": "Kebbi",
        "country": "Nigeria",
        "lat": 12.4,
        "long": 4.53,
        "elev ft": 853,
        "pop est": 16136
    },
    {
        "name": "Baka Tara",
        "what": "city",
        "region": "Kebbi",
        "country": "Nigeria",
        "lat": 11.56,
        "long": 4.52,
        "elev ft": 830,
        "pop est": 9609
    },
    {
        "name": "Bakabe",
        "what": "city",
        "region": "Kebbi",
        "country": "Nigeria",
        "lat": 12.28,
        "long": 4.28,
        "elev ft": 830,
        "pop est": 12766
    },
    {
        "name": "Bakaiyadiya",
        "what": "city",
        "region": "Kebbi",
        "country": "Nigeria",
        "lat": 12.34,
        "long": 4.29,
        "elev ft": 830,
        "pop est": 12763
    },
    {
        "name": "Bakali",
        "what": "city",
        "region": "Kebbi",
        "country": "Nigeria",
        "lat": 11.87,
        "long": 4.18,
        "elev ft": 830,
        "pop est": 12814
    },
    {
        "name": "Bakin Goru",
        "what": "city",
        "region": "Kebbi",
        "country": "Nigeria",
        "lat": 11.41,
        "long": 4.13,
        "elev ft": 413,
        "pop est": 4216
    },
    {
        "name": "Bakin Ruwa",
        "what": "city",
        "region": "Kebbi",
        "country": "Nigeria",
        "lat": 10.94,
        "long": 4.68,
        "elev ft": 364,
        "pop est": 3448
    },
    {
        "name": "Bakin Sakace",
        "what": "city",
        "region": "Kebbi",
        "country": "Nigeria",
        "lat": 10.93,
        "long": 4.69,
        "elev ft": 360,
        "pop est": 3439
    },
    {
        "name": "Bakin Turu",
        "what": "city",
        "region": "Kebbi",
        "country": "Nigeria",
        "lat": 10.97,
        "long": 4.77,
        "elev ft": 830,
        "pop est": 7597
    },
    {
        "name": "Bakin-Turu",
        "what": "city",
        "region": "Kebbi",
        "country": "Nigeria",
        "lat": 11.01,
        "long": 4.8,
        "elev ft": 830,
        "pop est": 8195
    },
    {
        "name": "Bako",
        "what": "city",
        "region": "Kebbi",
        "country": "Nigeria",
        "lat": 11.27,
        "long": 4.51,
        "elev ft": 830,
        "pop est": 11841
    },
    {
        "name": "Bakoci",
        "what": "city",
        "region": "Kebbi",
        "country": "Nigeria",
        "lat": 11.35,
        "long": 4.42,
        "elev ft": 830,
        "pop est": 11797
    },
    {
        "name": "Bakon Giwa",
        "what": "city",
        "region": "Kebbi",
        "country": "Nigeria",
        "lat": 11.33,
        "long": 4.41,
        "elev ft": 830,
        "pop est": 11594
    },
    {
        "name": "Bakoshi",
        "what": "city",
        "region": "Kebbi",
        "country": "Nigeria",
        "lat": 11.35,
        "long": 4.42,
        "elev ft": 830,
        "pop est": 11797
    },
    {
        "name": "Bakoshi",
        "what": "city",
        "region": "Kebbi",
        "country": "Nigeria",
        "lat": 12.28,
        "long": 4.08,
        "elev ft": 830,
        "pop est": 12218
    },
    {
        "name": "Bakoshi",
        "what": "city",
        "region": "Kebbi",
        "country": "Nigeria",
        "lat": 12.01,
        "long": 4.05,
        "elev ft": 830,
        "pop est": 12380
    },
    {
        "name": "Bakwai",
        "what": "city",
        "region": "Kebbi",
        "country": "Nigeria",
        "lat": 11.97,
        "long": 4.07,
        "elev ft": 830,
        "pop est": 12684
    },
    {
        "name": "Bala",
        "what": "city",
        "region": "Kebbi",
        "country": "Nigeria",
        "lat": 12.18,
        "long": 3.74,
        "elev ft": 830,
        "pop est": 5799
    },
    {
        "name": "Balagandi",
        "what": "city",
        "region": "Kebbi",
        "country": "Nigeria",
        "lat": 12.3,
        "long": 4.56,
        "elev ft": 853,
        "pop est": 18567
    },
    {
        "name": "Balalangu",
        "what": "city",
        "region": "Kebbi",
        "country": "Nigeria",
        "lat": 11.47,
        "long": 3.68,
        "elev ft": 830,
        "pop est": 4619
    },
    {
        "name": "Balandari",
        "what": "city",
        "region": "Kebbi",
        "country": "Nigeria",
        "lat": 12.78,
        "long": 4.19,
        "elev ft": 875,
        "pop est": 4172
    },
    {
        "name": "Balu Argungun",
        "what": "city",
        "region": "Kebbi",
        "country": "Nigeria",
        "lat": 12.04,
        "long": 3.95,
        "elev ft": 830,
        "pop est": 10093
    },
    {
        "name": "Balu Bunza",
        "what": "city",
        "region": "Kebbi",
        "country": "Nigeria",
        "lat": 12.05,
        "long": 3.97,
        "elev ft": 830,
        "pop est": 11014
    },
    {
        "name": "Balulada",
        "what": "city",
        "region": "Kebbi",
        "country": "Nigeria",
        "lat": 12.08,
        "long": 4.3,
        "elev ft": 830,
        "pop est": 13112
    },
    {
        "name": "Bambadawa",
        "what": "city",
        "region": "Kebbi",
        "country": "Nigeria",
        "lat": 11.31,
        "long": 4.92,
        "elev ft": 830,
        "pop est": 8783
    },
    {
        "name": "Bame",
        "what": "city",
        "region": "Kebbi",
        "country": "Nigeria",
        "lat": 12.41,
        "long": 4.41,
        "elev ft": 830,
        "pop est": 12963
    },
    {
        "name": "Bame-Fadama",
        "what": "city",
        "region": "Kebbi",
        "country": "Nigeria",
        "lat": 12.41,
        "long": 4.41,
        "elev ft": 830,
        "pop est": 12963
    },
    {
        "name": "Bami",
        "what": "city",
        "region": "Kebbi",
        "country": "Nigeria",
        "lat": 12.34,
        "long": 4.4,
        "elev ft": 830,
        "pop est": 15570
    },
    {
        "name": "Bamirunji",
        "what": "city",
        "region": "Kebbi",
        "country": "Nigeria",
        "lat": 12.45,
        "long": 4.41,
        "elev ft": 898,
        "pop est": 12963
    },
    {
        "name": "Bamungadi",
        "what": "city",
        "region": "Kebbi",
        "country": "Nigeria",
        "lat": 12.17,
        "long": 4.21,
        "elev ft": 830,
        "pop est": 12833
    },
    {
        "name": "Bandakwai",
        "what": "city",
        "region": "Kebbi",
        "country": "Nigeria",
        "lat": 10.95,
        "long": 4.66,
        "elev ft": 364,
        "pop est": 4414
    },
    {
        "name": "Bandam",
        "what": "city",
        "region": "Kebbi",
        "country": "Nigeria",
        "lat": 11.75,
        "long": 4.13,
        "elev ft": 830,
        "pop est": 12799
    },
    {
        "name": "Bangai Dogon Tapki",
        "what": "city",
        "region": "Kebbi",
        "country": "Nigeria",
        "lat": 12.18,
        "long": 3.85,
        "elev ft": 830,
        "pop est": 9837
    },
    {
        "name": "Bangai Musa",
        "what": "city",
        "region": "Kebbi",
        "country": "Nigeria",
        "lat": 12.18,
        "long": 3.86,
        "elev ft": 830,
        "pop est": 10162
    },
    {
        "name": "Bangalasa",
        "what": "city",
        "region": "Kebbi",
        "country": "Nigeria",
        "lat": 12.1,
        "long": 3.82,
        "elev ft": 830,
        "pop est": 8784
    },
    {
        "name": "Banganna",
        "what": "city",
        "region": "Kebbi",
        "country": "Nigeria",
        "lat": 12.3,
        "long": 3.96,
        "elev ft": 830,
        "pop est": 11707
    },
    {
        "name": "Bangannan",
        "what": "city",
        "region": "Kebbi",
        "country": "Nigeria",
        "lat": 12.3,
        "long": 4.0,
        "elev ft": 830,
        "pop est": 12218
    },
    {
        "name": "Banganori hill",
        "what": "city",
        "region": "Kebbi",
        "country": "Nigeria",
        "lat": 11.3,
        "long": 4.63,
        "elev ft": 830,
        "pop est": 8256
    },
    {
        "name": "Bangara",
        "what": "city",
        "region": "Kebbi",
        "country": "Nigeria",
        "lat": 12.83,
        "long": 4.63,
        "elev ft": 830,
        "pop est": 15645
    },
    {
        "name": "Bangulasa",
        "what": "city",
        "region": "Kebbi",
        "country": "Nigeria",
        "lat": 12.1,
        "long": 3.82,
        "elev ft": 830,
        "pop est": 8784
    },
    {
        "name": "Bani",
        "what": "city",
        "region": "Kebbi",
        "country": "Nigeria",
        "lat": 11.5,
        "long": 3.62,
        "elev ft": 830,
        "pop est": 4619
    },
    {
        "name": "Bani Goro",
        "what": "city",
        "region": "Kebbi",
        "country": "Nigeria",
        "lat": 11.61,
        "long": 3.87,
        "elev ft": 830,
        "pop est": 7523
    },
    {
        "name": "Banide",
        "what": "city",
        "region": "Kebbi",
        "country": "Nigeria",
        "lat": 12.84,
        "long": 4.48,
        "elev ft": 839,
        "pop est": 11622
    },
    {
        "name": "Banikube",
        "what": "city",
        "region": "Kebbi",
        "country": "Nigeria",
        "lat": 11.69,
        "long": 3.77,
        "elev ft": 830,
        "pop est": 6810
    },
    {
        "name": "Banizombo",
        "what": "city",
        "region": "Kebbi",
        "country": "Nigeria",
        "lat": 11.39,
        "long": 4.36,
        "elev ft": 830,
        "pop est": 7119
    },
    {
        "name": "Banizumbo",
        "what": "city",
        "region": "Kebbi",
        "country": "Nigeria",
        "lat": 11.68,
        "long": 3.77,
        "elev ft": 830,
        "pop est": 6814
    },
    {
        "name": "Banu Goro",
        "what": "city",
        "region": "Kebbi",
        "country": "Nigeria",
        "lat": 11.62,
        "long": 3.86,
        "elev ft": 830,
        "pop est": 6801
    },
    {
        "name": "Bar Daji",
        "what": "city",
        "region": "Kebbi",
        "country": "Nigeria",
        "lat": 12.14,
        "long": 3.79,
        "elev ft": 830,
        "pop est": 7805
    },
    {
        "name": "Bara",
        "what": "city",
        "region": "Kebbi",
        "country": "Nigeria",
        "lat": 12.41,
        "long": 4.51,
        "elev ft": 849,
        "pop est": 14914
    },
    {
        "name": "Baraya",
        "what": "city",
        "region": "Kebbi",
        "country": "Nigeria",
        "lat": 12.59,
        "long": 3.84,
        "elev ft": 830,
        "pop est": 4172
    },
    {
        "name": "Bargawa Tunga",
        "what": "city",
        "region": "Kebbi",
        "country": "Nigeria",
        "lat": 11.44,
        "long": 4.24,
        "elev ft": 830,
        "pop est": 4619
    },
    {
        "name": "Bariki Daji",
        "what": "city",
        "region": "Kebbi",
        "country": "Nigeria",
        "lat": 12.14,
        "long": 3.79,
        "elev ft": 830,
        "pop est": 7805
    },
    {
        "name": "Barikin Daji",
        "what": "city",
        "region": "Kebbi",
        "country": "Nigeria",
        "lat": 12.14,
        "long": 3.79,
        "elev ft": 830,
        "pop est": 7805
    },
    {
        "name": "Barkeji",
        "what": "city",
        "region": "Kebbi",
        "country": "Nigeria",
        "lat": 12.45,
        "long": 4.77,
        "elev ft": 967,
        "pop est": 22522
    },
    {
        "name": "Barogu",
        "what": "city",
        "region": "Kebbi",
        "country": "Nigeria",
        "lat": 11.0,
        "long": 4.82,
        "elev ft": 830,
        "pop est": 8195
    },
    {
        "name": "Basabra",
        "what": "city",
        "region": "Kebbi",
        "country": "Nigeria",
        "lat": 12.32,
        "long": 4.25,
        "elev ft": 830,
        "pop est": 12451
    },
    {
        "name": "Basaura",
        "what": "city",
        "region": "Kebbi",
        "country": "Nigeria",
        "lat": 12.32,
        "long": 4.25,
        "elev ft": 830,
        "pop est": 12451
    },
    {
        "name": "Bassura",
        "what": "city",
        "region": "Kebbi",
        "country": "Nigeria",
        "lat": 11.48,
        "long": 3.97,
        "elev ft": 830,
        "pop est": 5141
    },
    {
        "name": "Batan Wanka",
        "what": "city",
        "region": "Kebbi",
        "country": "Nigeria",
        "lat": 12.6,
        "long": 4.42,
        "elev ft": 830,
        "pop est": 15645
    },
    {
        "name": "Batarataya",
        "what": "city",
        "region": "Kebbi",
        "country": "Nigeria",
        "lat": 11.06,
        "long": 4.58,
        "elev ft": 380,
        "pop est": 7292
    },
    {
        "name": "Batiaka",
        "what": "city",
        "region": "Kebbi",
        "country": "Nigeria",
        "lat": 13.16,
        "long": 4.14,
        "elev ft": 830,
        "pop est": 6325
    },
    {
        "name": "Bawa",
        "what": "city",
        "region": "Kebbi",
        "country": "Nigeria",
        "lat": 12.58,
        "long": 4.16,
        "elev ft": 830,
        "pop est": 4751
    },
    {
        "name": "Bawa Dan Firi",
        "what": "city",
        "region": "Kebbi",
        "country": "Nigeria",
        "lat": 11.02,
        "long": 4.93,
        "elev ft": 830,
        "pop est": 7692
    },
    {
        "name": "Bawada",
        "what": "city",
        "region": "Kebbi",
        "country": "Nigeria",
        "lat": 12.38,
        "long": 4.35,
        "elev ft": 830,
        "pop est": 12963
    },
    {
        "name": "Bawada",
        "what": "city",
        "region": "Kebbi",
        "country": "Nigeria",
        "lat": 12.45,
        "long": 4.51,
        "elev ft": 895,
        "pop est": 13008
    },
    {
        "name": "Bawanka",
        "what": "city",
        "region": "Kebbi",
        "country": "Nigeria",
        "lat": 12.16,
        "long": 4.54,
        "elev ft": 846,
        "pop est": 22974
    },
    {
        "name": "Bawna",
        "what": "city",
        "region": "Kebbi",
        "country": "Nigeria",
        "lat": 11.72,
        "long": 4.41,
        "elev ft": 830,
        "pop est": 12382
    },
    {
        "name": "Bayan Dutse",
        "what": "city",
        "region": "Kebbi",
        "country": "Nigeria",
        "lat": 12.03,
        "long": 4.19,
        "elev ft": 830,
        "pop est": 12830
    },
    {
        "name": "Bayawa",
        "what": "city",
        "region": "Kebbi",
        "country": "Nigeria",
        "lat": 12.84,
        "long": 4.69,
        "elev ft": 830,
        "pop est": 15645
    },
    {
        "name": "Bela",
        "what": "city",
        "region": "Kebbi",
        "country": "Nigeria",
        "lat": 12.69,
        "long": 4.6,
        "elev ft": 984,
        "pop est": 15645
    },
    {
        "name": "Bele Mepama",
        "what": "city",
        "region": "Kebbi",
        "country": "Nigeria",
        "lat": 12.05,
        "long": 3.86,
        "elev ft": 830,
        "pop est": 8763
    },
    {
        "name": "Bele Sumbe",
        "what": "city",
        "region": "Kebbi",
        "country": "Nigeria",
        "lat": 12.08,
        "long": 3.86,
        "elev ft": 830,
        "pop est": 9833
    },
    {
        "name": "Bena",
        "what": "city",
        "region": "Kebbi",
        "country": "Nigeria",
        "lat": 11.28,
        "long": 5.93,
        "elev ft": 1971,
        "pop est": 6705
    },
    {
        "name": "Bendu",
        "what": "city",
        "region": "Kebbi",
        "country": "Nigeria",
        "lat": 11.68,
        "long": 4.13,
        "elev ft": 830,
        "pop est": 12750
    },
    {
        "name": "Beriberijo",
        "what": "city",
        "region": "Kebbi",
        "country": "Nigeria",
        "lat": 11.56,
        "long": 3.99,
        "elev ft": 830,
        "pop est": 11450
    },
    {
        "name": "Berkeje",
        "what": "city",
        "region": "Kebbi",
        "country": "Nigeria",
        "lat": 12.45,
        "long": 4.77,
        "elev ft": 967,
        "pop est": 22522
    },
    {
        "name": "Besse",
        "what": "city",
        "region": "Kebbi",
        "country": "Nigeria",
        "lat": 11.27,
        "long": 4.43,
        "elev ft": 830,
        "pop est": 11920
    },
    {
        "name": "Bezere",
        "what": "city",
        "region": "Kebbi",
        "country": "Nigeria",
        "lat": 11.49,
        "long": 4.99,
        "elev ft": 830,
        "pop est": 9834
    },
    {
        "name": "Biga Bozare",
        "what": "city",
        "region": "Kebbi",
        "country": "Nigeria",
        "lat": 12.13,
        "long": 3.85,
        "elev ft": 830,
        "pop est": 11100
    },
    {
        "name": "Biga Ganwo",
        "what": "city",
        "region": "Kebbi",
        "country": "Nigeria",
        "lat": 12.12,
        "long": 3.86,
        "elev ft": 830,
        "pop est": 10953
    },
    {
        "name": "Bin Yauri",
        "what": "city",
        "region": "Kebbi",
        "country": "Nigeria",
        "lat": 10.78,
        "long": 4.81,
        "elev ft": 830,
        "pop est": 5588
    },
    {
        "name": "Binau",
        "what": "city",
        "region": "Kebbi",
        "country": "Nigeria",
        "lat": 10.9,
        "long": 4.62,
        "elev ft": 830,
        "pop est": 7796
    },
    {
        "name": "Binua",
        "what": "city",
        "region": "Kebbi",
        "country": "Nigeria",
        "lat": 10.9,
        "long": 4.62,
        "elev ft": 830,
        "pop est": 7796
    },
    {
        "name": "Bio-Kikwana",
        "what": "city",
        "region": "Kebbi",
        "country": "Nigeria",
        "lat": 11.52,
        "long": 4.21,
        "elev ft": 830,
        "pop est": 4619
    },
    {
        "name": "Biriji",
        "what": "city",
        "region": "Kebbi",
        "country": "Nigeria",
        "lat": 11.36,
        "long": 3.71,
        "elev ft": 830,
        "pop est": 4619
    },
    {
        "name": "Birnin Debi",
        "what": "city",
        "region": "Kebbi",
        "country": "Nigeria",
        "lat": 12.43,
        "long": 3.7,
        "elev ft": 830,
        "pop est": 4199
    },
    {
        "name": "Birnin Kebbi",
        "what": "city",
        "region": "Kebbi",
        "country": "Nigeria",
        "lat": 12.45,
        "long": 4.2,
        "elev ft": 830,
        "pop est": 84202
    },
    {
        "name": "Birnin Kuka",
        "what": "city",
        "region": "Kebbi",
        "country": "Nigeria",
        "lat": 12.45,
        "long": 4.0,
        "elev ft": 830,
        "pop est": 5086
    },
    {
        "name": "Birnin Lafia",
        "what": "city",
        "region": "Kebbi",
        "country": "Nigeria",
        "lat": 12.58,
        "long": 4.26,
        "elev ft": 830,
        "pop est": 12927
    },
    {
        "name": "Birnin Madi",
        "what": "city",
        "region": "Kebbi",
        "country": "Nigeria",
        "lat": 12.21,
        "long": 4.33,
        "elev ft": 830,
        "pop est": 15399
    },
    {
        "name": "Birnin Mala",
        "what": "city",
        "region": "Kebbi",
        "country": "Nigeria",
        "lat": 12.13,
        "long": 4.54,
        "elev ft": 885,
        "pop est": 23258
    },
    {
        "name": "Birnin Mallam",
        "what": "city",
        "region": "Kebbi",
        "country": "Nigeria",
        "lat": 12.13,
        "long": 4.54,
        "elev ft": 885,
        "pop est": 23258
    },
    {
        "name": "Birri Debi",
        "what": "city",
        "region": "Kebbi",
        "country": "Nigeria",
        "lat": 12.43,
        "long": 3.7,
        "elev ft": 830,
        "pop est": 4199
    },
    {
        "name": "Bite",
        "what": "city",
        "region": "Kebbi",
        "country": "Nigeria",
        "lat": 11.37,
        "long": 4.94,
        "elev ft": 902,
        "pop est": 9827
    },
    {
        "name": "Bodare",
        "what": "city",
        "region": "Kebbi",
        "country": "Nigeria",
        "lat": 12.45,
        "long": 3.94,
        "elev ft": 830,
        "pop est": 4172
    },
    {
        "name": "Bokunji",
        "what": "city",
        "region": "Kebbi",
        "country": "Nigeria",
        "lat": 10.96,
        "long": 4.65,
        "elev ft": 367,
        "pop est": 4952
    },
    {
        "name": "Boma",
        "what": "city",
        "region": "Kebbi",
        "country": "Nigeria",
        "lat": 11.64,
        "long": 3.72,
        "elev ft": 830,
        "pop est": 4903
    },
    {
        "name": "Boma",
        "what": "city",
        "region": "Kebbi",
        "country": "Nigeria",
        "lat": 11.23,
        "long": 4.46,
        "elev ft": 830,
        "pop est": 11472
    },
    {
        "name": "Boma",
        "what": "city",
        "region": "Kebbi",
        "country": "Nigeria",
        "lat": 11.71,
        "long": 4.25,
        "elev ft": 830,
        "pop est": 12814
    },
    {
        "name": "Bore",
        "what": "city",
        "region": "Kebbi",
        "country": "Nigeria",
        "lat": 12.81,
        "long": 4.7,
        "elev ft": 830,
        "pop est": 15645
    },
    {
        "name": "Botawa",
        "what": "city",
        "region": "Kebbi",
        "country": "Nigeria",
        "lat": 13.17,
        "long": 4.18,
        "elev ft": 830,
        "pop est": 4329
    },
    {
        "name": "Botoro",
        "what": "city",
        "region": "Kebbi",
        "country": "Nigeria",
        "lat": 12.18,
        "long": 4.12,
        "elev ft": 830,
        "pop est": 12218
    },
    {
        "name": "Buba",
        "what": "city",
        "region": "Kebbi",
        "country": "Nigeria",
        "lat": 11.93,
        "long": 4.43,
        "elev ft": 889,
        "pop est": 15259
    },
    {
        "name": "Bubuche",
        "what": "city",
        "region": "Kebbi",
        "country": "Nigeria",
        "lat": 12.86,
        "long": 4.63,
        "elev ft": 830,
        "pop est": 15645
    },
    {
        "name": "Bubuchi",
        "what": "city",
        "region": "Kebbi",
        "country": "Nigeria",
        "lat": 12.86,
        "long": 4.63,
        "elev ft": 830,
        "pop est": 15645
    },
    {
        "name": "Bude",
        "what": "city",
        "region": "Kebbi",
        "country": "Nigeria",
        "lat": 12.58,
        "long": 4.71,
        "elev ft": 1040,
        "pop est": 32807
    },
    {
        "name": "Bui",
        "what": "city",
        "region": "Kebbi",
        "country": "Nigeria",
        "lat": 12.73,
        "long": 4.12,
        "elev ft": 830,
        "pop est": 4172
    },
    {
        "name": "Buki",
        "what": "city",
        "region": "Kebbi",
        "country": "Nigeria",
        "lat": 11.71,
        "long": 3.68,
        "elev ft": 830,
        "pop est": 5875
    },
    {
        "name": "Bukulu",
        "what": "city",
        "region": "Kebbi",
        "country": "Nigeria",
        "lat": 12.06,
        "long": 4.39,
        "elev ft": 830,
        "pop est": 16809
    },
    {
        "name": "Bukunji",
        "what": "city",
        "region": "Kebbi",
        "country": "Nigeria",
        "lat": 10.96,
        "long": 4.65,
        "elev ft": 367,
        "pop est": 4952
    },
    {
        "name": "Bula Mairmi",
        "what": "city",
        "region": "Kebbi",
        "country": "Nigeria",
        "lat": 11.7,
        "long": 4.83,
        "elev ft": 905,
        "pop est": 8264
    },
    {
        "name": "Bulassa",
        "what": "city",
        "region": "Kebbi",
        "country": "Nigeria",
        "lat": 12.41,
        "long": 4.2,
        "elev ft": 830,
        "pop est": 54156
    },
    {
        "name": "Bule",
        "what": "city",
        "region": "Kebbi",
        "country": "Nigeria",
        "lat": 11.47,
        "long": 4.87,
        "elev ft": 892,
        "pop est": 9834
    },
    {
        "name": "Bule",
        "what": "city",
        "region": "Kebbi",
        "country": "Nigeria",
        "lat": 11.55,
        "long": 4.96,
        "elev ft": 892,
        "pop est": 9834
    },
    {
        "name": "Bulu-Achiku",
        "what": "city",
        "region": "Kebbi",
        "country": "Nigeria",
        "lat": 11.66,
        "long": 4.87,
        "elev ft": 997,
        "pop est": 9749
    },
    {
        "name": "Bulu-Mairimi",
        "what": "city",
        "region": "Kebbi",
        "country": "Nigeria",
        "lat": 11.69,
        "long": 4.84,
        "elev ft": 980,
        "pop est": 8993
    },
    {
        "name": "Bulungai",
        "what": "city",
        "region": "Kebbi",
        "country": "Nigeria",
        "lat": 11.68,
        "long": 3.73,
        "elev ft": 830,
        "pop est": 5887
    },
    {
        "name": "Bunga Baba",
        "what": "city",
        "region": "Kebbi",
        "country": "Nigeria",
        "lat": 12.53,
        "long": 4.16,
        "elev ft": 830,
        "pop est": 16489
    },
    {
        "name": "Bunza",
        "what": "city",
        "region": "Kebbi",
        "country": "Nigeria",
        "lat": 11.19,
        "long": 4.35,
        "elev ft": 383,
        "pop est": 5046
    },
    {
        "name": "Bunza",
        "what": "city",
        "region": "Kebbi",
        "country": "Nigeria",
        "lat": 12.09,
        "long": 4.02,
        "elev ft": 830,
        "pop est": 12218
    },
    {
        "name": "Buri",
        "what": "city",
        "region": "Kebbi",
        "country": "Nigeria",
        "lat": 12.51,
        "long": 4.14,
        "elev ft": 830,
        "pop est": 15620
    },
    {
        "name": "Buya",
        "what": "city",
        "region": "Kebbi",
        "country": "Nigeria",
        "lat": 11.08,
        "long": 4.06,
        "elev ft": 941,
        "pop est": 4619
    },
    {
        "name": "Bwi",
        "what": "city",
        "region": "Kebbi",
        "country": "Nigeria",
        "lat": 12.73,
        "long": 4.12,
        "elev ft": 830,
        "pop est": 4172
    },
    {
        "name": "Cegiri",
        "what": "city",
        "region": "Kebbi",
        "country": "Nigeria",
        "lat": 11.33,
        "long": 4.34,
        "elev ft": 830,
        "pop est": 6768
    },
    {
        "name": "Chakao",
        "what": "city",
        "region": "Kebbi",
        "country": "Nigeria",
        "lat": 12.17,
        "long": 3.97,
        "elev ft": 830,
        "pop est": 12218
    },
    {
        "name": "Chase",
        "what": "city",
        "region": "Kebbi",
        "country": "Nigeria",
        "lat": 11.36,
        "long": 4.94,
        "elev ft": 912,
        "pop est": 9767
    },
    {
        "name": "Chesgu",
        "what": "city",
        "region": "Kebbi",
        "country": "Nigeria",
        "lat": 11.66,
        "long": 4.92,
        "elev ft": 895,
        "pop est": 9588
    },
    {
        "name": "Chidakai",
        "what": "city",
        "region": "Kebbi",
        "country": "Nigeria",
        "lat": 11.71,
        "long": 3.83,
        "elev ft": 830,
        "pop est": 7152
    },
    {
        "name": "Chidawa",
        "what": "city",
        "region": "Kebbi",
        "country": "Nigeria",
        "lat": 11.4,
        "long": 4.85,
        "elev ft": 895,
        "pop est": 9553
    },
    {
        "name": "Chikeke",
        "what": "city",
        "region": "Kebbi",
        "country": "Nigeria",
        "lat": 10.86,
        "long": 4.73,
        "elev ft": 341,
        "pop est": 4290
    },
    {
        "name": "Chiko",
        "what": "city",
        "region": "Kebbi",
        "country": "Nigeria",
        "lat": 11.71,
        "long": 3.72,
        "elev ft": 830,
        "pop est": 6171
    },
    {
        "name": "Chimpamini",
        "what": "city",
        "region": "Kebbi",
        "country": "Nigeria",
        "lat": 10.35,
        "long": 4.6,
        "elev ft": 262,
        "pop est": 44
    },
    {
        "name": "Chinchinna",
        "what": "city",
        "region": "Kebbi",
        "country": "Nigeria",
        "lat": 11.48,
        "long": 5.72,
        "elev ft": 1669,
        "pop est": 6705
    },
    {
        "name": "Chitte",
        "what": "city",
        "region": "Kebbi",
        "country": "Nigeria",
        "lat": 11.46,
        "long": 4.89,
        "elev ft": 830,
        "pop est": 9834
    },
    {
        "name": "Chumu",
        "what": "city",
        "region": "Kebbi",
        "country": "Nigeria",
        "lat": 10.68,
        "long": 4.79,
        "elev ft": 830,
        "pop est": 5371
    },
    {
        "name": "Cibiki Baba",
        "what": "city",
        "region": "Kebbi",
        "country": "Nigeria",
        "lat": 12.47,
        "long": 3.84,
        "elev ft": 830,
        "pop est": 4172
    },
    {
        "name": "Cibiki Karimi",
        "what": "city",
        "region": "Kebbi",
        "country": "Nigeria",
        "lat": 12.47,
        "long": 3.85,
        "elev ft": 830,
        "pop est": 4172
    },
    {
        "name": "Cirairai",
        "what": "city",
        "region": "Kebbi",
        "country": "Nigeria",
        "lat": 12.28,
        "long": 4.3,
        "elev ft": 830,
        "pop est": 12841
    },
    {
        "name": "Daba",
        "what": "city",
        "region": "Kebbi",
        "country": "Nigeria",
        "lat": 11.63,
        "long": 3.89,
        "elev ft": 830,
        "pop est": 8246
    },
    {
        "name": "Dabai",
        "what": "city",
        "region": "Kebbi",
        "country": "Nigeria",
        "lat": 12.93,
        "long": 4.68,
        "elev ft": 830,
        "pop est": 15645
    },
    {
        "name": "Dabai",
        "what": "city",
        "region": "Kebbi",
        "country": "Nigeria",
        "lat": 11.48,
        "long": 5.21,
        "elev ft": 1240,
        "pop est": 9442
    },
    {
        "name": "Daban Dutse",
        "what": "city",
        "region": "Kebbi",
        "country": "Nigeria",
        "lat": 11.53,
        "long": 5.17,
        "elev ft": 1230,
        "pop est": 9187
    },
    {
        "name": "Dabu",
        "what": "city",
        "region": "Kebbi",
        "country": "Nigeria",
        "lat": 12.24,
        "long": 4.47,
        "elev ft": 830,
        "pop est": 28057
    },
    {
        "name": "Dadadi",
        "what": "city",
        "region": "Kebbi",
        "country": "Nigeria",
        "lat": 11.66,
        "long": 4.26,
        "elev ft": 830,
        "pop est": 12364
    },
    {
        "name": "Dadi",
        "what": "city",
        "region": "Kebbi",
        "country": "Nigeria",
        "lat": 11.91,
        "long": 4.09,
        "elev ft": 830,
        "pop est": 12814
    },
    {
        "name": "Dafasi",
        "what": "city",
        "region": "Kebbi",
        "country": "Nigeria",
        "lat": 12.87,
        "long": 4.76,
        "elev ft": 830,
        "pop est": 15276
    },
    {
        "name": "Dagere",
        "what": "city",
        "region": "Kebbi",
        "country": "Nigeria",
        "lat": 12.55,
        "long": 4.4,
        "elev ft": 869,
        "pop est": 15010
    },
    {
        "name": "Dagimi",
        "what": "city",
        "region": "Kebbi",
        "country": "Nigeria",
        "lat": 12.82,
        "long": 4.52,
        "elev ft": 830,
        "pop est": 15637
    },
    {
        "name": "Dago",
        "what": "city",
        "region": "Kebbi",
        "country": "Nigeria",
        "lat": 11.54,
        "long": 5.2,
        "elev ft": 1026,
        "pop est": 8149
    },
    {
        "name": "Dagwabro",
        "what": "city",
        "region": "Kebbi",
        "country": "Nigeria",
        "lat": 12.76,
        "long": 4.18,
        "elev ft": 859,
        "pop est": 4172
    },
    {
        "name": "Dahole",
        "what": "city",
        "region": "Kebbi",
        "country": "Nigeria",
        "lat": 12.42,
        "long": 4.01,
        "elev ft": 830,
        "pop est": 7102
    },
    {
        "name": "Dak",
        "what": "city",
        "region": "Kebbi",
        "country": "Nigeria",
        "lat": 12.38,
        "long": 4.4,
        "elev ft": 830,
        "pop est": 13167
    },
    {
        "name": "Dakala",
        "what": "city",
        "region": "Kebbi",
        "country": "Nigeria",
        "lat": 12.38,
        "long": 4.4,
        "elev ft": 830,
        "pop est": 13167
    },
    {
        "name": "Dakin Gari",
        "what": "city",
        "region": "Kebbi",
        "country": "Nigeria",
        "lat": 10.91,
        "long": 4.73,
        "elev ft": 351,
        "pop est": 4170
    },
    {
        "name": "Dakingari",
        "what": "city",
        "region": "Kebbi",
        "country": "Nigeria",
        "lat": 11.65,
        "long": 4.06,
        "elev ft": 830,
        "pop est": 11615
    },
    {
        "name": "Dalahko",
        "what": "city",
        "region": "Kebbi",
        "country": "Nigeria",
        "lat": 11.35,
        "long": 4.95,
        "elev ft": 948,
        "pop est": 9628
    },
    {
        "name": "Dalatu",
        "what": "city",
        "region": "Kebbi",
        "country": "Nigeria",
        "lat": 12.56,
        "long": 4.26,
        "elev ft": 830,
        "pop est": 13028
    },
    {
        "name": "Dalija",
        "what": "city",
        "region": "Kebbi",
        "country": "Nigeria",
        "lat": 12.19,
        "long": 3.91,
        "elev ft": 830,
        "pop est": 12218
    },
    {
        "name": "Dalijam",
        "what": "city",
        "region": "Kebbi",
        "country": "Nigeria",
        "lat": 12.57,
        "long": 4.52,
        "elev ft": 961,
        "pop est": 20382
    },
    {
        "name": "Dalijam",
        "what": "city",
        "region": "Kebbi",
        "country": "Nigeria",
        "lat": 12.64,
        "long": 3.87,
        "elev ft": 830,
        "pop est": 4344
    },
    {
        "name": "Dalwa",
        "what": "city",
        "region": "Kebbi",
        "country": "Nigeria",
        "lat": 12.97,
        "long": 4.34,
        "elev ft": 984,
        "pop est": 4172
    },
    {
        "name": "Damana",
        "what": "city",
        "region": "Kebbi",
        "country": "Nigeria",
        "lat": 12.55,
        "long": 4.25,
        "elev ft": 830,
        "pop est": 15642
    },
    {
        "name": "Damana",
        "what": "city",
        "region": "Kebbi",
        "country": "Nigeria",
        "lat": 12.22,
        "long": 3.81,
        "elev ft": 830,
        "pop est": 5175
    },
    {
        "name": "Damana",
        "what": "city",
        "region": "Kebbi",
        "country": "Nigeria",
        "lat": 12.55,
        "long": 3.72,
        "elev ft": 830,
        "pop est": 4862
    },
    {
        "name": "Damase",
        "what": "city",
        "region": "Kebbi",
        "country": "Nigeria",
        "lat": 12.16,
        "long": 3.83,
        "elev ft": 830,
        "pop est": 9103
    },
    {
        "name": "Damba",
        "what": "city",
        "region": "Kebbi",
        "country": "Nigeria",
        "lat": 12.81,
        "long": 4.43,
        "elev ft": 839,
        "pop est": 8194
    },
    {
        "name": "Dambo Gaji",
        "what": "city",
        "region": "Kebbi",
        "country": "Nigeria",
        "lat": 12.18,
        "long": 3.7,
        "elev ft": 830,
        "pop est": 6429
    },
    {
        "name": "Dan Sakara",
        "what": "city",
        "region": "Kebbi",
        "country": "Nigeria",
        "lat": 11.42,
        "long": 4.98,
        "elev ft": 938,
        "pop est": 9834
    },
    {
        "name": "Danbibiri",
        "what": "city",
        "region": "Kebbi",
        "country": "Nigeria",
        "lat": 12.47,
        "long": 4.3,
        "elev ft": 830,
        "pop est": 24685
    },
    {
        "name": "Danca",
        "what": "city",
        "region": "Kebbi",
        "country": "Nigeria",
        "lat": 12.79,
        "long": 4.42,
        "elev ft": 830,
        "pop est": 9161
    },
    {
        "name": "Dandashe",
        "what": "city",
        "region": "Kebbi",
        "country": "Nigeria",
        "lat": 11.45,
        "long": 4.58,
        "elev ft": 830,
        "pop est": 11601
    },
    {
        "name": "Dandashe",
        "what": "city",
        "region": "Kebbi",
        "country": "Nigeria",
        "lat": 11.45,
        "long": 4.57,
        "elev ft": 830,
        "pop est": 11832
    },
    {
        "name": "Dandawa",
        "what": "city",
        "region": "Kebbi",
        "country": "Nigeria",
        "lat": 11.73,
        "long": 4.17,
        "elev ft": 830,
        "pop est": 12814
    },
    {
        "name": "Dandize",
        "what": "city",
        "region": "Kebbi",
        "country": "Nigeria",
        "lat": 11.3,
        "long": 4.74,
        "elev ft": 830,
        "pop est": 8195
    },
    {
        "name": "Danga",
        "what": "city",
        "region": "Kebbi",
        "country": "Nigeria",
        "lat": 11.41,
        "long": 4.78,
        "elev ft": 830,
        "pop est": 8342
    },
    {
        "name": "Dangagi",
        "what": "city",
        "region": "Kebbi",
        "country": "Nigeria",
        "lat": 11.35,
        "long": 4.96,
        "elev ft": 977,
        "pop est": 9611
    },
    {
        "name": "Dangamaji",
        "what": "city",
        "region": "Kebbi",
        "country": "Nigeria",
        "lat": 12.22,
        "long": 4.3,
        "elev ft": 830,
        "pop est": 13190
    },
    {
        "name": "Dangkel",
        "what": "city",
        "region": "Kebbi",
        "country": "Nigeria",
        "lat": 12.87,
        "long": 4.67,
        "elev ft": 830,
        "pop est": 15645
    },
    {
        "name": "Dangoma",
        "what": "city",
        "region": "Kebbi",
        "country": "Nigeria",
        "lat": 12.29,
        "long": 4.15,
        "elev ft": 830,
        "pop est": 12218
    },
    {
        "name": "Dangwon",
        "what": "city",
        "region": "Kebbi",
        "country": "Nigeria",
        "lat": 11.74,
        "long": 4.31,
        "elev ft": 830,
        "pop est": 12838
    },
    {
        "name": "Danhadi",
        "what": "city",
        "region": "Kebbi",
        "country": "Nigeria",
        "lat": 12.42,
        "long": 4.38,
        "elev ft": 830,
        "pop est": 12963
    },
    {
        "name": "Danholi",
        "what": "city",
        "region": "Kebbi",
        "country": "Nigeria",
        "lat": 12.41,
        "long": 4.0,
        "elev ft": 830,
        "pop est": 7279
    },
    {
        "name": "Dania",
        "what": "city",
        "region": "Kebbi",
        "country": "Nigeria",
        "lat": 12.02,
        "long": 4.09,
        "elev ft": 830,
        "pop est": 12406
    },
    {
        "name": "Daniki",
        "what": "city",
        "region": "Kebbi",
        "country": "Nigeria",
        "lat": 11.59,
        "long": 4.34,
        "elev ft": 830,
        "pop est": 11920
    },
    {
        "name": "Danindo",
        "what": "city",
        "region": "Kebbi",
        "country": "Nigeria",
        "lat": 11.48,
        "long": 4.79,
        "elev ft": 862,
        "pop est": 9561
    },
    {
        "name": "Dankal",
        "what": "city",
        "region": "Kebbi",
        "country": "Nigeria",
        "lat": 12.87,
        "long": 4.67,
        "elev ft": 830,
        "pop est": 15645
    },
    {
        "name": "Dankanowa",
        "what": "city",
        "region": "Kebbi",
        "country": "Nigeria",
        "lat": 12.74,
        "long": 4.44,
        "elev ft": 830,
        "pop est": 14780
    },
    {
        "name": "Dankatanga",
        "what": "city",
        "region": "Kebbi",
        "country": "Nigeria",
        "lat": 12.33,
        "long": 4.28,
        "elev ft": 830,
        "pop est": 12647
    },
    {
        "name": "Dankiria",
        "what": "city",
        "region": "Kebbi",
        "country": "Nigeria",
        "lat": 11.54,
        "long": 4.86,
        "elev ft": 951,
        "pop est": 9834
    },
    {
        "name": "Dankiria",
        "what": "city",
        "region": "Kebbi",
        "country": "Nigeria",
        "lat": 12.65,
        "long": 4.47,
        "elev ft": 830,
        "pop est": 15645
    },
    {
        "name": "Danmagira",
        "what": "city",
        "region": "Kebbi",
        "country": "Nigeria",
        "lat": 12.42,
        "long": 4.52,
        "elev ft": 856,
        "pop est": 14074
    },
    {
        "name": "Dantanbari",
        "what": "city",
        "region": "Kebbi",
        "country": "Nigeria",
        "lat": 12.32,
        "long": 4.29,
        "elev ft": 830,
        "pop est": 12701
    },
    {
        "name": "Dantani",
        "what": "city",
        "region": "Kebbi",
        "country": "Nigeria",
        "lat": 11.44,
        "long": 4.91,
        "elev ft": 830,
        "pop est": 9834
    },
    {
        "name": "Dantawoye",
        "what": "city",
        "region": "Kebbi",
        "country": "Nigeria",
        "lat": 12.17,
        "long": 4.27,
        "elev ft": 830,
        "pop est": 13112
    },
    {
        "name": "Danzomu",
        "what": "city",
        "region": "Kebbi",
        "country": "Nigeria",
        "lat": 12.44,
        "long": 4.38,
        "elev ft": 856,
        "pop est": 12963
    },
    {
        "name": "Danzugu",
        "what": "city",
        "region": "Kebbi",
        "country": "Nigeria",
        "lat": 11.3,
        "long": 4.58,
        "elev ft": 830,
        "pop est": 9755
    },
    {
        "name": "Darga",
        "what": "city",
        "region": "Kebbi",
        "country": "Nigeria",
        "lat": 11.3,
        "long": 4.74,
        "elev ft": 830,
        "pop est": 8184
    },
    {
        "name": "Dariya",
        "what": "city",
        "region": "Kebbi",
        "country": "Nigeria",
        "lat": 11.24,
        "long": 4.69,
        "elev ft": 830,
        "pop est": 8191
    },
    {
        "name": "Darko",
        "what": "city",
        "region": "Kebbi",
        "country": "Nigeria",
        "lat": 11.47,
        "long": 4.76,
        "elev ft": 830,
        "pop est": 9104
    },
    {
        "name": "Dasalam",
        "what": "city",
        "region": "Kebbi",
        "country": "Nigeria",
        "lat": 11.71,
        "long": 3.68,
        "elev ft": 830,
        "pop est": 5868
    },
    {
        "name": "Daura",
        "what": "city",
        "region": "Kebbi",
        "country": "Nigeria",
        "lat": 13.16,
        "long": 4.35,
        "elev ft": 830,
        "pop est": 4153
    },
    {
        "name": "Dawa",
        "what": "city",
        "region": "Kebbi",
        "country": "Nigeria",
        "lat": 11.09,
        "long": 4.85,
        "elev ft": 830,
        "pop est": 8184
    },
    {
        "name": "Dayo",
        "what": "city",
        "region": "Kebbi",
        "country": "Nigeria",
        "lat": 12.43,
        "long": 4.0,
        "elev ft": 830,
        "pop est": 6529
    },
    {
        "name": "Debbe",
        "what": "city",
        "region": "Kebbi",
        "country": "Nigeria",
        "lat": 12.43,
        "long": 3.7,
        "elev ft": 830,
        "pop est": 4199
    },
    {
        "name": "Demo",
        "what": "city",
        "region": "Kebbi",
        "country": "Nigeria",
        "lat": 11.44,
        "long": 4.75,
        "elev ft": 830,
        "pop est": 8635
    },
    {
        "name": "Demo",
        "what": "city",
        "region": "Kebbi",
        "country": "Nigeria",
        "lat": 11.45,
        "long": 4.75,
        "elev ft": 830,
        "pop est": 8686
    },
    {
        "name": "Deni Birni",
        "what": "city",
        "region": "Kebbi",
        "country": "Nigeria",
        "lat": 11.56,
        "long": 4.37,
        "elev ft": 830,
        "pop est": 11920
    },
    {
        "name": "Deniki",
        "what": "city",
        "region": "Kebbi",
        "country": "Nigeria",
        "lat": 11.59,
        "long": 4.34,
        "elev ft": 830,
        "pop est": 11920
    },
    {
        "name": "Denyeku",
        "what": "city",
        "region": "Kebbi",
        "country": "Nigeria",
        "lat": 13.15,
        "long": 4.41,
        "elev ft": 830,
        "pop est": 3995
    },
    {
        "name": "Diggi",
        "what": "city",
        "region": "Kebbi",
        "country": "Nigeria",
        "lat": 12.36,
        "long": 4.02,
        "elev ft": 830,
        "pop est": 11860
    },
    {
        "name": "Diggi",
        "what": "city",
        "region": "Kebbi",
        "country": "Nigeria",
        "lat": 11.7,
        "long": 3.73,
        "elev ft": 830,
        "pop est": 6342
    },
    {
        "name": "Digiza",
        "what": "city",
        "region": "Kebbi",
        "country": "Nigeria",
        "lat": 11.4,
        "long": 3.96,
        "elev ft": 830,
        "pop est": 4619
    },
    {
        "name": "Diki",
        "what": "city",
        "region": "Kebbi",
        "country": "Nigeria",
        "lat": 13.16,
        "long": 4.22,
        "elev ft": 830,
        "pop est": 4172
    },
    {
        "name": "Dikko",
        "what": "city",
        "region": "Kebbi",
        "country": "Nigeria",
        "lat": 11.34,
        "long": 4.51,
        "elev ft": 830,
        "pop est": 11920
    },
    {
        "name": "Dikko",
        "what": "city",
        "region": "Kebbi",
        "country": "Nigeria",
        "lat": 11.48,
        "long": 4.8,
        "elev ft": 895,
        "pop est": 9556
    },
    {
        "name": "Dimbogo",
        "what": "city",
        "region": "Kebbi",
        "country": "Nigeria",
        "lat": 12.29,
        "long": 4.33,
        "elev ft": 830,
        "pop est": 14860
    },
    {
        "name": "Dirinbaji",
        "what": "city",
        "region": "Kebbi",
        "country": "Nigeria",
        "lat": 11.25,
        "long": 5.46,
        "elev ft": 1072,
        "pop est": 6705
    },
    {
        "name": "Dirindaji",
        "what": "city",
        "region": "Kebbi",
        "country": "Nigeria",
        "lat": 11.25,
        "long": 5.46,
        "elev ft": 1072,
        "pop est": 6705
    },
    {
        "name": "Dodoru",
        "what": "city",
        "region": "Kebbi",
        "country": "Nigeria",
        "lat": 12.44,
        "long": 4.66,
        "elev ft": 918,
        "pop est": 23025
    },
    {
        "name": "Dogan Sarki",
        "what": "city",
        "region": "Kebbi",
        "country": "Nigeria",
        "lat": 11.57,
        "long": 4.73,
        "elev ft": 830,
        "pop est": 9834
    },
    {
        "name": "Dogo Daji",
        "what": "city",
        "region": "Kebbi",
        "country": "Nigeria",
        "lat": 11.99,
        "long": 4.33,
        "elev ft": 830,
        "pop est": 13112
    },
    {
        "name": "Dogo Daji",
        "what": "city",
        "region": "Kebbi",
        "country": "Nigeria",
        "lat": 11.95,
        "long": 3.94,
        "elev ft": 830,
        "pop est": 7152
    },
    {
        "name": "Dogon Daji",
        "what": "city",
        "region": "Kebbi",
        "country": "Nigeria",
        "lat": 12.42,
        "long": 3.79,
        "elev ft": 830,
        "pop est": 4172
    },
    {
        "name": "Dogon Daji",
        "what": "city",
        "region": "Kebbi",
        "country": "Nigeria",
        "lat": 13.17,
        "long": 4.22,
        "elev ft": 830,
        "pop est": 4172
    },
    {
        "name": "Dogon Kade",
        "what": "city",
        "region": "Kebbi",
        "country": "Nigeria",
        "lat": 11.32,
        "long": 4.4,
        "elev ft": 830,
        "pop est": 11342
    },
    {
        "name": "Dogon Miaw",
        "what": "city",
        "region": "Kebbi",
        "country": "Nigeria",
        "lat": 11.31,
        "long": 4.68,
        "elev ft": 830,
        "pop est": 8195
    },
    {
        "name": "Dogondaji",
        "what": "city",
        "region": "Kebbi",
        "country": "Nigeria",
        "lat": 12.01,
        "long": 4.33,
        "elev ft": 830,
        "pop est": 13112
    },
    {
        "name": "Dogondaji-Karaye",
        "what": "city",
        "region": "Kebbi",
        "country": "Nigeria",
        "lat": 12.01,
        "long": 4.33,
        "elev ft": 830,
        "pop est": 13112
    },
    {
        "name": "Dogoruwa",
        "what": "city",
        "region": "Kebbi",
        "country": "Nigeria",
        "lat": 12.66,
        "long": 3.98,
        "elev ft": 830,
        "pop est": 4172
    },
    {
        "name": "Doke",
        "what": "city",
        "region": "Kebbi",
        "country": "Nigeria",
        "lat": 12.87,
        "long": 4.24,
        "elev ft": 964,
        "pop est": 4172
    },
    {
        "name": "Doke",
        "what": "city",
        "region": "Kebbi",
        "country": "Nigeria",
        "lat": 12.93,
        "long": 4.69,
        "elev ft": 830,
        "pop est": 15645
    },
    {
        "name": "Dole Bandam",
        "what": "city",
        "region": "Kebbi",
        "country": "Nigeria",
        "lat": 11.74,
        "long": 4.13,
        "elev ft": 830,
        "pop est": 12803
    },
    {
        "name": "Dongomi",
        "what": "city",
        "region": "Kebbi",
        "country": "Nigeria",
        "lat": 11.49,
        "long": 4.68,
        "elev ft": 830,
        "pop est": 8763
    },
    {
        "name": "Donko",
        "what": "city",
        "region": "Kebbi",
        "country": "Nigeria",
        "lat": 11.73,
        "long": 5.3,
        "elev ft": 931,
        "pop est": 6433
    },
    {
        "name": "Doya",
        "what": "city",
        "region": "Kebbi",
        "country": "Nigeria",
        "lat": 11.3,
        "long": 4.72,
        "elev ft": 830,
        "pop est": 8195
    },
    {
        "name": "Doya",
        "what": "city",
        "region": "Kebbi",
        "country": "Nigeria",
        "lat": 11.32,
        "long": 4.77,
        "elev ft": 830,
        "pop est": 8338
    },
    {
        "name": "Drumeiru",
        "what": "city",
        "region": "Kebbi",
        "country": "Nigeria",
        "lat": 11.2,
        "long": 4.34,
        "elev ft": 387,
        "pop est": 5042
    },
    {
        "name": "Duduke",
        "what": "city",
        "region": "Kebbi",
        "country": "Nigeria",
        "lat": 12.19,
        "long": 4.32,
        "elev ft": 830,
        "pop est": 13954
    },
    {
        "name": "Dufua",
        "what": "city",
        "region": "Kebbi",
        "country": "Nigeria",
        "lat": 11.92,
        "long": 4.38,
        "elev ft": 830,
        "pop est": 13112
    },
    {
        "name": "Dugan Daji",
        "what": "city",
        "region": "Kebbi",
        "country": "Nigeria",
        "lat": 11.45,
        "long": 3.78,
        "elev ft": 830,
        "pop est": 4619
    },
    {
        "name": "Dugu Bangu",
        "what": "city",
        "region": "Kebbi",
        "country": "Nigeria",
        "lat": 11.62,
        "long": 3.89,
        "elev ft": 830,
        "pop est": 8117
    },
    {
        "name": "Dugu Raha",
        "what": "city",
        "region": "Kebbi",
        "country": "Nigeria",
        "lat": 11.17,
        "long": 4.56,
        "elev ft": 830,
        "pop est": 9058
    },
    {
        "name": "Dugu-Tsofo",
        "what": "city",
        "region": "Kebbi",
        "country": "Nigeria",
        "lat": 11.12,
        "long": 4.59,
        "elev ft": 416,
        "pop est": 7563
    },
    {
        "name": "Dugua",
        "what": "city",
        "region": "Kebbi",
        "country": "Nigeria",
        "lat": 11.64,
        "long": 3.99,
        "elev ft": 830,
        "pop est": 8534
    },
    {
        "name": "Duhua",
        "what": "city",
        "region": "Kebbi",
        "country": "Nigeria",
        "lat": 11.65,
        "long": 4.73,
        "elev ft": 830,
        "pop est": 8929
    },
    {
        "name": "Duka",
        "what": "city",
        "region": "Kebbi",
        "country": "Nigeria",
        "lat": 11.26,
        "long": 4.63,
        "elev ft": 830,
        "pop est": 8195
    },
    {
        "name": "Dukki",
        "what": "city",
        "region": "Kebbi",
        "country": "Nigeria",
        "lat": 12.26,
        "long": 3.91,
        "elev ft": 830,
        "pop est": 10336
    },
    {
        "name": "Dukushi",
        "what": "city",
        "region": "Kebbi",
        "country": "Nigeria",
        "lat": 11.96,
        "long": 3.89,
        "elev ft": 830,
        "pop est": 7152
    },
    {
        "name": "Dulmeru",
        "what": "city",
        "region": "Kebbi",
        "country": "Nigeria",
        "lat": 11.2,
        "long": 4.34,
        "elev ft": 387,
        "pop est": 5042
    },
    {
        "name": "Dumbogo",
        "what": "city",
        "region": "Kebbi",
        "country": "Nigeria",
        "lat": 12.29,
        "long": 4.33,
        "elev ft": 830,
        "pop est": 14860
    },
    {
        "name": "Dundaye",
        "what": "city",
        "region": "Kebbi",
        "country": "Nigeria",
        "lat": 12.97,
        "long": 4.63,
        "elev ft": 846,
        "pop est": 15645
    },
    {
        "name": "Dundiye",
        "what": "city",
        "region": "Kebbi",
        "country": "Nigeria",
        "lat": 12.97,
        "long": 4.63,
        "elev ft": 846,
        "pop est": 15645
    },
    {
        "name": "Dungere",
        "what": "city",
        "region": "Kebbi",
        "country": "Nigeria",
        "lat": 11.23,
        "long": 4.39,
        "elev ft": 830,
        "pop est": 9142
    },
    {
        "name": "Dungere",
        "what": "city",
        "region": "Kebbi",
        "country": "Nigeria",
        "lat": 11.24,
        "long": 4.34,
        "elev ft": 830,
        "pop est": 7250
    },
    {
        "name": "Duruwa",
        "what": "city",
        "region": "Kebbi",
        "country": "Nigeria",
        "lat": 11.41,
        "long": 4.85,
        "elev ft": 928,
        "pop est": 9454
    },
    {
        "name": "Dutchen Kuka",
        "what": "city",
        "region": "Kebbi",
        "country": "Nigeria",
        "lat": 11.74,
        "long": 4.37,
        "elev ft": 830,
        "pop est": 12691
    },
    {
        "name": "Dutse",
        "what": "city",
        "region": "Kebbi",
        "country": "Nigeria",
        "lat": 12.78,
        "long": 4.42,
        "elev ft": 830,
        "pop est": 8991
    },
    {
        "name": "Dutse Fakara",
        "what": "city",
        "region": "Kebbi",
        "country": "Nigeria",
        "lat": 12.88,
        "long": 4.41,
        "elev ft": 931,
        "pop est": 4172
    },
    {
        "name": "Dutsel",
        "what": "city",
        "region": "Kebbi",
        "country": "Nigeria",
        "lat": 12.57,
        "long": 4.63,
        "elev ft": 1023,
        "pop est": 30620
    },
    {
        "name": "Dutsin Keiwa",
        "what": "city",
        "region": "Kebbi",
        "country": "Nigeria",
        "lat": 10.96,
        "long": 4.43,
        "elev ft": 830,
        "pop est": 8195
    },
    {
        "name": "Dutsin Mari",
        "what": "city",
        "region": "Kebbi",
        "country": "Nigeria",
        "lat": 11.19,
        "long": 4.44,
        "elev ft": 830,
        "pop est": 8982
    },
    {
        "name": "Dutsin Sabtaka",
        "what": "city",
        "region": "Kebbi",
        "country": "Nigeria",
        "lat": 12.62,
        "long": 3.86,
        "elev ft": 830,
        "pop est": 4173
    },
    {
        "name": "Etene",
        "what": "city",
        "region": "Kebbi",
        "country": "Nigeria",
        "lat": 12.24,
        "long": 4.02,
        "elev ft": 830,
        "pop est": 12218
    },
    {
        "name": "Eyaka",
        "what": "city",
        "region": "Kebbi",
        "country": "Nigeria",
        "lat": 11.56,
        "long": 4.38,
        "elev ft": 830,
        "pop est": 11920
    },
    {
        "name": "Fadisonko",
        "what": "city",
        "region": "Kebbi",
        "country": "Nigeria",
        "lat": 12.78,
        "long": 4.59,
        "elev ft": 830,
        "pop est": 15645
    },
    {
        "name": "Fagada",
        "what": "city",
        "region": "Kebbi",
        "country": "Nigeria",
        "lat": 12.09,
        "long": 4.46,
        "elev ft": 846,
        "pop est": 27977
    },
    {
        "name": "Fagada",
        "what": "city",
        "region": "Kebbi",
        "country": "Nigeria",
        "lat": 12.2,
        "long": 3.92,
        "elev ft": 830,
        "pop est": 12218
    },
    {
        "name": "Fagada Maidaji",
        "what": "city",
        "region": "Kebbi",
        "country": "Nigeria",
        "lat": 12.1,
        "long": 4.45,
        "elev ft": 839,
        "pop est": 26838
    },
    {
        "name": "Fakai",
        "what": "city",
        "region": "Kebbi",
        "country": "Nigeria",
        "lat": 11.5,
        "long": 5.11,
        "elev ft": 951,
        "pop est": 9834
    },
    {
        "name": "Fakon Zamau",
        "what": "city",
        "region": "Kebbi",
        "country": "Nigeria",
        "lat": 12.61,
        "long": 3.84,
        "elev ft": 830,
        "pop est": 4172
    },
    {
        "name": "Fakwon Sarki",
        "what": "city",
        "region": "Kebbi",
        "country": "Nigeria",
        "lat": 12.7,
        "long": 4.7,
        "elev ft": 1020,
        "pop est": 15645
    },
    {
        "name": "Fala",
        "what": "city",
        "region": "Kebbi",
        "country": "Nigeria",
        "lat": 11.76,
        "long": 4.08,
        "elev ft": 830,
        "pop est": 10777
    },
    {
        "name": "Falde",
        "what": "city",
        "region": "Kebbi",
        "country": "Nigeria",
        "lat": 12.6,
        "long": 3.8,
        "elev ft": 830,
        "pop est": 4342
    },
    {
        "name": "Falke",
        "what": "city",
        "region": "Kebbi",
        "country": "Nigeria",
        "lat": 11.94,
        "long": 4.17,
        "elev ft": 830,
        "pop est": 12814
    },
    {
        "name": "Fanadi",
        "what": "city",
        "region": "Kebbi",
        "country": "Nigeria",
        "lat": 12.06,
        "long": 4.12,
        "elev ft": 830,
        "pop est": 12326
    },
    {
        "name": "Fanna",
        "what": "city",
        "region": "Kebbi",
        "country": "Nigeria",
        "lat": 11.71,
        "long": 3.94,
        "elev ft": 830,
        "pop est": 7152
    },
    {
        "name": "Fantalu",
        "what": "city",
        "region": "Kebbi",
        "country": "Nigeria",
        "lat": 12.89,
        "long": 4.09,
        "elev ft": 843,
        "pop est": 4184
    },
    {
        "name": "Farankya",
        "what": "city",
        "region": "Kebbi",
        "country": "Nigeria",
        "lat": 11.69,
        "long": 3.63,
        "elev ft": 830,
        "pop est": 4998
    },
    {
        "name": "Faratu",
        "what": "city",
        "region": "Kebbi",
        "country": "Nigeria",
        "lat": 12.36,
        "long": 4.45,
        "elev ft": 839,
        "pop est": 20221
    },
    {
        "name": "Fari Ruwa",
        "what": "city",
        "region": "Kebbi",
        "country": "Nigeria",
        "lat": 10.41,
        "long": 4.82,
        "elev ft": 830,
        "pop est": 5364
    },
    {
        "name": "Farin-Ruwa",
        "what": "city",
        "region": "Kebbi",
        "country": "Nigeria",
        "lat": 11.54,
        "long": 4.96,
        "elev ft": 898,
        "pop est": 9834
    },
    {
        "name": "Farin-Ruwa",
        "what": "city",
        "region": "Kebbi",
        "country": "Nigeria",
        "lat": 11.39,
        "long": 4.87,
        "elev ft": 830,
        "pop est": 9747
    },
    {
        "name": "Farsangu",
        "what": "city",
        "region": "Kebbi",
        "country": "Nigeria",
        "lat": 12.47,
        "long": 3.81,
        "elev ft": 830,
        "pop est": 4172
    },
    {
        "name": "Federi",
        "what": "city",
        "region": "Kebbi",
        "country": "Nigeria",
        "lat": 11.78,
        "long": 4.12,
        "elev ft": 830,
        "pop est": 12713
    },
    {
        "name": "Felende",
        "what": "city",
        "region": "Kebbi",
        "country": "Nigeria",
        "lat": 12.69,
        "long": 4.5,
        "elev ft": 830,
        "pop est": 15645
    },
    {
        "name": "Ferin-Kaya",
        "what": "city",
        "region": "Kebbi",
        "country": "Nigeria",
        "lat": 10.98,
        "long": 4.33,
        "elev ft": 830,
        "pop est": 7429
    },
    {
        "name": "Feske",
        "what": "city",
        "region": "Kebbi",
        "country": "Nigeria",
        "lat": 12.75,
        "long": 3.98,
        "elev ft": 830,
        "pop est": 5025
    },
    {
        "name": "Feske Baba",
        "what": "city",
        "region": "Kebbi",
        "country": "Nigeria",
        "lat": 12.75,
        "long": 3.98,
        "elev ft": 830,
        "pop est": 5025
    },
    {
        "name": "Fingilla",
        "what": "city",
        "region": "Kebbi",
        "country": "Nigeria",
        "lat": 11.9,
        "long": 3.78,
        "elev ft": 830,
        "pop est": 7152
    },
    {
        "name": "Finguila",
        "what": "city",
        "region": "Kebbi",
        "country": "Nigeria",
        "lat": 11.9,
        "long": 3.78,
        "elev ft": 830,
        "pop est": 7152
    },
    {
        "name": "Foge",
        "what": "city",
        "region": "Kebbi",
        "country": "Nigeria",
        "lat": 10.56,
        "long": 4.58,
        "elev ft": 295,
        "pop est": 1558
    },
    {
        "name": "Fokku",
        "what": "city",
        "region": "Kebbi",
        "country": "Nigeria",
        "lat": 12.08,
        "long": 4.38,
        "elev ft": 830,
        "pop est": 16165
    },
    {
        "name": "Foraye",
        "what": "city",
        "region": "Kebbi",
        "country": "Nigeria",
        "lat": 12.7,
        "long": 4.47,
        "elev ft": 830,
        "pop est": 15645
    },
    {
        "name": "Fore",
        "what": "city",
        "region": "Kebbi",
        "country": "Nigeria",
        "lat": 11.96,
        "long": 4.22,
        "elev ft": 830,
        "pop est": 12830
    },
    {
        "name": "Haikimawa",
        "what": "city",
        "region": "Kebbi",
        "country": "Nigeria",
        "lat": 12.63,
        "long": 4.06,
        "elev ft": 830,
        "pop est": 4172
    },
    {
        "name": "Hakwon Sarki",
        "what": "city",
        "region": "Kebbi",
        "country": "Nigeria",
        "lat": 12.7,
        "long": 4.7,
        "elev ft": 1020,
        "pop est": 15645
    },
    {
        "name": "Halibu Soja",
        "what": "city",
        "region": "Kebbi",
        "country": "Nigeria",
        "lat": 11.4,
        "long": 4.37,
        "elev ft": 830,
        "pop est": 7678
    },
    {
        "name": "Hama",
        "what": "city",
        "region": "Kebbi",
        "country": "Nigeria",
        "lat": 11.1,
        "long": 4.81,
        "elev ft": 830,
        "pop est": 8189
    },
    {
        "name": "Hanto",
        "what": "city",
        "region": "Kebbi",
        "country": "Nigeria",
        "lat": 11.43,
        "long": 4.83,
        "elev ft": 1017,
        "pop est": 9304
    },
    {
        "name": "Hantsi",
        "what": "city",
        "region": "Kebbi",
        "country": "Nigeria",
        "lat": 11.01,
        "long": 4.84,
        "elev ft": 830,
        "pop est": 8195
    },
    {
        "name": "Harasawa",
        "what": "city",
        "region": "Kebbi",
        "country": "Nigeria",
        "lat": 12.43,
        "long": 4.25,
        "elev ft": 830,
        "pop est": 58391
    },
    {
        "name": "Hassan",
        "what": "city",
        "region": "Kebbi",
        "country": "Nigeria",
        "lat": 11.49,
        "long": 4.73,
        "elev ft": 830,
        "pop est": 9191
    },
    {
        "name": "Hatuwa",
        "what": "city",
        "region": "Kebbi",
        "country": "Nigeria",
        "lat": 11.1,
        "long": 4.51,
        "elev ft": 830,
        "pop est": 7352
    },
    {
        "name": "Hawachaka",
        "what": "city",
        "region": "Kebbi",
        "country": "Nigeria",
        "lat": 12.87,
        "long": 4.07,
        "elev ft": 830,
        "pop est": 4636
    },
    {
        "name": "Hawal",
        "what": "city",
        "region": "Kebbi",
        "country": "Nigeria",
        "lat": 11.66,
        "long": 4.77,
        "elev ft": 830,
        "pop est": 8813
    },
    {
        "name": "Helanae",
        "what": "city",
        "region": "Kebbi",
        "country": "Nigeria",
        "lat": 12.68,
        "long": 4.49,
        "elev ft": 830,
        "pop est": 15645
    },
    {
        "name": "Helande",
        "what": "city",
        "region": "Kebbi",
        "country": "Nigeria",
        "lat": 12.69,
        "long": 4.5,
        "elev ft": 830,
        "pop est": 15645
    },
    {
        "name": "Hicinga",
        "what": "city",
        "region": "Kebbi",
        "country": "Nigeria",
        "lat": 12.44,
        "long": 4.36,
        "elev ft": 830,
        "pop est": 12963
    },
    {
        "name": "Hilakila",
        "what": "city",
        "region": "Kebbi",
        "country": "Nigeria",
        "lat": 10.89,
        "long": 4.71,
        "elev ft": 347,
        "pop est": 4027
    },
    {
        "name": "Hilala",
        "what": "city",
        "region": "Kebbi",
        "country": "Nigeria",
        "lat": 10.88,
        "long": 4.74,
        "elev ft": 351,
        "pop est": 4769
    },
    {
        "name": "Hilema",
        "what": "city",
        "region": "Kebbi",
        "country": "Nigeria",
        "lat": 12.34,
        "long": 3.9,
        "elev ft": 830,
        "pop est": 6118
    },
    {
        "name": "Hirini",
        "what": "city",
        "region": "Kebbi",
        "country": "Nigeria",
        "lat": 11.4,
        "long": 4.38,
        "elev ft": 830,
        "pop est": 8322
    },
    {
        "name": "Homa",
        "what": "city",
        "region": "Kebbi",
        "country": "Nigeria",
        "lat": 11.16,
        "long": 4.52,
        "elev ft": 393,
        "pop est": 8787
    },
    {
        "name": "Hore",
        "what": "city",
        "region": "Kebbi",
        "country": "Nigeria",
        "lat": 11.96,
        "long": 4.22,
        "elev ft": 830,
        "pop est": 12830
    },
    {
        "name": "Horigari",
        "what": "city",
        "region": "Kebbi",
        "country": "Nigeria",
        "lat": 11.26,
        "long": 4.59,
        "elev ft": 830,
        "pop est": 9169
    },
    {
        "name": "Huda",
        "what": "city",
        "region": "Kebbi",
        "country": "Nigeria",
        "lat": 12.39,
        "long": 4.3,
        "elev ft": 830,
        "pop est": 12953
    },
    {
        "name": "Hudussu",
        "what": "city",
        "region": "Kebbi",
        "country": "Nigeria",
        "lat": 12.92,
        "long": 4.12,
        "elev ft": 898,
        "pop est": 4172
    },
    {
        "name": "Hulkuye",
        "what": "city",
        "region": "Kebbi",
        "country": "Nigeria",
        "lat": 11.99,
        "long": 4.29,
        "elev ft": 830,
        "pop est": 13073
    },
    {
        "name": "Hundeji",
        "what": "city",
        "region": "Kebbi",
        "country": "Nigeria",
        "lat": 11.01,
        "long": 4.7,
        "elev ft": 390,
        "pop est": 6428
    },
    {
        "name": "Ibo",
        "what": "city",
        "region": "Kebbi",
        "country": "Nigeria",
        "lat": 11.14,
        "long": 5.68,
        "elev ft": 1007,
        "pop est": 6705
    },
    {
        "name": "Idowa",
        "what": "city",
        "region": "Kebbi",
        "country": "Nigeria",
        "lat": 11.12,
        "long": 4.06,
        "elev ft": 830,
        "pop est": 4619
    },
    {
        "name": "Idua",
        "what": "city",
        "region": "Kebbi",
        "country": "Nigeria",
        "lat": 11.53,
        "long": 4.04,
        "elev ft": 830,
        "pop est": 6923
    },
    {
        "name": "Ilabre",
        "what": "city",
        "region": "Kebbi",
        "country": "Nigeria",
        "lat": 11.65,
        "long": 4.99,
        "elev ft": 997,
        "pop est": 9737
    },
    {
        "name": "Ilabre",
        "what": "city",
        "region": "Kebbi",
        "country": "Nigeria",
        "lat": 11.65,
        "long": 4.98,
        "elev ft": 990,
        "pop est": 9559
    },
    {
        "name": "Ileia",
        "what": "city",
        "region": "Kebbi",
        "country": "Nigeria",
        "lat": 11.72,
        "long": 4.31,
        "elev ft": 830,
        "pop est": 12762
    },
    {
        "name": "Ilela",
        "what": "city",
        "region": "Kebbi",
        "country": "Nigeria",
        "lat": 12.56,
        "long": 4.72,
        "elev ft": 1023,
        "pop est": 35017
    },
    {
        "name": "Ilela",
        "what": "city",
        "region": "Kebbi",
        "country": "Nigeria",
        "lat": 12.55,
        "long": 4.38,
        "elev ft": 830,
        "pop est": 15190
    },
    {
        "name": "Illela",
        "what": "city",
        "region": "Kebbi",
        "country": "Nigeria",
        "lat": 12.56,
        "long": 4.41,
        "elev ft": 856,
        "pop est": 15428
    },
    {
        "name": "Illela",
        "what": "city",
        "region": "Kebbi",
        "country": "Nigeria",
        "lat": 12.15,
        "long": 4.05,
        "elev ft": 830,
        "pop est": 12218
    },
    {
        "name": "Illela",
        "what": "city",
        "region": "Kebbi",
        "country": "Nigeria",
        "lat": 11.89,
        "long": 4.18,
        "elev ft": 830,
        "pop est": 12814
    },
    {
        "name": "Illela",
        "what": "city",
        "region": "Kebbi",
        "country": "Nigeria",
        "lat": 12.37,
        "long": 3.97,
        "elev ft": 830,
        "pop est": 8813
    },
    {
        "name": "Illela",
        "what": "city",
        "region": "Kebbi",
        "country": "Nigeria",
        "lat": 12.25,
        "long": 4.3,
        "elev ft": 830,
        "pop est": 13353
    },
    {
        "name": "Illela",
        "what": "city",
        "region": "Kebbi",
        "country": "Nigeria",
        "lat": 12.42,
        "long": 4.32,
        "elev ft": 830,
        "pop est": 12963
    },
    {
        "name": "Illela",
        "what": "city",
        "region": "Kebbi",
        "country": "Nigeria",
        "lat": 12.26,
        "long": 3.9,
        "elev ft": 830,
        "pop est": 8775
    },
    {
        "name": "Illela Alu",
        "what": "city",
        "region": "Kebbi",
        "country": "Nigeria",
        "lat": 11.56,
        "long": 4.35,
        "elev ft": 830,
        "pop est": 11920
    },
    {
        "name": "Illela Kunyu",
        "what": "city",
        "region": "Kebbi",
        "country": "Nigeria",
        "lat": 12.56,
        "long": 4.72,
        "elev ft": 1023,
        "pop est": 35017
    },
    {
        "name": "Illela-Kakore",
        "what": "city",
        "region": "Kebbi",
        "country": "Nigeria",
        "lat": 13.14,
        "long": 4.32,
        "elev ft": 830,
        "pop est": 4172
    },
    {
        "name": "Illo",
        "what": "city",
        "region": "Kebbi",
        "country": "Nigeria",
        "lat": 11.55,
        "long": 3.7,
        "elev ft": 830,
        "pop est": 4475
    },
    {
        "name": "Imara",
        "what": "city",
        "region": "Kebbi",
        "country": "Nigeria",
        "lat": 12.59,
        "long": 4.42,
        "elev ft": 830,
        "pop est": 15645
    },
    {
        "name": "Imulu",
        "what": "city",
        "region": "Kebbi",
        "country": "Nigeria",
        "lat": 11.66,
        "long": 4.99,
        "elev ft": 997,
        "pop est": 9647
    },
    {
        "name": "Indire",
        "what": "city",
        "region": "Kebbi",
        "country": "Nigeria",
        "lat": 12.08,
        "long": 4.12,
        "elev ft": 830,
        "pop est": 12291
    },
    {
        "name": "Ingarji",
        "what": "city",
        "region": "Kebbi",
        "country": "Nigeria",
        "lat": 11.91,
        "long": 4.49,
        "elev ft": 997,
        "pop est": 17215
    },
    {
        "name": "Inugu",
        "what": "city",
        "region": "Kebbi",
        "country": "Nigeria",
        "lat": 11.15,
        "long": 4.48,
        "elev ft": 383,
        "pop est": 7865
    },
    {
        "name": "Iri-Hakini",
        "what": "city",
        "region": "Kebbi",
        "country": "Nigeria",
        "lat": 12.45,
        "long": 4.3,
        "elev ft": 830,
        "pop est": 23290
    },
    {
        "name": "Issa",
        "what": "city",
        "region": "Kebbi",
        "country": "Nigeria",
        "lat": 11.6,
        "long": 3.97,
        "elev ft": 830,
        "pop est": 10216
    },
    {
        "name": "Issaferma",
        "what": "city",
        "region": "Kebbi",
        "country": "Nigeria",
        "lat": 11.61,
        "long": 3.84,
        "elev ft": 830,
        "pop est": 5972
    },
    {
        "name": "Issaferma",
        "what": "city",
        "region": "Kebbi",
        "country": "Nigeria",
        "lat": 11.6,
        "long": 3.97,
        "elev ft": 830,
        "pop est": 10216
    },
    {
        "name": "Issakana",
        "what": "city",
        "region": "Kebbi",
        "country": "Nigeria",
        "lat": 11.62,
        "long": 3.96,
        "elev ft": 830,
        "pop est": 9119
    },
    {
        "name": "Iyakan Kasa",
        "what": "city",
        "region": "Kebbi",
        "country": "Nigeria",
        "lat": 10.24,
        "long": 4.68,
        "elev ft": 830,
        "pop est": 5103
    },
    {
        "name": "Jabaka",
        "what": "city",
        "region": "Kebbi",
        "country": "Nigeria",
        "lat": 12.83,
        "long": 4.73,
        "elev ft": 830,
        "pop est": 15490
    },
    {
        "name": "Jabali",
        "what": "city",
        "region": "Kebbi",
        "country": "Nigeria",
        "lat": 11.62,
        "long": 3.93,
        "elev ft": 830,
        "pop est": 9144
    },
    {
        "name": "Jada",
        "what": "city",
        "region": "Kebbi",
        "country": "Nigeria",
        "lat": 12.69,
        "long": 4.46,
        "elev ft": 830,
        "pop est": 15645
    },
    {
        "name": "Jadadi",
        "what": "city",
        "region": "Kebbi",
        "country": "Nigeria",
        "lat": 11.66,
        "long": 4.26,
        "elev ft": 830,
        "pop est": 12364
    },
    {
        "name": "Jadadi",
        "what": "city",
        "region": "Kebbi",
        "country": "Nigeria",
        "lat": 11.33,
        "long": 4.65,
        "elev ft": 830,
        "pop est": 8195
    },
    {
        "name": "Jafegi",
        "what": "city",
        "region": "Kebbi",
        "country": "Nigeria",
        "lat": 12.63,
        "long": 3.91,
        "elev ft": 830,
        "pop est": 4172
    },
    {
        "name": "Jagala",
        "what": "city",
        "region": "Kebbi",
        "country": "Nigeria",
        "lat": 11.57,
        "long": 4.66,
        "elev ft": 830,
        "pop est": 9805
    },
    {
        "name": "Jaja",
        "what": "city",
        "region": "Kebbi",
        "country": "Nigeria",
        "lat": 13.15,
        "long": 4.4,
        "elev ft": 839,
        "pop est": 4045
    },
    {
        "name": "Jajjayen-Arna",
        "what": "city",
        "region": "Kebbi",
        "country": "Nigeria",
        "lat": 11.37,
        "long": 4.57,
        "elev ft": 830,
        "pop est": 10974
    },
    {
        "name": "Jambaki",
        "what": "city",
        "region": "Kebbi",
        "country": "Nigeria",
        "lat": 12.34,
        "long": 4.23,
        "elev ft": 830,
        "pop est": 12466
    },
    {
        "name": "Jan Dutse",
        "what": "city",
        "region": "Kebbi",
        "country": "Nigeria",
        "lat": 12.14,
        "long": 4.51,
        "elev ft": 862,
        "pop est": 27271
    },
    {
        "name": "Janare",
        "what": "city",
        "region": "Kebbi",
        "country": "Nigeria",
        "lat": 12.21,
        "long": 4.31,
        "elev ft": 830,
        "pop est": 13470
    },
    {
        "name": "Jangaba",
        "what": "city",
        "region": "Kebbi",
        "country": "Nigeria",
        "lat": 11.13,
        "long": 4.5,
        "elev ft": 830,
        "pop est": 7587
    },
    {
        "name": "Janrua",
        "what": "city",
        "region": "Kebbi",
        "country": "Nigeria",
        "lat": 11.32,
        "long": 4.23,
        "elev ft": 830,
        "pop est": 4210
    },
    {
        "name": "Jantulu",
        "what": "city",
        "region": "Kebbi",
        "country": "Nigeria",
        "lat": 12.89,
        "long": 4.09,
        "elev ft": 843,
        "pop est": 4184
    },