[
    {
        "name": "Abuti",
        "what": "city",
        "region": "Plateau",
        "country": "Nigeria",
        "lat": 8.94,
        "long": 9.72,
        "elev ft": 1010,
        "pop est": 10579
    },
    {
        "name": "Afam",
        "what": "city",
        "region": "Plateau",
        "country": "Nigeria",
        "lat": 9.47,
        "long": 8.69,
        "elev ft": 3349,
        "pop est": 14006
    },
    {
        "name": "Afang",
        "what": "city",
        "region": "Plateau",
        "country": "Nigeria",
        "lat": 9.47,
        "long": 8.69,
        "elev ft": 3349,
        "pop est": 14006
    },
    {
        "name": "Agidi",
        "what": "city",
        "region": "Plateau",
        "country": "Nigeria",
        "lat": 8.44,
        "long": 9.69,
        "elev ft": 830,
        "pop est": 9236
    },
    {
        "name": "Agwala",
        "what": "city",
        "region": "Plateau",
        "country": "Nigeria",
        "lat": 9.4,
        "long": 8.97,
        "elev ft": 4511,
        "pop est": 13485
    },
    {
        "name": "Ajikemai",
        "what": "city",
        "region": "Plateau",
        "country": "Nigeria",
        "lat": 8.68,
        "long": 9.66,
        "elev ft": 830,
        "pop est": 8942
    },
    {
        "name": "Akiri",
        "what": "city",
        "region": "Plateau",
        "country": "Nigeria",
        "lat": 8.51,
        "long": 9.36,
        "elev ft": 830,
        "pop est": 10519
    },
    {
        "name": "Akku",
        "what": "city",
        "region": "Plateau",
        "country": "Nigeria",
        "lat": 9.28,
        "long": 8.72,
        "elev ft": 4389,
        "pop est": 11565
    },
    {
        "name": "Akwat",
        "what": "city",
        "region": "Plateau",
        "country": "Nigeria",
        "lat": 9.54,
        "long": 8.57,
        "elev ft": 2034,
        "pop est": 9047
    },
    {
        "name": "Alluwa",
        "what": "city",
        "region": "Plateau",
        "country": "Nigeria",
        "lat": 9.47,
        "long": 8.71,
        "elev ft": 3484,
        "pop est": 14006
    },
    {
        "name": "Amale",
        "what": "city",
        "region": "Plateau",
        "country": "Nigeria",
        "lat": 8.99,
        "long": 10.04,
        "elev ft": 830,
        "pop est": 3278
    },
    {
        "name": "Amangam",
        "what": "city",
        "region": "Plateau",
        "country": "Nigeria",
        "lat": 9.2,
        "long": 8.74,
        "elev ft": 4189,
        "pop est": 13962
    },
    {
        "name": "Amo",
        "what": "city",
        "region": "Plateau",
        "country": "Nigeria",
        "lat": 10.1,
        "long": 8.75,
        "elev ft": 3599,
        "pop est": 6903
    },
    {
        "name": "Ampan",
        "what": "city",
        "region": "Plateau",
        "country": "Nigeria",
        "lat": 9.36,
        "long": 9.57,
        "elev ft": 3677,
        "pop est": 10877
    },
    {
        "name": "Amper",
        "what": "city",
        "region": "Plateau",
        "country": "Nigeria",
        "lat": 9.36,
        "long": 9.7,
        "elev ft": 1669,
        "pop est": 10877
    },
    {
        "name": "Ampia",
        "what": "city",
        "region": "Plateau",
        "country": "Nigeria",
        "lat": 8.63,
        "long": 9.27,
        "elev ft": 830,
        "pop est": 9238
    },
    {
        "name": "Ampia",
        "what": "city",
        "region": "Plateau",
        "country": "Nigeria",
        "lat": 8.62,
        "long": 9.25,
        "elev ft": 830,
        "pop est": 9238
    },
    {
        "name": "Andel",
        "what": "city",
        "region": "Plateau",
        "country": "Nigeria",
        "lat": 8.8,
        "long": 9.38,
        "elev ft": 830,
        "pop est": 10010
    },
    {
        "name": "Anglo Jos",
        "what": "city",
        "region": "Plateau",
        "country": "Nigeria",
        "lat": 9.88,
        "long": 8.87,
        "elev ft": 4189,
        "pop est": 198447
    },
    {
        "name": "Anglo-Jos",
        "what": "city",
        "region": "Plateau",
        "country": "Nigeria",
        "lat": 9.88,
        "long": 8.87,
        "elev ft": 4189,
        "pop est": 198447
    },
    {
        "name": "Anglojos",
        "what": "city",
        "region": "Plateau",
        "country": "Nigeria",
        "lat": 9.88,
        "long": 8.87,
        "elev ft": 4189,
        "pop est": 198447
    },
    {
        "name": "Angwak",
        "what": "city",
        "region": "Plateau",
        "country": "Nigeria",
        "lat": 8.85,
        "long": 9.8,
        "elev ft": 830,
        "pop est": 12948
    },
    {
        "name": "Angwan Jukun",
        "what": "city",
        "region": "Plateau",
        "country": "Nigeria",
        "lat": 8.92,
        "long": 9.81,
        "elev ft": 869,
        "pop est": 11578
    },
    {
        "name": "Angwan Rogo",
        "what": "city",
        "region": "Plateau",
        "country": "Nigeria",
        "lat": 9.95,
        "long": 8.89,
        "elev ft": 4189,
        "pop est": 195071
    },
    {
        "name": "Angwan Wambai",
        "what": "city",
        "region": "Plateau",
        "country": "Nigeria",
        "lat": 8.96,
        "long": 9.79,
        "elev ft": 918,
        "pop est": 11175
    },
    {
        "name": "Angware",
        "what": "city",
        "region": "Plateau",
        "country": "Nigeria",
        "lat": 9.99,
        "long": 9.11,
        "elev ft": 3349,
        "pop est": 9086
    },
    {
        "name": "Antil",
        "what": "city",
        "region": "Plateau",
        "country": "Nigeria",
        "lat": 8.82,
        "long": 9.52,
        "elev ft": 830,
        "pop est": 10579
    },
    {
        "name": "Aphalan",
        "what": "city",
        "region": "Plateau",
        "country": "Nigeria",
        "lat": 9.41,
        "long": 8.67,
        "elev ft": 3349,
        "pop est": 13511
    },
    {
        "name": "Arim",
        "what": "city",
        "region": "Plateau",
        "country": "Nigeria",
        "lat": 9.92,
        "long": 8.98,
        "elev ft": 4609,
        "pop est": 85379
    },
    {
        "name": "Arna",
        "what": "city",
        "region": "Plateau",
        "country": "Nigeria",
        "lat": 9.42,
        "long": 8.93,
        "elev ft": 4498,
        "pop est": 13729
    },
    {
        "name": "Arna",
        "what": "city",
        "region": "Plateau",
        "country": "Nigeria",
        "lat": 9.28,
        "long": 8.79,
        "elev ft": 4389,
        "pop est": 13203
    },
    {
        "name": "Arna",
        "what": "city",
        "region": "Plateau",
        "country": "Nigeria",
        "lat": 9.33,
        "long": 8.81,
        "elev ft": 4517,
        "pop est": 13535
    },
    {
        "name": "Asakye",
        "what": "city",
        "region": "Plateau",
        "country": "Nigeria",
        "lat": 8.82,
        "long": 9.69,
        "elev ft": 892,
        "pop est": 10579
    },
    {
        "name": "Assab Hausa",
        "what": "city",
        "region": "Plateau",
        "country": "Nigeria",
        "lat": 9.54,
        "long": 8.64,
        "elev ft": 3349,
        "pop est": 13717
    },
    {
        "name": "Assai",
        "what": "city",
        "region": "Plateau",
        "country": "Nigeria",
        "lat": 9.45,
        "long": 8.72,
        "elev ft": 3503,
        "pop est": 14006
    },
    {
        "name": "Assob Hausa",
        "what": "city",
        "region": "Plateau",
        "country": "Nigeria",
        "lat": 9.54,
        "long": 8.64,
        "elev ft": 3349,
        "pop est": 13717
    },
    {
        "name": "Ataka",
        "what": "city",
        "region": "Plateau",
        "country": "Nigeria",
        "lat": 9.58,
        "long": 8.6,
        "elev ft": 3694,
        "pop est": 9713
    },
    {
        "name": "Atserabem",
        "what": "city",
        "region": "Plateau",
        "country": "Nigeria",
        "lat": 8.57,
        "long": 9.36,
        "elev ft": 830,
        "pop est": 10331
    },
    {
        "name": "Ause",
        "what": "city",
        "region": "Plateau",
        "country": "Nigeria",
        "lat": 8.5,
        "long": 9.36,
        "elev ft": 830,
        "pop est": 10291
    },
    {
        "name": "Auta",
        "what": "city",
        "region": "Plateau",
        "country": "Nigeria",
        "lat": 8.65,
        "long": 9.07,
        "elev ft": 830,
        "pop est": 9238
    },
    {
        "name": "B-Ladi",
        "what": "city",
        "region": "Plateau",
        "country": "Nigeria",
        "lat": 9.54,
        "long": 8.89,
        "elev ft": 4281,
        "pop est": 14006
    },
    {
        "name": "Ba'ap",
        "what": "city",
        "region": "Plateau",
        "country": "Nigeria",
        "lat": 8.94,
        "long": 9.24,
        "elev ft": 935,
        "pop est": 9238
    },
    {
        "name": "Baal",
        "what": "city",
        "region": "Plateau",
        "country": "Nigeria",
        "lat": 8.93,
        "long": 9.25,
        "elev ft": 908,
        "pop est": 9238
    },
    {
        "name": "Baap",
        "what": "city",
        "region": "Plateau",
        "country": "Nigeria",
        "lat": 8.94,
        "long": 9.24,
        "elev ft": 935,
        "pop est": 9238
    },
    {
        "name": "Baban-Fadama",
        "what": "city",
        "region": "Plateau",
        "country": "Nigeria",
        "lat": 8.75,
        "long": 9.29,
        "elev ft": 830,
        "pop est": 9238
    },
    {
        "name": "Babanfadama",
        "what": "city",
        "region": "Plateau",
        "country": "Nigeria",
        "lat": 8.75,
        "long": 9.29,
        "elev ft": 830,
        "pop est": 9238
    },
    {
        "name": "Babelli",
        "what": "city",
        "region": "Plateau",
        "country": "Nigeria",
        "lat": 10.02,
        "long": 8.94,
        "elev ft": 3349,
        "pop est": 59831
    },
    {
        "name": "Bachit",
        "what": "city",
        "region": "Plateau",
        "country": "Nigeria",
        "lat": 9.5,
        "long": 8.69,
        "elev ft": 3349,
        "pop est": 14006
    },
    {
        "name": "Bachit",
        "what": "city",
        "region": "Plateau",
        "country": "Nigeria",
        "lat": 9.53,
        "long": 8.71,
        "elev ft": 3372,
        "pop est": 14006
    },
    {
        "name": "Bad",
        "what": "city",
        "region": "Plateau",
        "country": "Nigeria",
        "lat": 9.6,
        "long": 9.88,
        "elev ft": 1669,
        "pop est": 7092
    },
    {
        "name": "Bad",
        "what": "city",
        "region": "Plateau",
        "country": "Nigeria",
        "lat": 9.61,
        "long": 9.87,
        "elev ft": 1669,
        "pop est": 7569
    },
    {
        "name": "Badakoshi Kangwa",
        "what": "city",
        "region": "Plateau",
        "country": "Nigeria",
        "lat": 8.79,
        "long": 9.69,
        "elev ft": 859,
        "pop est": 10575
    },
    {
        "name": "Badni",
        "what": "city",
        "region": "Plateau",
        "country": "Nigeria",
        "lat": 9.6,
        "long": 9.3,
        "elev ft": 3749,
        "pop est": 12645
    },
    {
        "name": "Bahit",
        "what": "city",
        "region": "Plateau",
        "country": "Nigeria",
        "lat": 9.97,
        "long": 8.74,
        "elev ft": 3549,
        "pop est": 7536
    },
    {
        "name": "Baka",
        "what": "city",
        "region": "Plateau",
        "country": "Nigeria",
        "lat": 8.72,
        "long": 9.21,
        "elev ft": 830,
        "pop est": 9238
    },
    {
        "name": "Bakin Chiawa",
        "what": "city",
        "region": "Plateau",
        "country": "Nigeria",
        "lat": 8.61,
        "long": 9.29,
        "elev ft": 830,
        "pop est": 9289
    },
    {
        "name": "Bakin Chiyawa",
        "what": "city",
        "region": "Plateau",
        "country": "Nigeria",
        "lat": 8.61,
        "long": 9.29,
        "elev ft": 830,
        "pop est": 9289
    },
    {
        "name": "Bakin Kande",
        "what": "city",
        "region": "Plateau",
        "country": "Nigeria",
        "lat": 8.72,
        "long": 9.2,
        "elev ft": 830,
        "pop est": 9238
    },
    {
        "name": "Bakin Kogi",
        "what": "city",
        "region": "Plateau",
        "country": "Nigeria",
        "lat": 9.66,
        "long": 9.07,
        "elev ft": 3362,
        "pop est": 13813
    },
    {
        "name": "Bakinkogi",
        "what": "city",
        "region": "Plateau",
        "country": "Nigeria",
        "lat": 8.81,
        "long": 9.45,
        "elev ft": 830,
        "pop est": 10544
    },
    {
        "name": "Bakkoh",
        "what": "city",
        "region": "Plateau",
        "country": "Nigeria",
        "lat": 8.45,
        "long": 9.69,
        "elev ft": 830,
        "pop est": 9208
    },
    {
        "name": "Balburu",
        "what": "city",
        "region": "Plateau",
        "country": "Nigeria",
        "lat": 8.91,
        "long": 9.82,
        "elev ft": 853,
        "pop est": 11689
    },
    {
        "name": "Baltap",
        "what": "city",
        "region": "Plateau",
        "country": "Nigeria",
        "lat": 9.0,
        "long": 9.59,
        "elev ft": 1243,
        "pop est": 10582
    },
    {
        "name": "Banfa",
        "what": "city",
        "region": "Plateau",
        "country": "Nigeria",
        "lat": 8.97,
        "long": 9.67,
        "elev ft": 1115,
        "pop est": 10579
    },
    {
        "name": "Bang",
        "what": "city",
        "region": "Plateau",
        "country": "Nigeria",
        "lat": 8.92,
        "long": 9.96,
        "elev ft": 830,
        "pop est": 8813
    },
    {
        "name": "Bang",
        "what": "city",
        "region": "Plateau",
        "country": "Nigeria",
        "lat": 8.94,
        "long": 9.96,
        "elev ft": 830,
        "pop est": 6844
    },
    {
        "name": "Bang",
        "what": "city",
        "region": "Plateau",
        "country": "Nigeria",
        "lat": 8.96,
        "long": 9.95,
        "elev ft": 830,
        "pop est": 6684
    },
    {
        "name": "Bangai",
        "what": "city",
        "region": "Plateau",
        "country": "Nigeria",
        "lat": 9.53,
        "long": 8.7,
        "elev ft": 3369,
        "pop est": 14006
    },
    {
        "name": "Bar Bonga",
        "what": "city",
        "region": "Plateau",
        "country": "Nigeria",
        "lat": 9.93,
        "long": 8.97,
        "elev ft": 5029,
        "pop est": 114160
    },
    {
        "name": "Bar Gada",
        "what": "city",
        "region": "Plateau",
        "country": "Nigeria",
        "lat": 9.82,
        "long": 8.87,
        "elev ft": 4189,
        "pop est": 192216
    },
    {
        "name": "Bar Jirg Summa",
        "what": "city",
        "region": "Plateau",
        "country": "Nigeria",
        "lat": 9.86,
        "long": 8.9,
        "elev ft": 4258,
        "pop est": 188227
    },
    {
        "name": "Bar Jirgi Summa",
        "what": "city",
        "region": "Plateau",
        "country": "Nigeria",
        "lat": 9.86,
        "long": 8.9,
        "elev ft": 4258,
        "pop est": 188227
    },
    {
        "name": "Bar Kogi",
        "what": "city",
        "region": "Plateau",
        "country": "Nigeria",
        "lat": 9.66,
        "long": 9.07,
        "elev ft": 3362,
        "pop est": 13813
    },
    {
        "name": "Bar Tin-Tin",
        "what": "city",
        "region": "Plateau",
        "country": "Nigeria",
        "lat": 9.78,
        "long": 8.94,
        "elev ft": 4189,
        "pop est": 61964
    },
    {
        "name": "Bar-N-Bako",
        "what": "city",
        "region": "Plateau",
        "country": "Nigeria",
        "lat": 9.74,
        "long": 8.94,
        "elev ft": 4189,
        "pop est": 18544
    },
    {
        "name": "Bar-n-John",
        "what": "city",
        "region": "Plateau",
        "country": "Nigeria",
        "lat": 9.54,
        "long": 8.95,
        "elev ft": 4543,
        "pop est": 14006
    },
    {
        "name": "Bar-n-Ladi",
        "what": "city",
        "region": "Plateau",
        "country": "Nigeria",
        "lat": 9.54,
        "long": 8.89,
        "elev ft": 4281,
        "pop est": 14006
    },
    {
        "name": "Barakin",
        "what": "city",
        "region": "Plateau",
        "country": "Nigeria",
        "lat": 9.94,
        "long": 8.86,
        "elev ft": 4189,
        "pop est": 184433
    },
    {
        "name": "Barakin",
        "what": "city",
        "region": "Plateau",
        "country": "Nigeria",
        "lat": 9.87,
        "long": 8.92,
        "elev ft": 4311,
        "pop est": 180696
    },
    {
        "name": "Barakin",
        "what": "city",
        "region": "Plateau",
        "country": "Nigeria",
        "lat": 9.54,
        "long": 8.89,
        "elev ft": 4281,
        "pop est": 14006
    },
    {
        "name": "Barakin Acha",
        "what": "city",
        "region": "Plateau",
        "country": "Nigeria",
        "lat": 9.86,
        "long": 8.83,
        "elev ft": 4189,
        "pop est": 133903
    },
    {
        "name": "Barakin Akawo",
        "what": "city",
        "region": "Plateau",
        "country": "Nigeria",
        "lat": 9.85,
        "long": 8.86,
        "elev ft": 4189,
        "pop est": 187211
    },
    {
        "name": "Barakin Amo",
        "what": "city",
        "region": "Plateau",
        "country": "Nigeria",
        "lat": 10.1,
        "long": 8.75,
        "elev ft": 3599,
        "pop est": 6903
    },
    {
        "name": "Barakin Angundi",
        "what": "city",
        "region": "Plateau",
        "country": "Nigeria",
        "lat": 9.77,
        "long": 8.86,
        "elev ft": 4189,
        "pop est": 147930
    },
    {
        "name": "Barakin Babele",
        "what": "city",
        "region": "Plateau",
        "country": "Nigeria",
        "lat": 10.02,
        "long": 8.94,
        "elev ft": 3349,
        "pop est": 59831
    },
    {
        "name": "Barakin Columbai",
        "what": "city",
        "region": "Plateau",
        "country": "Nigeria",
        "lat": 9.68,
        "long": 8.86,
        "elev ft": 4189,
        "pop est": 17023
    },
    {
        "name": "Barakin Danbo",
        "what": "city",
        "region": "Plateau",
        "country": "Nigeria",
        "lat": 9.86,
        "long": 8.81,
        "elev ft": 4189,
        "pop est": 83242
    },
    {
        "name": "Barakin Dangurugu",
        "what": "city",
        "region": "Plateau",
        "country": "Nigeria",
        "lat": 9.9,
        "long": 8.82,
        "elev ft": 4189,
        "pop est": 134814
    },
    {
        "name": "Barakin Darowa",
        "what": "city",
        "region": "Plateau",
        "country": "Nigeria",
        "lat": 9.53,
        "long": 8.98,
        "elev ft": 4347,
        "pop est": 13987
    },
    {
        "name": "Barakin Delimi Sabuwa",
        "what": "city",
        "region": "Plateau",
        "country": "Nigeria",
        "lat": 9.86,
        "long": 8.93,
        "elev ft": 4399,
        "pop est": 146813
    },
    {
        "name": "Barakin Dogon Gaba",
        "what": "city",
        "region": "Plateau",
        "country": "Nigeria",
        "lat": 9.76,
        "long": 8.71,
        "elev ft": 3697,
        "pop est": 8049
    },
    {
        "name": "Barakin Ferin Fula",
        "what": "city",
        "region": "Plateau",
        "country": "Nigeria",
        "lat": 9.87,
        "long": 8.96,
        "elev ft": 4468,
        "pop est": 90412
    },
    {
        "name": "Barakin Gangare",
        "what": "city",
        "region": "Plateau",
        "country": "Nigeria",
        "lat": 9.55,
        "long": 8.9,
        "elev ft": 4238,
        "pop est": 14006
    },
    {
        "name": "Barakin Gero",
        "what": "city",
        "region": "Plateau",
        "country": "Nigeria",
        "lat": 9.81,
        "long": 8.81,
        "elev ft": 4189,
        "pop est": 98223
    },
    {
        "name": "Barakin Gurum",
        "what": "city",
        "region": "Plateau",
        "country": "Nigeria",
        "lat": 10.04,
        "long": 8.84,
        "elev ft": 3677,
        "pop est": 21749
    },
    {
        "name": "Barakin Halley",
        "what": "city",
        "region": "Plateau",
        "country": "Nigeria",
        "lat": 10.03,
        "long": 8.82,
        "elev ft": 4189,
        "pop est": 15309
    },
    {
        "name": "Barakin Indi",
        "what": "city",
        "region": "Plateau",
        "country": "Nigeria",
        "lat": 9.57,
        "long": 8.96,
        "elev ft": 4268,
        "pop est": 14006
    },
    {
        "name": "Barakin Katarko",
        "what": "city",
        "region": "Plateau",
        "country": "Nigeria",
        "lat": 9.54,
        "long": 8.89,
        "elev ft": 4281,
        "pop est": 14006
    },
    {
        "name": "Barakin Kaya",
        "what": "city",
        "region": "Plateau",
        "country": "Nigeria",
        "lat": 9.49,
        "long": 9.45,
        "elev ft": 2851,
        "pop est": 10917
    },
    {
        "name": "Barakin Kowa",
        "what": "city",
        "region": "Plateau",
        "country": "Nigeria",
        "lat": 9.86,
        "long": 8.86,
        "elev ft": 4189,
        "pop est": 187211
    },
    {
        "name": "Barakin Kuru",
        "what": "city",
        "region": "Plateau",
        "country": "Nigeria",
        "lat": 9.69,
        "long": 8.87,
        "elev ft": 4189,
        "pop est": 31725
    },
    {
        "name": "Barakin Kuru Baba",
        "what": "city",
        "region": "Plateau",
        "country": "Nigeria",
        "lat": 9.68,
        "long": 8.8,
        "elev ft": 4189,
        "pop est": 24127
    },
    {
        "name": "Barakin Kuru III",
        "what": "city",
        "region": "Plateau",
        "country": "Nigeria",
        "lat": 9.69,
        "long": 8.87,
        "elev ft": 4189,
        "pop est": 31725
    },
    {
        "name": "Barakin Kuru Three",
        "what": "city",
        "region": "Plateau",
        "country": "Nigeria",
        "lat": 9.69,
        "long": 8.87,
        "elev ft": 4189,
        "pop est": 31725
    },
    {
        "name": "Barakin Kwi",
        "what": "city",
        "region": "Plateau",
        "country": "Nigeria",
        "lat": 9.61,
        "long": 8.85,
        "elev ft": 4189,
        "pop est": 13854
    },
    {
        "name": "Barakin Ladi",
        "what": "city",
        "region": "Plateau",
        "country": "Nigeria",
        "lat": 9.54,
        "long": 8.89,
        "elev ft": 4281,
        "pop est": 14006
    },
    {
        "name": "Barakin Lerawi",
        "what": "city",
        "region": "Plateau",
        "country": "Nigeria",
        "lat": 9.87,
        "long": 8.88,
        "elev ft": 4189,
        "pop est": 199711
    },
    {
        "name": "Barakin Limoro",
        "what": "city",
        "region": "Plateau",
        "country": "Nigeria",
        "lat": 10.24,
        "long": 8.92,
        "elev ft": 3402,
        "pop est": 6848
    },
    {
        "name": "Barakin Maiadiko",
        "what": "city",
        "region": "Plateau",
        "country": "Nigeria",
        "lat": 9.83,
        "long": 8.89,
        "elev ft": 4189,
        "pop est": 189535
    },
    {
        "name": "Barakin Mairaga",
        "what": "city",
        "region": "Plateau",
        "country": "Nigeria",
        "lat": 10.01,
        "long": 8.84,
        "elev ft": 4189,
        "pop est": 51470
    },
    {
        "name": "Barakin Mar",
        "what": "city",
        "region": "Plateau",
        "country": "Nigeria",
        "lat": 9.89,
        "long": 8.92,
        "elev ft": 4274,
        "pop est": 175715
    },
    {
        "name": "Barakin Mari",
        "what": "city",
        "region": "Plateau",
        "country": "Nigeria",
        "lat": 9.89,
        "long": 8.92,
        "elev ft": 4274,
        "pop est": 175715
    },
    {
        "name": "Barakin Matari",
        "what": "city",
        "region": "Plateau",
        "country": "Nigeria",
        "lat": 10.02,
        "long": 8.85,
        "elev ft": 3671,
        "pop est": 44792
    },
    {
        "name": "Barakin Mayanga",
        "what": "city",
        "region": "Plateau",
        "country": "Nigeria",
        "lat": 9.89,
        "long": 8.94,
        "elev ft": 4425,
        "pop est": 153151
    },
    {
        "name": "Barakin Momo Dogo",
        "what": "city",
        "region": "Plateau",
        "country": "Nigeria",
        "lat": 9.74,
        "long": 8.71,
        "elev ft": 4189,
        "pop est": 9803
    },
    {
        "name": "Barakin Nafam Dregi",
        "what": "city",
        "region": "Plateau",
        "country": "Nigeria",
        "lat": 9.58,
        "long": 8.99,
        "elev ft": 4189,
        "pop est": 14006
    },
    {
        "name": "Barakin Naraguta",
        "what": "city",
        "region": "Plateau",
        "country": "Nigeria",
        "lat": 9.97,
        "long": 8.88,
        "elev ft": 3671,
        "pop est": 157259
    },
    {
        "name": "Barakin Nda",
        "what": "city",
        "region": "Plateau",
        "country": "Nigeria",
        "lat": 9.82,
        "long": 8.82,
        "elev ft": 4189,
        "pop est": 113635
    },
    {
        "name": "Barakin Passa",
        "what": "city",
        "region": "Plateau",
        "country": "Nigeria",
        "lat": 10.03,
        "long": 8.84,
        "elev ft": 3677,
        "pop est": 29096
    },
    {
        "name": "Barakin Rafin Atcha",
        "what": "city",
        "region": "Plateau",
        "country": "Nigeria",
        "lat": 9.52,
        "long": 8.79,
        "elev ft": 4189,
        "pop est": 14006
    },
    {
        "name": "Barakin Rafin Gora",
        "what": "city",
        "region": "Plateau",
        "country": "Nigeria",
        "lat": 9.94,
        "long": 8.86,
        "elev ft": 4189,
        "pop est": 184433
    },
    {
        "name": "Barakin Russo",
        "what": "city",
        "region": "Plateau",
        "country": "Nigeria",
        "lat": 9.96,
        "long": 8.87,
        "elev ft": 3746,
        "pop est": 170132
    },
    {
        "name": "Barakin S Gidan Kanat",
        "what": "city",
        "region": "Plateau",
        "country": "Nigeria",
        "lat": 9.77,
        "long": 8.81,
        "elev ft": 4189,
        "pop est": 114954
    },
    {
        "name": "Barakin Sabawa",
        "what": "city",
        "region": "Plateau",
        "country": "Nigeria",
        "lat": 9.86,
        "long": 8.93,
        "elev ft": 4399,
        "pop est": 146813
    },
    {
        "name": "Barakin Sabawa",
        "what": "city",
        "region": "Plateau",
        "country": "Nigeria",
        "lat": 9.87,
        "long": 8.91,
        "elev ft": 4291,
        "pop est": 180696
    },
    {
        "name": "Barakin Sabon",
        "what": "city",
        "region": "Plateau",
        "country": "Nigeria",
        "lat": 9.95,
        "long": 8.87,
        "elev ft": 4189,
        "pop est": 184093
    },
    {
        "name": "Barakin Sauki",
        "what": "city",
        "region": "Plateau",
        "country": "Nigeria",
        "lat": 10.0,
        "long": 8.84,
        "elev ft": 4189,
        "pop est": 63719
    },
    {
        "name": "Barakin Sho",
        "what": "city",
        "region": "Plateau",
        "country": "Nigeria",
        "lat": 9.52,
        "long": 8.82,
        "elev ft": 4189,
        "pop est": 14006
    },
    {
        "name": "Barakin Tenti",
        "what": "city",
        "region": "Plateau",
        "country": "Nigeria",
        "lat": 9.72,
        "long": 8.88,
        "elev ft": 4189,
        "pop est": 62866
    },
    {
        "name": "Barakin Tenti Maigajerin Wondo",
        "what": "city",
        "region": "Plateau",
        "country": "Nigeria",
        "lat": 9.72,
        "long": 8.88,
        "elev ft": 4189,
        "pop est": 62866
    },
    {
        "name": "Barakin Tumbakiri",
        "what": "city",
        "region": "Plateau",
        "country": "Nigeria",
        "lat": 10.05,
        "long": 8.77,
        "elev ft": 3694,
        "pop est": 6902
    },
    {
        "name": "Barakin Werram",
        "what": "city",
        "region": "Plateau",
        "country": "Nigeria",
        "lat": 9.61,
        "long": 8.8,
        "elev ft": 4189,
        "pop est": 13802
    },
    {
        "name": "Barakin Yampita",
        "what": "city",
        "region": "Plateau",
        "country": "Nigeria",
        "lat": 9.97,
        "long": 8.85,
        "elev ft": 4189,
        "pop est": 146494
    },
    {
        "name": "Bargesh",
        "what": "city",
        "region": "Plateau",
        "country": "Nigeria",
        "lat": 9.17,
        "long": 8.83,
        "elev ft": 4189,
        "pop est": 13565
    },
    {
        "name": "Bargesh",
        "what": "city",
        "region": "Plateau",
        "country": "Nigeria",
        "lat": 9.13,
        "long": 8.81,
        "elev ft": 4189,
        "pop est": 14666
    },
    {
        "name": "Barikin Bako",
        "what": "city",
        "region": "Plateau",
        "country": "Nigeria",
        "lat": 9.74,
        "long": 8.94,
        "elev ft": 4189,
        "pop est": 18544
    },
    {
        "name": "Barikin Gidar Kanat",
        "what": "city",
        "region": "Plateau",
        "country": "Nigeria",
        "lat": 9.77,
        "long": 8.81,
        "elev ft": 4189,
        "pop est": 114954
    },
    {
        "name": "Barikin Habu",
        "what": "city",
        "region": "Plateau",
        "country": "Nigeria",
        "lat": 9.79,
        "long": 8.99,
        "elev ft": 4189,
        "pop est": 13355
    },
    {
        "name": "Barikin Jirga Summa",
        "what": "city",
        "region": "Plateau",
        "country": "Nigeria",
        "lat": 9.86,
        "long": 8.9,
        "elev ft": 4258,
        "pop est": 188227
    },
    {
        "name": "Barikin John",
        "what": "city",
        "region": "Plateau",
        "country": "Nigeria",
        "lat": 9.54,
        "long": 8.95,
        "elev ft": 4543,
        "pop est": 14006
    },
    {
        "name": "Barikin Kogi",
        "what": "city",
        "region": "Plateau",
        "country": "Nigeria",
        "lat": 9.66,
        "long": 9.07,
        "elev ft": 3362,
        "pop est": 13813
    },
    {
        "name": "Barikin Ladi",
        "what": "city",
        "region": "Plateau",
        "country": "Nigeria",
        "lat": 9.54,
        "long": 8.89,
        "elev ft": 4281,
        "pop est": 14006
    },
    {
        "name": "Barikin Maiadiko",
        "what": "city",
        "region": "Plateau",
        "country": "Nigeria",
        "lat": 9.83,
        "long": 8.89,
        "elev ft": 4189,
        "pop est": 189535
    },
    {
        "name": "Barikin Momo Dogo",
        "what": "city",
        "region": "Plateau",
        "country": "Nigeria",
        "lat": 9.74,
        "long": 8.71,
        "elev ft": 4189,
        "pop est": 9803
    },
    {
        "name": "Barikin Sabon Gidan Kanat",
        "what": "city",
        "region": "Plateau",
        "country": "Nigeria",
        "lat": 9.77,
        "long": 8.81,
        "elev ft": 4189,
        "pop est": 114954
    },
    {
        "name": "Barikin Sabon Gidar Kanat",
        "what": "city",
        "region": "Plateau",
        "country": "Nigeria",
        "lat": 9.77,
        "long": 8.81,
        "elev ft": 4189,
        "pop est": 114954
    },
    {
        "name": "Barikin Tin Tin",
        "what": "city",
        "region": "Plateau",
        "country": "Nigeria",
        "lat": 9.78,
        "long": 8.94,
        "elev ft": 4189,
        "pop est": 61964
    },
    {
        "name": "Barikin-Biak",
        "what": "city",
        "region": "Plateau",
        "country": "Nigeria",
        "lat": 8.94,
        "long": 10.01,
        "elev ft": 830,
        "pop est": 3278
    },
    {
        "name": "Barkin Ladi",
        "what": "city",
        "region": "Plateau",
        "country": "Nigeria",
        "lat": 9.54,
        "long": 8.89,
        "elev ft": 4281,
        "pop est": 14006
    },
    {
        "name": "Barkogi",
        "what": "city",
        "region": "Plateau",
        "country": "Nigeria",
        "lat": 9.66,
        "long": 9.07,
        "elev ft": 3362,
        "pop est": 13813
    },
    {
        "name": "Baron",
        "what": "city",
        "region": "Plateau",
        "country": "Nigeria",
        "lat": 9.4,
        "long": 9.15,
        "elev ft": 4189,
        "pop est": 13261
    },
    {
        "name": "Bassa",
        "what": "city",
        "region": "Plateau",
        "country": "Nigeria",
        "lat": 9.94,
        "long": 8.74,
        "elev ft": 3772,
        "pop est": 8131
    },
    {
        "name": "Batura",
        "what": "city",
        "region": "Plateau",
        "country": "Nigeria",
        "lat": 9.33,
        "long": 8.95,
        "elev ft": 4484,
        "pop est": 13261
    },
    {
        "name": "Batura",
        "what": "city",
        "region": "Plateau",
        "country": "Nigeria",
        "lat": 9.3,
        "long": 8.95,
        "elev ft": 4498,
        "pop est": 13261
    },
    {
        "name": "Batura",
        "what": "city",
        "region": "Plateau",
        "country": "Nigeria",
        "lat": 9.34,
        "long": 8.93,
        "elev ft": 4481,
        "pop est": 13261
    },
    {
        "name": "Bawan Dado",
        "what": "city",
        "region": "Plateau",
        "country": "Nigeria",
        "lat": 9.63,
        "long": 9.07,
        "elev ft": 3412,
        "pop est": 13997
    },
    {
        "name": "Bawan Dodo",
        "what": "city",
        "region": "Plateau",
        "country": "Nigeria",
        "lat": 9.63,
        "long": 9.07,
        "elev ft": 3412,
        "pop est": 13997
    },
    {
        "name": "Ba\u2019ap",
        "what": "city",
        "region": "Plateau",
        "country": "Nigeria",
        "lat": 8.94,
        "long": 9.24,
        "elev ft": 935,
        "pop est": 9238
    },
    {
        "name": "Belnin",
        "what": "city",
        "region": "Plateau",
        "country": "Nigeria",
        "lat": 9.2,
        "long": 9.42,
        "elev ft": 2083,
        "pop est": 10877
    },
    {
        "name": "Bembem",
        "what": "city",
        "region": "Plateau",
        "country": "Nigeria",
        "lat": 8.6,
        "long": 9.4,
        "elev ft": 830,
        "pop est": 10579
    },
    {
        "name": "Bena",
        "what": "city",
        "region": "Plateau",
        "country": "Nigeria",
        "lat": 8.64,
        "long": 9.03,
        "elev ft": 830,
        "pop est": 9238
    },
    {
        "name": "Bepmi",
        "what": "city",
        "region": "Plateau",
        "country": "Nigeria",
        "lat": 8.81,
        "long": 9.59,
        "elev ft": 872,
        "pop est": 10579
    },
    {
        "name": "Biak",
        "what": "city",
        "region": "Plateau",
        "country": "Nigeria",
        "lat": 8.97,
        "long": 10.01,
        "elev ft": 830,
        "pop est": 3278
    },
    {
        "name": "Bilsin",
        "what": "city",
        "region": "Plateau",
        "country": "Nigeria",
        "lat": 9.5,
        "long": 9.75,
        "elev ft": 1669,
        "pop est": 10127
    },
    {
        "name": "Binch",
        "what": "city",
        "region": "Plateau",
        "country": "Nigeria",
        "lat": 10.01,
        "long": 8.7,
        "elev ft": 3444,
        "pop est": 9803
    },
    {
        "name": "Binchi",
        "what": "city",
        "region": "Plateau",
        "country": "Nigeria",
        "lat": 10.01,
        "long": 8.7,
        "elev ft": 3444,
        "pop est": 9803
    },
    {
        "name": "Biribis",
        "what": "city",
        "region": "Plateau",
        "country": "Nigeria",
        "lat": 8.64,
        "long": 9.43,
        "elev ft": 830,
        "pop est": 10579
    },
    {
        "name": "Birnin Dodo",
        "what": "city",
        "region": "Plateau",
        "country": "Nigeria",
        "lat": 9.63,
        "long": 9.07,
        "elev ft": 3412,
        "pop est": 13997
    },
    {
        "name": "Birnin Rijiy",
        "what": "city",
        "region": "Plateau",
        "country": "Nigeria",
        "lat": 9.02,
        "long": 10.0,
        "elev ft": 830,
        "pop est": 3278
    },
    {
        "name": "Bisa",
        "what": "city",
        "region": "Plateau",
        "country": "Nigeria",
        "lat": 8.75,
        "long": 9.25,
        "elev ft": 830,
        "pop est": 9238
    },
    {
        "name": "Bisichi",
        "what": "city",
        "region": "Plateau",
        "country": "Nigeria",
        "lat": 9.71,
        "long": 8.91,
        "elev ft": 4189,
        "pop est": 24612
    },
    {
        "name": "Biyok",
        "what": "city",
        "region": "Plateau",
        "country": "Nigeria",
        "lat": 9.54,
        "long": 8.57,
        "elev ft": 2034,
        "pop est": 9369
    },
    {
        "name": "Bokkos",
        "what": "city",
        "region": "Plateau",
        "country": "Nigeria",
        "lat": 9.3,
        "long": 8.99,
        "elev ft": 4370,
        "pop est": 13261
    },
    {
        "name": "Bonga",
        "what": "city",
        "region": "Plateau",
        "country": "Nigeria",
        "lat": 9.46,
        "long": 9.17,
        "elev ft": 4189,
        "pop est": 13261
    },
    {
        "name": "Boor",
        "what": "city",
        "region": "Plateau",
        "country": "Nigeria",
        "lat": 8.94,
        "long": 9.27,
        "elev ft": 931,
        "pop est": 9238
    },
    {
        "name": "Boret",
        "what": "city",
        "region": "Plateau",
        "country": "Nigeria",
        "lat": 8.92,
        "long": 9.57,
        "elev ft": 885,
        "pop est": 10579
    },
    {
        "name": "Bua",
        "what": "city",
        "region": "Plateau",
        "country": "Nigeria",
        "lat": 8.42,
        "long": 9.73,
        "elev ft": 830,
        "pop est": 7849
    },
    {
        "name": "Buendem",
        "what": "city",
        "region": "Plateau",
        "country": "Nigeria",
        "lat": 8.8,
        "long": 9.61,
        "elev ft": 859,
        "pop est": 10579
    },
    {
        "name": "Buga da Gindi",
        "what": "city",
        "region": "Plateau",
        "country": "Nigeria",
        "lat": 9.76,
        "long": 8.96,
        "elev ft": 4189,
        "pop est": 16023
    },
    {
        "name": "Buga-da-gindi",
        "what": "city",
        "region": "Plateau",
        "country": "Nigeria",
        "lat": 9.76,
        "long": 8.96,
        "elev ft": 4189,
        "pop est": 16023
    },
    {
        "name": "Bugata",
        "what": "city",
        "region": "Plateau",
        "country": "Nigeria",
        "lat": 8.84,
        "long": 9.69,
        "elev ft": 898,
        "pop est": 10579
    },
    {
        "name": "Bugundu",
        "what": "city",
        "region": "Plateau",
        "country": "Nigeria",
        "lat": 9.43,
        "long": 8.94,
        "elev ft": 4498,
        "pop est": 13785
    },
    {
        "name": "Buji",
        "what": "city",
        "region": "Plateau",
        "country": "Nigeria",
        "lat": 10.12,
        "long": 8.85,
        "elev ft": 3349,
        "pop est": 6854
    },
    {
        "name": "Buka Bokwai",
        "what": "city",
        "region": "Plateau",
        "country": "Nigeria",
        "lat": 9.47,
        "long": 8.96,
        "elev ft": 4494,
        "pop est": 13992
    },
    {
        "name": "Buka Bokwo",
        "what": "city",
        "region": "Plateau",
        "country": "Nigeria",
        "lat": 9.87,
        "long": 8.85,
        "elev ft": 4189,
        "pop est": 182081
    },
    {
        "name": "Bukuru",
        "what": "city",
        "region": "Plateau",
        "country": "Nigeria",
        "lat": 9.79,
        "long": 8.86,
        "elev ft": 4189,
        "pop est": 184519
    },
    {
        "name": "Bul",
        "what": "city",
        "region": "Plateau",
        "country": "Nigeria",
        "lat": 8.6,
        "long": 9.13,
        "elev ft": 830,
        "pop est": 9238
    },
    {
        "name": "Bum",
        "what": "city",
        "region": "Plateau",
        "country": "Nigeria",
        "lat": 9.72,
        "long": 8.66,
        "elev ft": 3566,
        "pop est": 9480
    },
    {
        "name": "Bunum",
        "what": "city",
        "region": "Plateau",
        "country": "Nigeria",
        "lat": 8.66,
        "long": 9.3,
        "elev ft": 830,
        "pop est": 9392
    },
    {
        "name": "Burat",
        "what": "city",
        "region": "Plateau",
        "country": "Nigeria",
        "lat": 9.19,
        "long": 9.8,
        "elev ft": 1669,
        "pop est": 15794
    },
    {
        "name": "Burdinga",
        "what": "city",
        "region": "Plateau",
        "country": "Nigeria",
        "lat": 9.37,
        "long": 8.81,
        "elev ft": 4189,
        "pop est": 13820
    },
    {
        "name": "Buzo",
        "what": "city",
        "region": "Plateau",
        "country": "Nigeria",
        "lat": 8.78,
        "long": 9.54,
        "elev ft": 830,
        "pop est": 10579
    },
    {
        "name": "Bwall",
        "what": "city",
        "region": "Plateau",
        "country": "Nigeria",
        "lat": 8.93,
        "long": 9.17,
        "elev ft": 915,
        "pop est": 9407
    },
    {
        "name": "Bwarat",
        "what": "city",
        "region": "Plateau",
        "country": "Nigeria",
        "lat": 9.19,
        "long": 9.8,
        "elev ft": 1669,
        "pop est": 15794
    },
    {
        "name": "Bwarat",
        "what": "city",
        "region": "Plateau",
        "country": "Nigeria",
        "lat": 8.96,
        "long": 9.92,
        "elev ft": 830,
        "pop est": 9932
    },
    {
        "name": "Bwelgan",
        "what": "city",
        "region": "Plateau",
        "country": "Nigeria",
        "lat": 8.48,
        "long": 9.73,
        "elev ft": 830,
        "pop est": 6205
    },
    {
        "name": "Bwol",
        "what": "city",
        "region": "Plateau",
        "country": "Nigeria",
        "lat": 8.84,
        "long": 9.16,
        "elev ft": 830,
        "pop est": 9238
    },
    {
        "name": "Chado",
        "what": "city",
        "region": "Plateau",
        "country": "Nigeria",
        "lat": 8.51,
        "long": 9.37,
        "elev ft": 830,
        "pop est": 10519
    },
    {
        "name": "Chantim",
        "what": "city",
        "region": "Plateau",
        "country": "Nigeria",
        "lat": 8.53,
        "long": 9.82,
        "elev ft": 830,
        "pop est": 4768
    },
    {
        "name": "Chemso",
        "what": "city",
        "region": "Plateau",
        "country": "Nigeria",
        "lat": 9.58,
        "long": 9.26,
        "elev ft": 3543,
        "pop est": 13251
    },
    {
        "name": "Chip",
        "what": "city",
        "region": "Plateau",
        "country": "Nigeria",
        "lat": 9.19,
        "long": 9.38,
        "elev ft": 1696,
        "pop est": 10889
    },
    {
        "name": "Chokobo",
        "what": "city",
        "region": "Plateau",
        "country": "Nigeria",
        "lat": 10.36,
        "long": 8.84,
        "elev ft": 2782,
        "pop est": 5584
    },
    {
        "name": "Dabam",
        "what": "city",
        "region": "Plateau",
        "country": "Nigeria",
        "lat": 8.8,
        "long": 9.23,
        "elev ft": 830,
        "pop est": 9238
    },
    {
        "name": "Dadin Kowa",
        "what": "city",
        "region": "Plateau",
        "country": "Nigeria",
        "lat": 8.75,
        "long": 9.88,
        "elev ft": 830,
        "pop est": 9189
    },
    {
        "name": "Dadinkowa",
        "what": "city",
        "region": "Plateau",
        "country": "Nigeria",
        "lat": 8.7,
        "long": 9.15,
        "elev ft": 830,
        "pop est": 9238
    },
    {
        "name": "Daffo",
        "what": "city",
        "region": "Plateau",
        "country": "Nigeria",
        "lat": 9.23,
        "long": 8.85,
        "elev ft": 4189,
        "pop est": 13261
    },
    {
        "name": "Daffo",
        "what": "city",
        "region": "Plateau",
        "country": "Nigeria",
        "lat": 9.22,
        "long": 8.84,
        "elev ft": 4189,
        "pop est": 13261
    },
    {
        "name": "Dafil",
        "what": "city",
        "region": "Plateau",
        "country": "Nigeria",
        "lat": 8.81,
        "long": 9.7,
        "elev ft": 875,
        "pop est": 10579
    },
    {
        "name": "Dagam",
        "what": "city",
        "region": "Plateau",
        "country": "Nigeria",
        "lat": 9.21,
        "long": 9.76,
        "elev ft": 1669,
        "pop est": 14398
    },
    {
        "name": "Dahot",
        "what": "city",
        "region": "Plateau",
        "country": "Nigeria",
        "lat": 9.56,
        "long": 8.74,
        "elev ft": 3694,
        "pop est": 14006
    },
    {
        "name": "Daji",
        "what": "city",
        "region": "Plateau",
        "country": "Nigeria",
        "lat": 9.85,
        "long": 9.13,
        "elev ft": 3526,
        "pop est": 12983
    },
    {
        "name": "Dal",
        "what": "city",
        "region": "Plateau",
        "country": "Nigeria",
        "lat": 9.5,
        "long": 9.97,
        "elev ft": 1794,
        "pop est": 6556
    },
    {
        "name": "Dalong",
        "what": "city",
        "region": "Plateau",
        "country": "Nigeria",
        "lat": 9.24,
        "long": 9.65,
        "elev ft": 2847,
        "pop est": 10877
    },
    {
        "name": "Dambari",
        "what": "city",
        "region": "Plateau",
        "country": "Nigeria",
        "lat": 10.27,
        "long": 8.92,
        "elev ft": 3349,
        "pop est": 6821
    },
    {
        "name": "Damshin",
        "what": "city",
        "region": "Plateau",
        "country": "Nigeria",
        "lat": 9.85,
        "long": 9.16,
        "elev ft": 3490,
        "pop est": 12970
    },
    {
        "name": "Damshin",
        "what": "city",
        "region": "Plateau",
        "country": "Nigeria",
        "lat": 8.69,
        "long": 9.45,
        "elev ft": 830,
        "pop est": 10579
    },
    {
        "name": "Dan Aba",
        "what": "city",
        "region": "Plateau",
        "country": "Nigeria",
        "lat": 9.74,
        "long": 8.96,
        "elev ft": 4189,
        "pop est": 13719
    },
    {
        "name": "Dan Bagarimi",
        "what": "city",
        "region": "Plateau",
        "country": "Nigeria",
        "lat": 9.59,
        "long": 9.04,
        "elev ft": 3700,
        "pop est": 13919
    },
    {
        "name": "Dan Hausa",
        "what": "city",
        "region": "Plateau",
        "country": "Nigeria",
        "lat": 9.57,
        "long": 9.17,
        "elev ft": 3369,
        "pop est": 13263
    },
    {
        "name": "Dan Kurma",
        "what": "city",
        "region": "Plateau",
        "country": "Nigeria",
        "lat": 9.99,
        "long": 9.13,
        "elev ft": 3349,
        "pop est": 8701
    },
    {
        "name": "Dan Tsofo",
        "what": "city",
        "region": "Plateau",
        "country": "Nigeria",
        "lat": 9.69,
        "long": 9.08,
        "elev ft": 3349,
        "pop est": 13539
    },
    {
        "name": "Dan Tsofo",
        "what": "city",
        "region": "Plateau",
        "country": "Nigeria",
        "lat": 9.58,
        "long": 9.05,
        "elev ft": 4189,
        "pop est": 13852
    },
    {
        "name": "Danbagarmi",
        "what": "city",
        "region": "Plateau",
        "country": "Nigeria",
        "lat": 9.83,
        "long": 8.86,
        "elev ft": 4189,
        "pop est": 174663
    },
    {
        "name": "Danboa",
        "what": "city",
        "region": "Plateau",
        "country": "Nigeria",
        "lat": 8.78,
        "long": 9.1,
        "elev ft": 830,
        "pop est": 9238
    },
    {
        "name": "Danbosh",
        "what": "city",
        "region": "Plateau",
        "country": "Nigeria",
        "lat": 9.35,
        "long": 8.75,
        "elev ft": 4212,
        "pop est": 13442
    },
    {
        "name": "Danfar",
        "what": "city",
        "region": "Plateau",
        "country": "Nigeria",
        "lat": 8.85,
        "long": 9.57,
        "elev ft": 889,
        "pop est": 10579
    },
    {
        "name": "Danfon",
        "what": "city",
        "region": "Plateau",
        "country": "Nigeria",
        "lat": 8.71,
        "long": 9.14,
        "elev ft": 830,
        "pop est": 9238
    },
    {
        "name": "Danga",
        "what": "city",
        "region": "Plateau",
        "country": "Nigeria",
        "lat": 8.95,
        "long": 9.84,
        "elev ft": 830,
        "pop est": 13375
    },
    {
        "name": "Dangdalang",
        "what": "city",
        "region": "Plateau",
        "country": "Nigeria",
        "lat": 8.83,
        "long": 9.21,
        "elev ft": 830,
        "pop est": 9238
    },
    {
        "name": "Dangurugu",
        "what": "city",
        "region": "Plateau",
        "country": "Nigeria",
        "lat": 9.89,
        "long": 8.83,
        "elev ft": 4189,
        "pop est": 145791
    },
    {
        "name": "Dardang",
        "what": "city",
        "region": "Plateau",
        "country": "Nigeria",
        "lat": 8.98,
        "long": 9.33,
        "elev ft": 951,
        "pop est": 9809
    },
    {
        "name": "Darowa",
        "what": "city",
        "region": "Plateau",
        "country": "Nigeria",
        "lat": 9.52,
        "long": 8.97,
        "elev ft": 4422,
        "pop est": 13991
    },
    {
        "name": "Dass",
        "what": "city",
        "region": "Plateau",
        "country": "Nigeria",
        "lat": 9.79,
        "long": 9.21,
        "elev ft": 3349,
        "pop est": 10938
    },
    {
        "name": "Daw",
        "what": "city",
        "region": "Plateau",
        "country": "Nigeria",
        "lat": 9.72,
        "long": 8.67,
        "elev ft": 3661,
        "pop est": 10178
    },
    {
        "name": "Dawaki",
        "what": "city",
        "region": "Plateau",
        "country": "Nigeria",
        "lat": 9.43,
        "long": 9.57,
        "elev ft": 1912,
        "pop est": 10877
    },
    {
        "name": "Delimi",
        "what": "city",
        "region": "Plateau",
        "country": "Nigeria",
        "lat": 9.86,
        "long": 8.93,
        "elev ft": 4399,
        "pop est": 146813
    },
    {
        "name": "Delimi",
        "what": "city",
        "region": "Plateau",
        "country": "Nigeria",
        "lat": 9.87,
        "long": 8.91,
        "elev ft": 4291,
        "pop est": 180696
    },
    {
        "name": "Delimi Sabawa",
        "what": "city",
        "region": "Plateau",
        "country": "Nigeria",
        "lat": 9.87,
        "long": 8.91,
        "elev ft": 4291,
        "pop est": 180696
    },
    {
        "name": "Dengi",
        "what": "city",
        "region": "Plateau",
        "country": "Nigeria",
        "lat": 9.37,
        "long": 9.96,
        "elev ft": 1669,
        "pop est": 6556
    },
    {
        "name": "Der",
        "what": "city",
        "region": "Plateau",
        "country": "Nigeria",
        "lat": 8.8,
        "long": 9.37,
        "elev ft": 830,
        "pop est": 9904
    },
    {
        "name": "Der",
        "what": "city",
        "region": "Plateau",
        "country": "Nigeria",
        "lat": 8.79,
        "long": 9.36,
        "elev ft": 830,
        "pop est": 9766
    },
    {
        "name": "Derlit",
        "what": "city",
        "region": "Plateau",
        "country": "Nigeria",
        "lat": 8.93,
        "long": 9.48,
        "elev ft": 1003,
        "pop est": 10579
    },
    {
        "name": "Dibir",
        "what": "city",
        "region": "Plateau",
        "country": "Nigeria",
        "lat": 9.48,
        "long": 9.74,
        "elev ft": 1669,
        "pop est": 10538
    },
    {
        "name": "Dimmuk",
        "what": "city",
        "region": "Plateau",
        "country": "Nigeria",
        "lat": 8.95,
        "long": 9.24,
        "elev ft": 951,
        "pop est": 9238
    },
    {
        "name": "Dimmuk",
        "what": "city",
        "region": "Plateau",
        "country": "Nigeria",
        "lat": 8.87,
        "long": 9.2,
        "elev ft": 830,
        "pop est": 9238
    },
    {
        "name": "Dogo na Hawa",
        "what": "city",
        "region": "Plateau",
        "country": "Nigeria",
        "lat": 9.81,
        "long": 8.95,
        "elev ft": 4189,
        "pop est": 71859
    },
    {
        "name": "Dogo-na-Hawa",
        "what": "city",
        "region": "Plateau",
        "country": "Nigeria",
        "lat": 9.81,
        "long": 8.95,
        "elev ft": 4189,
        "pop est": 71859
    },
    {
        "name": "Dogon",
        "what": "city",
        "region": "Plateau",
        "country": "Nigeria",
        "lat": 8.8,
        "long": 9.61,
        "elev ft": 869,
        "pop est": 10579
    },
    {
        "name": "Dogon Dinia",
        "what": "city",
        "region": "Plateau",
        "country": "Nigeria",
        "lat": 9.76,
        "long": 8.73,
        "elev ft": 4189,
        "pop est": 8599
    },
    {
        "name": "Dogon Karfi",
        "what": "city",
        "region": "Plateau",
        "country": "Nigeria",
        "lat": 9.89,
        "long": 8.89,
        "elev ft": 4189,
        "pop est": 199687
    },
    {
        "name": "Dogon Yaro",
        "what": "city",
        "region": "Plateau",
        "country": "Nigeria",
        "lat": 10.23,
        "long": 8.79,
        "elev ft": 2821,
        "pop est": 9820
    },
    {
        "name": "Doka Tofa",
        "what": "city",
        "region": "Plateau",
        "country": "Nigeria",
        "lat": 9.1,
        "long": 9.32,
        "elev ft": 1669,
        "pop est": 11623
    },
    {
        "name": "Dokan Tofa",
        "what": "city",
        "region": "Plateau",
        "country": "Nigeria",
        "lat": 9.1,
        "long": 9.32,
        "elev ft": 1669,
        "pop est": 11623
    },
    {
        "name": "Dokku",
        "what": "city",
        "region": "Plateau",
        "country": "Nigeria",
        "lat": 9.57,
        "long": 8.82,
        "elev ft": 4189,
        "pop est": 14006
    },
    {
        "name": "Dole",
        "what": "city",
        "region": "Plateau",
        "country": "Nigeria",
        "lat": 10.04,
        "long": 8.96,
        "elev ft": 2923,
        "pop est": 29162
    },
    {
        "name": "Dolori",
        "what": "city",
        "region": "Plateau",
        "country": "Nigeria",
        "lat": 8.75,
        "long": 9.62,
        "elev ft": 830,
        "pop est": 10579
    },
    {
        "name": "Don Gwan",
        "what": "city",
        "region": "Plateau",
        "country": "Nigeria",
        "lat": 8.89,
        "long": 9.75,
        "elev ft": 944,
        "pop est": 10579
    },
    {
        "name": "Dongwan",
        "what": "city",
        "region": "Plateau",
        "country": "Nigeria",
        "lat": 8.89,
        "long": 9.75,
        "elev ft": 944,
        "pop est": 10579
    },
    {
        "name": "Donkwan",
        "what": "city",
        "region": "Plateau",
        "country": "Nigeria",
        "lat": 8.89,
        "long": 9.75,
        "elev ft": 944,
        "pop est": 10579
    },
    {
        "name": "Doop",
        "what": "city",
        "region": "Plateau",
        "country": "Nigeria",
        "lat": 8.96,
        "long": 9.1,
        "elev ft": 954,
        "pop est": 10200
    },
    {
        "name": "Dorowa",
        "what": "city",
        "region": "Plateau",
        "country": "Nigeria",
        "lat": 9.52,
        "long": 8.97,
        "elev ft": 4422,
        "pop est": 13991
    },
    {
        "name": "Dorowa",
        "what": "city",
        "region": "Plateau",
        "country": "Nigeria",
        "lat": 8.86,
        "long": 9.9,
        "elev ft": 830,
        "pop est": 15943
    },
    {
        "name": "Dorowa Gindin Dutse",
        "what": "city",
        "region": "Plateau",
        "country": "Nigeria",
        "lat": 9.74,
        "long": 8.86,
        "elev ft": 4189,
        "pop est": 126582
    },
    {
        "name": "Dorowa Tsofo",
        "what": "city",
        "region": "Plateau",
        "country": "Nigeria",
        "lat": 9.58,
        "long": 9.05,
        "elev ft": 4189,
        "pop est": 13852
    },
    {
        "name": "Doss",
        "what": "city",
        "region": "Plateau",
        "country": "Nigeria",
        "lat": 9.79,
        "long": 9.21,
        "elev ft": 3349,
        "pop est": 10938
    },
    {
        "name": "Du",
        "what": "city",
        "region": "Plateau",
        "country": "Nigeria",
        "lat": 9.75,
        "long": 8.89,
        "elev ft": 4189,
        "pop est": 105388
    },
    {
        "name": "Duankwan",
        "what": "city",
        "region": "Plateau",
        "country": "Nigeria",
        "lat": 8.89,
        "long": 9.75,
        "elev ft": 944,
        "pop est": 10579
    },
    {
        "name": "Duger",
        "what": "city",
        "region": "Plateau",
        "country": "Nigeria",
        "lat": 8.66,
        "long": 9.0,
        "elev ft": 830,
        "pop est": 9238
    },
    {
        "name": "Dungba",
        "what": "city",
        "region": "Plateau",
        "country": "Nigeria",
        "lat": 8.81,
        "long": 9.59,
        "elev ft": 869,
        "pop est": 10579
    },
    {
        "name": "Dungba Angas",
        "what": "city",
        "region": "Plateau",
        "country": "Nigeria",
        "lat": 8.78,
        "long": 9.59,
        "elev ft": 846,
        "pop est": 10579
    },
    {
        "name": "Dunggoeshing",
        "what": "city",
        "region": "Plateau",
        "country": "Nigeria",
        "lat": 8.87,
        "long": 9.77,
        "elev ft": 885,
        "pop est": 10690
    },
    {
        "name": "Dungten",
        "what": "city",
        "region": "Plateau",
        "country": "Nigeria",
        "lat": 8.96,
        "long": 9.81,
        "elev ft": 885,
        "pop est": 12081
    },
    {
        "name": "Dungum",
        "what": "city",
        "region": "Plateau",
        "country": "Nigeria",
        "lat": 8.82,
        "long": 9.49,
        "elev ft": 830,
        "pop est": 10579
    },
    {
        "name": "Dungun",
        "what": "city",
        "region": "Plateau",
        "country": "Nigeria",
        "lat": 9.33,
        "long": 9.58,
        "elev ft": 2509,
        "pop est": 10877
    },
    {
        "name": "Dunhens",
        "what": "city",
        "region": "Plateau",
        "country": "Nigeria",
        "lat": 8.93,
        "long": 9.42,
        "elev ft": 977,
        "pop est": 10566
    },
    {
        "name": "Dunkul",
        "what": "city",
        "region": "Plateau",
        "country": "Nigeria",
        "lat": 8.77,
        "long": 9.53,
        "elev ft": 830,
        "pop est": 10579
    },
    {
        "name": "Dunkul",
        "what": "city",
        "region": "Plateau",
        "country": "Nigeria",
        "lat": 8.75,
        "long": 9.53,
        "elev ft": 830,
        "pop est": 10579
    },
    {
        "name": "Dunkul",
        "what": "city",
        "region": "Plateau",
        "country": "Nigeria",
        "lat": 8.76,
        "long": 9.52,
        "elev ft": 830,
        "pop est": 10579
    },
    {
        "name": "Dupal",
        "what": "city",
        "region": "Plateau",
        "country": "Nigeria",
        "lat": 8.89,
        "long": 9.41,
        "elev ft": 882,
        "pop est": 10569
    },
    {
        "name": "Durbi",
        "what": "city",
        "region": "Plateau",
        "country": "Nigeria",
        "lat": 9.97,
        "long": 8.99,
        "elev ft": 3556,
        "pop est": 85464
    },
    {
        "name": "Durimi",
        "what": "city",
        "region": "Plateau",
        "country": "Nigeria",
        "lat": 9.42,
        "long": 8.93,
        "elev ft": 4498,
        "pop est": 13729
    },
    {
        "name": "Duruka",
        "what": "city",
        "region": "Plateau",
        "country": "Nigeria",
        "lat": 8.9,
        "long": 9.72,
        "elev ft": 990,
        "pop est": 10579
    },
    {
        "name": "Duruka",
        "what": "city",
        "region": "Plateau",
        "country": "Nigeria",
        "lat": 8.93,
        "long": 9.72,
        "elev ft": 1007,
        "pop est": 10579
    },
    {
        "name": "Durumi",
        "what": "city",
        "region": "Plateau",
        "country": "Nigeria",
        "lat": 9.42,
        "long": 8.93,
        "elev ft": 4498,
        "pop est": 13729
    },
    {
        "name": "Dutsen Daji",
        "what": "city",
        "region": "Plateau",
        "country": "Nigeria",
        "lat": 9.85,
        "long": 9.13,
        "elev ft": 3526,
        "pop est": 12983
    },
    {
        "name": "Dutsen Kato",
        "what": "city",
        "region": "Plateau",
        "country": "Nigeria",
        "lat": 9.76,
        "long": 8.77,
        "elev ft": 4189,
        "pop est": 43519
    },
    {
        "name": "Dutsen Rimi",
        "what": "city",
        "region": "Plateau",
        "country": "Nigeria",
        "lat": 8.95,
        "long": 9.91,
        "elev ft": 830,
        "pop est": 11547
    },
    {
        "name": "Dutsin Daji",
        "what": "city",
        "region": "Plateau",
        "country": "Nigeria",
        "lat": 9.85,
        "long": 9.13,
        "elev ft": 3526,
        "pop est": 12983
    },
    {
        "name": "Dutsin Kurra",
        "what": "city",
        "region": "Plateau",
        "country": "Nigeria",
        "lat": 9.4,
        "long": 8.74,
        "elev ft": 3697,
        "pop est": 14006
    },
    {
        "name": "Dutsin Rimi",
        "what": "city",
        "region": "Plateau",
        "country": "Nigeria",
        "lat": 8.95,
        "long": 9.91,
        "elev ft": 830,
        "pop est": 11547
    },
    {
        "name": "D\u017cos",
        "what": "city",
        "region": "Plateau",
        "country": "Nigeria",
        "lat": 9.93,
        "long": 8.89,
        "elev ft": 4189,
        "pop est": 199663
    },
    {
        "name": "Fadisonka",
        "what": "city",
        "region": "Plateau",
        "country": "Nigeria",
        "lat": 10.37,
        "long": 8.81,
        "elev ft": 2654,
        "pop est": 7626
    },
    {
        "name": "Fajul",
        "what": "city",
        "region": "Plateau",
        "country": "Nigeria",
        "lat": 8.62,
        "long": 9.99,
        "elev ft": 830,
        "pop est": 4768
    },
    {
        "name": "Fale",
        "what": "city",
        "region": "Plateau",
        "country": "Nigeria",
        "lat": 8.91,
        "long": 9.88,
        "elev ft": 830,
        "pop est": 15354
    },
    {
        "name": "Farin Yashe",
        "what": "city",
        "region": "Plateau",
        "country": "Nigeria",
        "lat": 9.87,
        "long": 8.99,
        "elev ft": 4468,
        "pop est": 30360
    },
    {
        "name": "Farin-Ruwa",
        "what": "city",
        "region": "Plateau",
        "country": "Nigeria",
        "lat": 8.77,
        "long": 9.93,
        "elev ft": 830,
        "pop est": 8339
    },
    {
        "name": "Fedare",
        "what": "city",
        "region": "Plateau",
        "country": "Nigeria",
        "lat": 9.91,
        "long": 9.11,
        "elev ft": 3497,
        "pop est": 12963
    },
    {
        "name": "Fentum",
        "what": "city",
        "region": "Plateau",
        "country": "Nigeria",
        "lat": 8.78,
        "long": 9.48,
        "elev ft": 830,
        "pop est": 10579
    },
    {
        "name": "Feri",
        "what": "city",
        "region": "Plateau",
        "country": "Nigeria",
        "lat": 8.96,
        "long": 10.14,
        "elev ft": 830,
        "pop est": 3278
    },
    {
        "name": "Feri",
        "what": "city",
        "region": "Plateau",
        "country": "Nigeria",
        "lat": 9.0,
        "long": 10.08,
        "elev ft": 830,
        "pop est": 3278
    },
    {
        "name": "Feri",
        "what": "city",
        "region": "Plateau",
        "country": "Nigeria",
        "lat": 8.94,
        "long": 10.14,
        "elev ft": 830,
        "pop est": 3278
    },
    {
        "name": "Feri",
        "what": "city",
        "region": "Plateau",
        "country": "Nigeria",
        "lat": 8.98,
        "long": 10.06,
        "elev ft": 830,
        "pop est": 3278
    },
    {
        "name": "Ferum",
        "what": "city",
        "region": "Plateau",
        "country": "Nigeria",
        "lat": 9.95,
        "long": 9.13,
        "elev ft": 3513,
        "pop est": 12346
    },
    {
        "name": "Fier",
        "what": "city",
        "region": "Plateau",
        "country": "Nigeria",
        "lat": 9.41,
        "long": 9.41,
        "elev ft": 5029,
        "pop est": 10877
    },
    {
        "name": "Firse",
        "what": "city",
        "region": "Plateau",
        "country": "Nigeria",
        "lat": 9.96,
        "long": 9.13,
        "elev ft": 3579,
        "pop est": 11687
    },
    {
        "name": "Fobir",
        "what": "city",
        "region": "Plateau",
        "country": "Nigeria",
        "lat": 9.86,
        "long": 9.05,
        "elev ft": 4189,
        "pop est": 12970
    },
    {
        "name": "Fobro",
        "what": "city",
        "region": "Plateau",
        "country": "Nigeria",
        "lat": 9.86,
        "long": 9.05,
        "elev ft": 4189,
        "pop est": 12970
    },
    {
        "name": "Fobro Mining Camp",
        "what": "city",
        "region": "Plateau",
        "country": "Nigeria",
        "lat": 9.86,
        "long": 9.05,
        "elev ft": 4189,
        "pop est": 12970
    },
    {
        "name": "Fobur",
        "what": "city",
        "region": "Plateau",
        "country": "Nigeria",
        "lat": 9.86,
        "long": 9.05,
        "elev ft": 4189,
        "pop est": 12970
    },
    {
        "name": "Foram",
        "what": "city",
        "region": "Plateau",
        "country": "Nigeria",
        "lat": 9.68,
        "long": 8.96,
        "elev ft": 4189,
        "pop est": 14006
    },
    {
        "name": "Foram",
        "what": "city",
        "region": "Plateau",
        "country": "Nigeria",
        "lat": 9.83,
        "long": 8.98,
        "elev ft": 4189,
        "pop est": 34299
    },
    {
        "name": "Foron",
        "what": "city",
        "region": "Plateau",
        "country": "Nigeria",
        "lat": 9.7,
        "long": 8.95,
        "elev ft": 4189,
        "pop est": 13953
    },
    {
        "name": "Forum",
        "what": "city",
        "region": "Plateau",
        "country": "Nigeria",
        "lat": 9.68,
        "long": 8.96,
        "elev ft": 4189,
        "pop est": 14006
    },
    {
        "name": "Fugun",
        "what": "city",
        "region": "Plateau",
        "country": "Nigeria",
        "lat": 8.91,
        "long": 9.63,
        "elev ft": 928,
        "pop est": 10579
    },
    {
        "name": "Fugun",
        "what": "city",
        "region": "Plateau",
        "country": "Nigeria",
        "lat": 8.85,
        "long": 9.67,
        "elev ft": 918,
        "pop est": 10579
    },
    {
        "name": "Furaka",
        "what": "city",
        "region": "Plateau",
        "country": "Nigeria",
        "lat": 9.85,
        "long": 8.98,
        "elev ft": 4353,
        "pop est": 49164
    },
    {
        "name": "Fursum",
        "what": "city",
        "region": "Plateau",
        "country": "Nigeria",
        "lat": 9.76,
        "long": 9.11,
        "elev ft": 3494,
        "pop est": 13122
    },
    {
        "name": "Fursum",
        "what": "city",
        "region": "Plateau",
        "country": "Nigeria",
        "lat": 9.75,
        "long": 9.06,
        "elev ft": 3471,
        "pop est": 13104
    },
    {
        "name": "Fursum (1)",
        "what": "city",
        "region": "Plateau",
        "country": "Nigeria",
        "lat": 9.75,
        "long": 9.06,
        "elev ft": 3471,
        "pop est": 13104
    },
    {
        "name": "Fursum (2)",
        "what": "city",
        "region": "Plateau",
        "country": "Nigeria",
        "lat": 9.76,
        "long": 9.11,
        "elev ft": 3494,
        "pop est": 13122
    },
    {
        "name": "Fursum 1",
        "what": "city",
        "region": "Plateau",
        "country": "Nigeria",
        "lat": 9.75,
        "long": 9.06,
        "elev ft": 3471,
        "pop est": 13104
    },
    {
        "name": "Fursum 2",
        "what": "city",
        "region": "Plateau",
        "country": "Nigeria",
        "lat": 9.76,
        "long": 9.11,
        "elev ft": 3494,
        "pop est": 13122
    },
    {
        "name": "Fusa",
        "what": "city",
        "region": "Plateau",
        "country": "Nigeria",
        "lat": 9.77,
        "long": 9.0,
        "elev ft": 4189,
        "pop est": 13432
    },
    {
        "name": "Fuskam",
        "what": "city",
        "region": "Plateau",
        "country": "Nigeria",
        "lat": 10.18,
        "long": 8.9,
        "elev ft": 3349,
        "pop est": 6854
    },
    {
        "name": "Fuskam Mata",
        "what": "city",
        "region": "Plateau",
        "country": "Nigeria",
        "lat": 10.18,
        "long": 8.9,
        "elev ft": 3349,
        "pop est": 6854
    },
    {
        "name": "G'nar",
        "what": "city",
        "region": "Plateau",
        "country": "Nigeria",
        "lat": 9.43,
        "long": 8.84,
        "elev ft": 4199,
        "pop est": 14006
    },
    {
        "name": "Gaar",
        "what": "city",
        "region": "Plateau",
        "country": "Nigeria",
        "lat": 8.96,
        "long": 9.41,
        "elev ft": 1082,
        "pop est": 10576
    },
    {
        "name": "Gabami",
        "what": "city",
        "region": "Plateau",
        "country": "Nigeria",
        "lat": 10.28,
        "long": 8.93,
        "elev ft": 3349,
        "pop est": 6469
    },
    {
        "name": "Gabgell",
        "what": "city",
        "region": "Plateau",
        "country": "Nigeria",
        "lat": 9.68,
        "long": 9.25,
        "elev ft": 3349,
        "pop est": 12278
    },
    {
        "name": "Gaklang",
        "what": "city",
        "region": "Plateau",
        "country": "Nigeria",
        "lat": 8.88,
        "long": 9.73,
        "elev ft": 961,
        "pop est": 10579
    },
    {
        "name": "Gaklang",
        "what": "city",
        "region": "Plateau",
        "country": "Nigeria",
        "lat": 8.91,
        "long": 9.76,
        "elev ft": 948,
        "pop est": 10579
    },
    {
        "name": "Galadima",
        "what": "city",
        "region": "Plateau",
        "country": "Nigeria",
        "lat": 8.92,
        "long": 9.28,
        "elev ft": 905,
        "pop est": 9238
    },
    {
        "name": "Galadima",
        "what": "city",
        "region": "Plateau",
        "country": "Nigeria",
        "lat": 8.87,
        "long": 9.72,
        "elev ft": 954,
        "pop est": 10579
    },
    {
        "name": "Gamajigo",
        "what": "city",
        "region": "Plateau",
        "country": "Nigeria",
        "lat": 9.98,
        "long": 8.85,
        "elev ft": 4189,
        "pop est": 122927
    },
    {
        "name": "Gamakai",
        "what": "city",
        "region": "Plateau",
        "country": "Nigeria",
        "lat": 8.67,
        "long": 9.84,
        "elev ft": 830,
        "pop est": 4768
    },
    {
        "name": "Gamji",
        "what": "city",
        "region": "Plateau",
        "country": "Nigeria",
        "lat": 8.96,
        "long": 9.9,
        "elev ft": 830,
        "pop est": 11931
    },
    {
        "name": "Gana",
        "what": "city",
        "region": "Plateau",
        "country": "Nigeria",
        "lat": 9.82,
        "long": 8.82,
        "elev ft": 4189,
        "pop est": 95685
    },
    {
        "name": "Gana Daji",
        "what": "city",
        "region": "Plateau",
        "country": "Nigeria",
        "lat": 9.44,
        "long": 8.96,
        "elev ft": 4481,
        "pop est": 13824
    },
    {
        "name": "Ganawuri",
        "what": "city",
        "region": "Plateau",
        "country": "Nigeria",
        "lat": 9.69,
        "long": 8.7,
        "elev ft": 4189,
        "pop est": 12742
    },
    {
        "name": "Gangara",
        "what": "city",
        "region": "Plateau",
        "country": "Nigeria",
        "lat": 9.85,
        "long": 8.95,
        "elev ft": 4379,
        "pop est": 92977
    },
    {
        "name": "Gangare",
        "what": "city",
        "region": "Plateau",
        "country": "Nigeria",
        "lat": 9.91,
        "long": 8.9,
        "elev ft": 4189,
        "pop est": 199665
    },
    {
        "name": "Gangell",
        "what": "city",
        "region": "Plateau",
        "country": "Nigeria",
        "lat": 9.68,
        "long": 9.25,
        "elev ft": 3349,
        "pop est": 12278
    },
    {
        "name": "Gani",
        "what": "city",
        "region": "Plateau",
        "country": "Nigeria",
        "lat": 9.19,
        "long": 9.87,
        "elev ft": 954,
        "pop est": 15624
    },
    {
        "name": "Ganji",
        "what": "city",
        "region": "Plateau",
        "country": "Nigeria",
        "lat": 10.06,
        "long": 8.95,
        "elev ft": 2880,
        "pop est": 8685
    },
    {
        "name": "Gar",
        "what": "city",
        "region": "Plateau",
        "country": "Nigeria",
        "lat": 9.3,
        "long": 9.93,
        "elev ft": 1062,
        "pop est": 6587
    },
    {
        "name": "Garam",
        "what": "city",
        "region": "Plateau",
        "country": "Nigeria",
        "lat": 9.24,
        "long": 9.52,
        "elev ft": 2509,
        "pop est": 10877
    },
    {
        "name": "Garbabi",
        "what": "city",
        "region": "Plateau",
        "country": "Nigeria",
        "lat": 8.85,
        "long": 9.89,
        "elev ft": 830,
        "pop est": 15943
    },
    {
        "name": "Garbabi",
        "what": "city",
        "region": "Plateau",
        "country": "Nigeria",
        "lat": 8.83,
        "long": 9.9,
        "elev ft": 830,
        "pop est": 15943
    },
    {
        "name": "Garkawa",
        "what": "city",
        "region": "Plateau",
        "country": "Nigeria",
        "lat": 8.94,
        "long": 9.8,
        "elev ft": 895,
        "pop est": 11483
    },
    {
        "name": "Garram",
        "what": "city",
        "region": "Plateau",
        "country": "Nigeria",
        "lat": 9.24,
        "long": 9.52,
        "elev ft": 2509,
        "pop est": 10877
    },
    {
        "name": "Garu",
        "what": "city",
        "region": "Plateau",
        "country": "Nigeria",
        "lat": 8.98,
        "long": 9.77,
        "elev ft": 961,
        "pop est": 11777
    },
    {
        "name": "Garua",
        "what": "city",
        "region": "Plateau",
        "country": "Nigeria",
        "lat": 9.5,
        "long": 10.31,
        "elev ft": 1669,
        "pop est": 6538
    },
    {
        "name": "Garuwa",
        "what": "city",
        "region": "Plateau",
        "country": "Nigeria",
        "lat": 9.66,
        "long": 8.63,
        "elev ft": 3349,
        "pop est": 9563
    },
    {
        "name": "Gashish",
        "what": "city",
        "region": "Plateau",
        "country": "Nigeria",
        "lat": 9.44,
        "long": 8.75,
        "elev ft": 3605,
        "pop est": 14006
    },
    {
        "name": "Gashish",
        "what": "city",
        "region": "Plateau",
        "country": "Nigeria",
        "lat": 9.45,
        "long": 8.77,
        "elev ft": 4189,
        "pop est": 14006
    },
    {
        "name": "Gashish",
        "what": "city",
        "region": "Plateau",
        "country": "Nigeria",
        "lat": 9.42,
        "long": 8.74,
        "elev ft": 3503,
        "pop est": 14006
    },
    {
        "name": "Gashit",
        "what": "city",
        "region": "Plateau",
        "country": "Nigeria",
        "lat": 9.45,
        "long": 8.77,
        "elev ft": 4189,
        "pop est": 14006
    },
    {
        "name": "Gate",
        "what": "city",
        "region": "Plateau",
        "country": "Nigeria",
        "lat": 9.29,
        "long": 9.47,
        "elev ft": 2729,
        "pop est": 10877
    },
    {
        "name": "Gaude",
        "what": "city",
        "region": "Plateau",
        "country": "Nigeria",
        "lat": 9.54,
        "long": 9.13,
        "elev ft": 3448,
        "pop est": 13284
    },
    {
        "name": "Gazum",
        "what": "city",
        "region": "Plateau",
        "country": "Nigeria",
        "lat": 8.64,
        "long": 10.01,
        "elev ft": 830,
        "pop est": 4762
    },
    {
        "name": "Gazum",
        "what": "city",
        "region": "Plateau",
        "country": "Nigeria",
        "lat": 8.97,
        "long": 9.92,
        "elev ft": 830,
        "pop est": 10219
    },
    {
        "name": "Gbaldum",
        "what": "city",
        "region": "Plateau",
        "country": "Nigeria",
        "lat": 8.67,
        "long": 9.94,
        "elev ft": 830,
        "pop est": 4768
    },
    {
        "name": "Gbedam",
        "what": "city",
        "region": "Plateau",
        "country": "Nigeria",
        "lat": 8.83,
        "long": 9.15,
        "elev ft": 830,
        "pop est": 9238
    },
    {
        "name": "Gbogbok",
        "what": "city",
        "region": "Plateau",
        "country": "Nigeria",
        "lat": 8.64,
        "long": 9.06,
        "elev ft": 830,
        "pop est": 9238
    },
    {
        "name": "Gbokot",
        "what": "city",
        "region": "Plateau",
        "country": "Nigeria",
        "lat": 8.98,
        "long": 9.28,
        "elev ft": 997,
        "pop est": 9263
    },
    {
        "name": "Gbun",
        "what": "city",
        "region": "Plateau",
        "country": "Nigeria",
        "lat": 8.85,
        "long": 9.73,
        "elev ft": 902,
        "pop est": 10579
    },
    {
        "name": "Gbun",
        "what": "city",
        "region": "Plateau",
        "country": "Nigeria",
        "lat": 8.85,
        "long": 9.74,
        "elev ft": 892,
        "pop est": 10640
    },
    {
        "name": "Gena Rombo",
        "what": "city",
        "region": "Plateau",
        "country": "Nigeria",
        "lat": 8.79,
        "long": 9.85,
        "elev ft": 830,
        "pop est": 13446
    },
    {
        "name": "Gengere Kibo",
        "what": "city",
        "region": "Plateau",
        "country": "Nigeria",
        "lat": 9.52,
        "long": 8.62,
        "elev ft": 2706,
        "pop est": 12824
    },
    {
        "name": "Gennaret",
        "what": "city",
        "region": "Plateau",
        "country": "Nigeria",
        "lat": 9.5,
        "long": 9.27,
        "elev ft": 4189,
        "pop est": 13000
    },
    {
        "name": "Geri-n-Gada",
        "what": "city",
        "region": "Plateau",
        "country": "Nigeria",
        "lat": 9.94,
        "long": 8.87,
        "elev ft": 4189,
        "pop est": 195014
    },
    {
        "name": "Geriam",
        "what": "city",
        "region": "Plateau",
        "country": "Nigeria",
        "lat": 9.43,
        "long": 9.75,
        "elev ft": 1181,
        "pop est": 10630
    },
    {
        "name": "Gerin Gada",
        "what": "city",
        "region": "Plateau",
        "country": "Nigeria",
        "lat": 9.94,
        "long": 8.87,
        "elev ft": 4189,
        "pop est": 195014
    },
    {
        "name": "Gerkawa",
        "what": "city",
        "region": "Plateau",
        "country": "Nigeria",
        "lat": 8.94,
        "long": 9.8,
        "elev ft": 895,
        "pop est": 11483
    },
    {
        "name": "Gero",
        "what": "city",
        "region": "Plateau",
        "country": "Nigeria",
        "lat": 9.83,
        "long": 8.83,
        "elev ft": 4189,
        "pop est": 129031
    },
    {
        "name": "Gida-Giwa",
        "what": "city",
        "region": "Plateau",
        "country": "Nigeria",
        "lat": 8.61,
        "long": 10.02,
        "elev ft": 830,
        "pop est": 4768
    },
    {
        "name": "Gidan Adamu",
        "what": "city",
        "region": "Plateau",
        "country": "Nigeria",
        "lat": 8.93,
        "long": 9.46,
        "elev ft": 997,
        "pop est": 10579
    },
    {
        "name": "Gidan Ali",
        "what": "city",
        "region": "Plateau",
        "country": "Nigeria",
        "lat": 8.89,
        "long": 9.88,
        "elev ft": 830,
        "pop est": 15442
    },
    {
        "name": "Gidan Dogo",
        "what": "city",
        "region": "Plateau",
        "country": "Nigeria",
        "lat": 9.89,
        "long": 8.94,
        "elev ft": 4491,
        "pop est": 153151
    },
    {
        "name": "Gidan Hardo",
        "what": "city",
        "region": "Plateau",
        "country": "Nigeria",
        "lat": 9.8,
        "long": 8.81,
        "elev ft": 4189,
        "pop est": 86928
    },
    {
        "name": "Gidan Hardo Dangana",
        "what": "city",
        "region": "Plateau",
        "country": "Nigeria",
        "lat": 9.8,
        "long": 8.81,
        "elev ft": 4189,
        "pop est": 86928
    },
    {
        "name": "Gidan Kogi",
        "what": "city",
        "region": "Plateau",
        "country": "Nigeria",
        "lat": 9.01,
        "long": 9.89,
        "elev ft": 830,
        "pop est": 11609
    },
    {
        "name": "Gidan Lifidi",
        "what": "city",
        "region": "Plateau",
        "country": "Nigeria",
        "lat": 9.03,
        "long": 9.39,
        "elev ft": 1151,
        "pop est": 10635
    },
    {
        "name": "Gidan Makama",
        "what": "city",
        "region": "Plateau",
        "country": "Nigeria",
        "lat": 8.96,
        "long": 9.43,
        "elev ft": 1177,
        "pop est": 10586
    },
    {
        "name": "Gidan Shehu",
        "what": "city",
        "region": "Plateau",
        "country": "Nigeria",
        "lat": 8.91,
        "long": 10.02,
        "elev ft": 830,
        "pop est": 3278
    },
    {
        "name": "Gidan Tata",
        "what": "city",
        "region": "Plateau",
        "country": "Nigeria",
        "lat": 8.54,
        "long": 9.0,
        "elev ft": 830,
        "pop est": 10396
    },
    {
        "name": "Gidan Tsofo",
        "what": "city",
        "region": "Plateau",
        "country": "Nigeria",
        "lat": 9.69,
        "long": 9.08,
        "elev ft": 3349,
        "pop est": 13539
    },
    {
        "name": "Gidan-Damok",
        "what": "city",
        "region": "Plateau",
        "country": "Nigeria",
        "lat": 8.87,
        "long": 9.81,
        "elev ft": 843,
        "pop est": 12292
    },
    {
        "name": "Gidgid",
        "what": "city",
        "region": "Plateau",
        "country": "Nigeria",
        "lat": 9.48,
        "long": 9.84,
        "elev ft": 1669,
        "pop est": 6643
    },
    {
        "name": "Gilkobi",
        "what": "city",
        "region": "Plateau",
        "country": "Nigeria",
        "lat": 10.08,
        "long": 8.95,
        "elev ft": 2847,
        "pop est": 6845
    },
    {
        "name": "Gimbi",
        "what": "city",
        "region": "Plateau",
        "country": "Nigeria",
        "lat": 8.96,
        "long": 10.26,
        "elev ft": 830,
        "pop est": 3278
    },
    {
        "name": "Gindi",
        "what": "city",
        "region": "Plateau",
        "country": "Nigeria",
        "lat": 8.83,
        "long": 9.68,
        "elev ft": 902,
        "pop est": 10579
    },
    {
        "name": "Gindi Akwati",
        "what": "city",
        "region": "Plateau",
        "country": "Nigeria",
        "lat": 9.46,
        "long": 8.84,
        "elev ft": 4238,
        "pop est": 14006
    },
    {
        "name": "Gindi Dutse",
        "what": "city",
        "region": "Plateau",
        "country": "Nigeria",
        "lat": 9.46,
        "long": 8.97,
        "elev ft": 4376,
        "pop est": 13870
    },
    {
        "name": "Gindiri",
        "what": "city",
        "region": "Plateau",
        "country": "Nigeria",
        "lat": 9.59,
        "long": 9.23,
        "elev ft": 3349,
        "pop est": 13261
    },
    {
        "name": "Girakhas",
        "what": "city",
        "region": "Plateau",
        "country": "Nigeria",
        "lat": 8.92,
        "long": 9.28,
        "elev ft": 918,
        "pop est": 9238
    },
    {
        "name": "Giring",
        "what": "city",
        "region": "Plateau",
        "country": "Nigeria",
        "lat": 9.88,
        "long": 8.89,
        "elev ft": 4189,
        "pop est": 199697
    },
    {
        "name": "Giwa",
        "what": "city",
        "region": "Plateau",
        "country": "Nigeria",
        "lat": 8.92,
        "long": 9.73,
        "elev ft": 1000,
        "pop est": 10579
    },
    {
        "name": "Giwa Kogi",
        "what": "city",
        "region": "Plateau",
        "country": "Nigeria",
        "lat": 8.94,
        "long": 10.29,
        "elev ft": 830,
        "pop est": 3278
    },
    {
        "name": "Giyer",
        "what": "city",
        "region": "Plateau",
        "country": "Nigeria",
        "lat": 8.98,
        "long": 9.1,
        "elev ft": 954,
        "pop est": 10374
    },
    {
        "name": "Goelagand",
        "what": "city",
        "region": "Plateau",
        "country": "Nigeria",
        "lat": 8.95,
        "long": 9.09,
        "elev ft": 928,
        "pop est": 10197
    },
    {
        "name": "Goepil",
        "what": "city",
        "region": "Plateau",
        "country": "Nigeria",
        "lat": 8.92,
        "long": 9.15,
        "elev ft": 902,
        "pop est": 9285
    },
    {
        "name": "Gogotkoen",
        "what": "city",
        "region": "Plateau",
        "country": "Nigeria",
        "lat": 8.97,
        "long": 9.21,
        "elev ft": 954,
        "pop est": 9609
    },
    {
        "name": "Gomlar",
        "what": "city",
        "region": "Plateau",
        "country": "Nigeria",
        "lat": 9.43,
        "long": 9.8,
        "elev ft": 1167,
        "pop est": 8840
    },
    {
        "name": "Gona",
        "what": "city",
        "region": "Plateau",
        "country": "Nigeria",
        "lat": 9.82,
        "long": 8.82,
        "elev ft": 4189,
        "pop est": 95685
    },
    {
        "name": "Gongiang",
        "what": "city",
        "region": "Plateau",
        "country": "Nigeria",
        "lat": 8.91,
        "long": 9.71,
        "elev ft": 1000,
        "pop est": 10579
    },
    {
        "name": "Gora",
        "what": "city",
        "region": "Plateau",
        "country": "Nigeria",
        "lat": 9.75,
        "long": 9.06,
        "elev ft": 3471,
        "pop est": 13113
    },
    {
        "name": "Gorom",
        "what": "city",
        "region": "Plateau",
        "country": "Nigeria",
        "lat": 8.94,
        "long": 9.12,
        "elev ft": 905,
        "pop est": 9515
    },
    {
        "name": "Gorvel",
        "what": "city",
        "region": "Plateau",
        "country": "Nigeria",
        "lat": 8.75,
        "long": 9.51,
        "elev ft": 830,
        "pop est": 10579
    },
    {
        "name": "Goshin Dutsi",
        "what": "city",
        "region": "Plateau",
        "country": "Nigeria",
        "lat": 9.49,
        "long": 9.53,
        "elev ft": 2509,
        "pop est": 10944
    },
    {
        "name": "Gu",
        "what": "city",
        "region": "Plateau",
        "country": "Nigeria",
        "lat": 9.26,
        "long": 9.28,
        "elev ft": 3349,
        "pop est": 11838
    },
    {
        "name": "Gube",
        "what": "city",
        "region": "Plateau",
        "country": "Nigeria",
        "lat": 8.72,
        "long": 9.21,
        "elev ft": 830,
        "pop est": 9238
    },
    {
        "name": "Gugur",
        "what": "city",
        "region": "Plateau",
        "country": "Nigeria",
        "lat": 9.27,
        "long": 9.7,
        "elev ft": 2509,
        "pop est": 10877
    },
    {
        "name": "Gugwal",
        "what": "city",
        "region": "Plateau",
        "country": "Nigeria",
        "lat": 9.39,
        "long": 9.81,
        "elev ft": 1089,
        "pop est": 8032
    },
    {
        "name": "Gumshir",
        "what": "city",
        "region": "Plateau",
        "country": "Nigeria",
        "lat": 9.34,
        "long": 9.8,
        "elev ft": 994,
        "pop est": 8964
    },
    {
        "name": "Gunnam",
        "what": "city",
        "region": "Plateau",
        "country": "Nigeria",
        "lat": 8.68,
        "long": 9.12,
        "elev ft": 830,
        "pop est": 9238
    },
    {
        "name": "Gunok",
        "what": "city",
        "region": "Plateau",
        "country": "Nigeria",
        "lat": 8.9,
        "long": 9.91,
        "elev ft": 830,
        "pop est": 15099
    },
    {
        "name": "Guonam",
        "what": "city",
        "region": "Plateau",
        "country": "Nigeria",
        "lat": 8.72,
        "long": 9.11,
        "elev ft": 830,
        "pop est": 9238
    },
    {
        "name": "Gurum",
        "what": "city",
        "region": "Plateau",
        "country": "Nigeria",
        "lat": 10.03,
        "long": 8.84,
        "elev ft": 3763,
        "pop est": 29096
    },
    {
        "name": "Gusti",
        "what": "city",
        "region": "Plateau",
        "country": "Nigeria",
        "lat": 9.99,
        "long": 8.97,
        "elev ft": 3372,
        "pop est": 91821
    },
    {
        "name": "Gusu",
        "what": "city",
        "region": "Plateau",
        "country": "Nigeria",
        "lat": 10.19,
        "long": 8.94,
        "elev ft": 3349,
        "pop est": 6665
    },
    {
        "name": "Gwa Kogi",
        "what": "city",
        "region": "Plateau",
        "country": "Nigeria",
        "lat": 8.94,
        "long": 10.29,
        "elev ft": 830,
        "pop est": 3278
    },
    {
        "name": "Gwadong",
        "what": "city",
        "region": "Plateau",
        "country": "Nigeria",
        "lat": 9.95,
        "long": 9.17,
        "elev ft": 5029,
        "pop est": 11228
    },
    {
        "name": "Gwadung",
        "what": "city",
        "region": "Plateau",
        "country": "Nigeria",
        "lat": 9.95,
        "long": 9.17,
        "elev ft": 5029,
        "pop est": 11228
    },
    {
        "name": "Gwafan",
        "what": "city",
        "region": "Plateau",
        "country": "Nigeria",
        "lat": 9.92,
        "long": 8.96,
        "elev ft": 5029,
        "pop est": 124221
    },
    {
        "name": "Gwaji",
        "what": "city",
        "region": "Plateau",
        "country": "Nigeria",
        "lat": 9.92,
        "long": 9.13,
        "elev ft": 3556,
        "pop est": 12963
    },
    {
        "name": "Gwaktok",
        "what": "city",
        "region": "Plateau",
        "country": "Nigeria",
        "lat": 9.29,
        "long": 9.56,
        "elev ft": 2027,
        "pop est": 10877
    },
    {
        "name": "Gwame",
        "what": "city",
        "region": "Plateau",
        "country": "Nigeria",
        "lat": 9.74,
        "long": 8.68,
        "elev ft": 4189,
        "pop est": 9135
    },
    {
        "name": "Gwan",
        "what": "city",
        "region": "Plateau",
        "country": "Nigeria",
        "lat": 9.56,
        "long": 8.73,
        "elev ft": 3589,
        "pop est": 14006
    },
    {
        "name": "Gwanden",
        "what": "city",
        "region": "Plateau",
        "country": "Nigeria",
        "lat": 9.23,
        "long": 8.72,
        "elev ft": 4245,
        "pop est": 12232
    },
    {
        "name": "Gwanden",
        "what": "city",
        "region": "Plateau",
        "country": "Nigeria",
        "lat": 9.29,
        "long": 8.72,
        "elev ft": 4301,
        "pop est": 11632
    },
    {
        "name": "Gwangalang",
        "what": "city",
        "region": "Plateau",
        "country": "Nigeria",
        "lat": 8.87,
        "long": 9.68,
        "elev ft": 958,
        "pop est": 10579
    },
    {
        "name": "Gwanzarme",
        "what": "city",
        "region": "Plateau",
        "country": "Nigeria",
        "lat": 8.94,
        "long": 9.78,
        "elev ft": 921,
        "pop est": 10676
    },
    {
        "name": "Gwapam",
        "what": "city",
        "region": "Plateau",
        "country": "Nigeria",
        "lat": 9.92,
        "long": 8.96,
        "elev ft": 5029,
        "pop est": 124221
    },
    {
        "name": "Gwapan",
        "what": "city",
        "region": "Plateau",
        "country": "Nigeria",
        "lat": 9.92,
        "long": 8.96,
        "elev ft": 5029,
        "pop est": 124221
    },
    {
        "name": "Gwender",
        "what": "city",
        "region": "Plateau",
        "country": "Nigeria",
        "lat": 9.26,
        "long": 8.71,
        "elev ft": 4356,
        "pop est": 11352
    },
    {
        "name": "Gwiwan Kogi",
        "what": "city",
        "region": "Plateau",
        "country": "Nigeria",
        "lat": 8.95,
        "long": 10.31,
        "elev ft": 830,
        "pop est": 3278
    },
    {
        "name": "Gwolong",
        "what": "city",
        "region": "Plateau",
        "country": "Nigeria",
        "lat": 9.34,
        "long": 9.44,
        "elev ft": 4491,
        "pop est": 10877
    },
    {
        "name": "Gwong",
        "what": "city",
        "region": "Plateau",
        "country": "Nigeria",
        "lat": 9.93,
        "long": 8.91,
        "elev ft": 4189,
        "pop est": 199609
    },
    {
        "name": "Gwosh",
        "what": "city",
        "region": "Plateau",
        "country": "Nigeria",
        "lat": 9.97,
        "long": 8.96,
        "elev ft": 3395,
        "pop est": 122985
    },
    {
        "name": "Gyambar",
        "what": "city",
        "region": "Plateau",
        "country": "Nigeria",
        "lat": 9.46,
        "long": 9.88,
        "elev ft": 1788,
        "pop est": 6556
    },
    {
        "name": "Gyangyan",
        "what": "city",
        "region": "Plateau",
        "country": "Nigeria",
        "lat": 9.58,
        "long": 9.82,
        "elev ft": 1669,
        "pop est": 8189
    },
    {
        "name": "Gyel",
        "what": "city",
        "region": "Plateau",
        "country": "Nigeria",
        "lat": 9.79,
        "long": 8.84,
        "elev ft": 4189,
        "pop est": 167129
    },
    {
        "name": "G\u2019nar",
        "what": "city",
        "region": "Plateau",
        "country": "Nigeria",
        "lat": 9.43,
        "long": 8.84,
        "elev ft": 4199,
        "pop est": 14006
    },
    {
        "name": "Hah",
        "what": "city",
        "region": "Plateau",
        "country": "Nigeria",
        "lat": 8.8,
        "long": 9.61,
        "elev ft": 869,
        "pop est": 10579
    },
    {
        "name": "Haifam",
        "what": "city",
        "region": "Plateau",
        "country": "Nigeria",
        "lat": 9.65,
        "long": 8.89,
        "elev ft": 4189,
        "pop est": 13852
    },
    {
        "name": "Hamari",
        "what": "city",
        "region": "Plateau",
        "country": "Nigeria",
        "lat": 9.02,
        "long": 9.99,
        "elev ft": 830,
        "pop est": 3278
    },
    {
        "name": "Hammari",
        "what": "city",
        "region": "Plateau",
        "country": "Nigeria",
        "lat": 9.02,
        "long": 9.99,
        "elev ft": 830,
        "pop est": 3278
    },
    {
        "name": "Hanchin Kare",
        "what": "city",
        "region": "Plateau",
        "country": "Nigeria",
        "lat": 8.64,
        "long": 9.01,
        "elev ft": 830,
        "pop est": 9238
    },
    {
        "name": "Hausa",
        "what": "city",
        "region": "Plateau",
        "country": "Nigeria",
        "lat": 9.31,
        "long": 8.86,
        "elev ft": 4498,
        "pop est": 13281
    },
    {
        "name": "Hausawa",
        "what": "city",
        "region": "Plateau",
        "country": "Nigeria",
        "lat": 9.57,
        "long": 9.17,
        "elev ft": 3369,
        "pop est": 13263
    },
    {
        "name": "Hawan Kibu",
        "what": "city",
        "region": "Plateau",
        "country": "Nigeria",
        "lat": 9.54,
        "long": 8.65,
        "elev ft": 3379,
        "pop est": 13717
    },
    {
        "name": "Heipang",
        "what": "city",
        "region": "Plateau",
        "country": "Nigeria",
        "lat": 9.65,
        "long": 8.89,
        "elev ft": 4189,
        "pop est": 13852
    },
    {
        "name": "Het",
        "what": "city",
        "region": "Plateau",
        "country": "Nigeria",
        "lat": 9.99,
        "long": 8.7,
        "elev ft": 3497,
        "pop est": 9633
    },
    {
        "name": "Honeymoon Cottage",
        "what": "city",
        "region": "Plateau",
        "country": "Nigeria",
        "lat": 9.89,
        "long": 8.85,
        "elev ft": 4189,
        "pop est": 174241
    },
    {
        "name": "Hos",
        "what": "city",
        "region": "Plateau",
        "country": "Nigeria",
        "lat": 9.63,
        "long": 8.72,
        "elev ft": 4189,
        "pop est": 13767
    },
    {
        "name": "Hoss",
        "what": "city",
        "region": "Plateau",
        "country": "Nigeria",
        "lat": 9.63,
        "long": 8.72,
        "elev ft": 4189,
        "pop est": 13767
    },
    {
        "name": "Hoss Station",
        "what": "city",
        "region": "Plateau",
        "country": "Nigeria",
        "lat": 9.61,
        "long": 8.75,
        "elev ft": 3749,
        "pop est": 13851
    },
    {
        "name": "Hoton",
        "what": "city",
        "region": "Plateau",
        "country": "Nigeria",
        "lat": 9.22,
        "long": 8.83,
        "elev ft": 4189,
        "pop est": 13261
    },
    {
        "name": "Hurti",
        "what": "city",
        "region": "Plateau",
        "country": "Nigeria",
        "lat": 9.28,
        "long": 8.79,
        "elev ft": 4389,
        "pop est": 13203
    },
    {
        "name": "Hwolshe",
        "what": "city",
        "region": "Plateau",
        "country": "Nigeria",
        "lat": 9.88,
        "long": 8.87,
        "elev ft": 4189,
        "pop est": 198447
    },