[
    {
        "name": "Ba Hausa",
        "what": "city",
        "region": "Taraba",
        "country": "Nigeria",
        "lat": 7.53,
        "long": 10.56,
        "elev ft": 875,
        "pop est": 3973
    },
    {
        "name": "Ba'Issa",
        "what": "city",
        "region": "Taraba",
        "country": "Nigeria",
        "lat": 7.23,
        "long": 10.62,
        "elev ft": 885,
        "pop est": 3874
    },
    {
        "name": "Baba Nyamde",
        "what": "city",
        "region": "Taraba",
        "country": "Nigeria",
        "lat": 8.45,
        "long": 10.69,
        "elev ft": 830,
        "pop est": 3576
    },
    {
        "name": "Babale",
        "what": "city",
        "region": "Taraba",
        "country": "Nigeria",
        "lat": 8.49,
        "long": 10.58,
        "elev ft": 830,
        "pop est": 3576
    },
    {
        "name": "Babayali",
        "what": "city",
        "region": "Taraba",
        "country": "Nigeria",
        "lat": 8.88,
        "long": 11.34,
        "elev ft": 1108,
        "pop est": 54677
    },
    {
        "name": "Bacham",
        "what": "city",
        "region": "Taraba",
        "country": "Nigeria",
        "lat": 8.88,
        "long": 11.38,
        "elev ft": 1197,
        "pop est": 53760
    },
    {
        "name": "Bada Koshi",
        "what": "city",
        "region": "Taraba",
        "country": "Nigeria",
        "lat": 8.04,
        "long": 10.9,
        "elev ft": 1036,
        "pop est": 3576
    },
    {
        "name": "Badakwoshi",
        "what": "city",
        "region": "Taraba",
        "country": "Nigeria",
        "lat": 8.38,
        "long": 10.58,
        "elev ft": 830,
        "pop est": 3576
    },
    {
        "name": "Badawere",
        "what": "city",
        "region": "Taraba",
        "country": "Nigeria",
        "lat": 8.78,
        "long": 11.34,
        "elev ft": 1007,
        "pop est": 6258
    },
    {
        "name": "Badeja",
        "what": "city",
        "region": "Taraba",
        "country": "Nigeria",
        "lat": 8.51,
        "long": 10.46,
        "elev ft": 830,
        "pop est": 3576
    },
    {
        "name": "Badekwoshi",
        "what": "city",
        "region": "Taraba",
        "country": "Nigeria",
        "lat": 8.6,
        "long": 10.71,
        "elev ft": 830,
        "pop est": 3576
    },
    {
        "name": "Badekwoshi Weilawa",
        "what": "city",
        "region": "Taraba",
        "country": "Nigeria",
        "lat": 8.72,
        "long": 10.85,
        "elev ft": 830,
        "pop est": 3671
    },
    {
        "name": "Badekwoshi Wurkum",
        "what": "city",
        "region": "Taraba",
        "country": "Nigeria",
        "lat": 8.71,
        "long": 10.85,
        "elev ft": 830,
        "pop est": 3608
    },
    {
        "name": "Bagoni",
        "what": "city",
        "region": "Taraba",
        "country": "Nigeria",
        "lat": 7.89,
        "long": 10.72,
        "elev ft": 941,
        "pop est": 3576
    },
    {
        "name": "Bagu",
        "what": "city",
        "region": "Taraba",
        "country": "Nigeria",
        "lat": 7.6,
        "long": 9.9,
        "elev ft": 830,
        "pop est": 5494
    },
    {
        "name": "Bai",
        "what": "city",
        "region": "Taraba",
        "country": "Nigeria",
        "lat": 8.83,
        "long": 11.41,
        "elev ft": 1210,
        "pop est": 4625
    },
    {
        "name": "Baissa",
        "what": "city",
        "region": "Taraba",
        "country": "Nigeria",
        "lat": 7.23,
        "long": 10.62,
        "elev ft": 885,
        "pop est": 3874
    },
    {
        "name": "Baj",
        "what": "city",
        "region": "Taraba",
        "country": "Nigeria",
        "lat": 8.83,
        "long": 11.41,
        "elev ft": 1210,
        "pop est": 4625
    },
    {
        "name": "Bajadaku",
        "what": "city",
        "region": "Taraba",
        "country": "Nigeria",
        "lat": 8.89,
        "long": 11.55,
        "elev ft": 1669,
        "pop est": 5433
    },
    {
        "name": "Baji",
        "what": "city",
        "region": "Taraba",
        "country": "Nigeria",
        "lat": 7.46,
        "long": 10.71,
        "elev ft": 3349,
        "pop est": 3874
    },
    {
        "name": "Bajumba",
        "what": "city",
        "region": "Taraba",
        "country": "Nigeria",
        "lat": 8.78,
        "long": 10.89,
        "elev ft": 830,
        "pop est": 5448
    },
    {
        "name": "Bakano",
        "what": "city",
        "region": "Taraba",
        "country": "Nigeria",
        "lat": 9.0,
        "long": 11.25,
        "elev ft": 997,
        "pop est": 8063
    },
    {
        "name": "Bakari",
        "what": "city",
        "region": "Taraba",
        "country": "Nigeria",
        "lat": 8.11,
        "long": 9.66,
        "elev ft": 403,
        "pop est": 8642
    },
    {
        "name": "Bakari Kobake",
        "what": "city",
        "region": "Taraba",
        "country": "Nigeria",
        "lat": 8.82,
        "long": 11.44,
        "elev ft": 1669,
        "pop est": 4144
    },
    {
        "name": "Baki",
        "what": "city",
        "region": "Taraba",
        "country": "Nigeria",
        "lat": 7.46,
        "long": 10.08,
        "elev ft": 830,
        "pop est": 7599
    },
    {
        "name": "Bako",
        "what": "city",
        "region": "Taraba",
        "country": "Nigeria",
        "lat": 7.95,
        "long": 10.38,
        "elev ft": 830,
        "pop est": 3994
    },
    {
        "name": "Bako",
        "what": "city",
        "region": "Taraba",
        "country": "Nigeria",
        "lat": 7.96,
        "long": 9.48,
        "elev ft": 830,
        "pop est": 4648
    },
    {
        "name": "Bakundi",
        "what": "city",
        "region": "Taraba",
        "country": "Nigeria",
        "lat": 8.06,
        "long": 10.78,
        "elev ft": 830,
        "pop est": 3576
    },
    {
        "name": "Balang",
        "what": "city",
        "region": "Taraba",
        "country": "Nigeria",
        "lat": 8.97,
        "long": 11.36,
        "elev ft": 1669,
        "pop est": 4199
    },
    {
        "name": "Balang",
        "what": "city",
        "region": "Taraba",
        "country": "Nigeria",
        "lat": 8.69,
        "long": 11.23,
        "elev ft": 938,
        "pop est": 6258
    },
    {
        "name": "Balang",
        "what": "city",
        "region": "Taraba",
        "country": "Nigeria",
        "lat": 8.82,
        "long": 11.27,
        "elev ft": 941,
        "pop est": 6258
    },
    {
        "name": "Balau",
        "what": "city",
        "region": "Taraba",
        "country": "Nigeria",
        "lat": 8.64,
        "long": 11.36,
        "elev ft": 1066,
        "pop est": 6258
    },
    {
        "name": "Bali",
        "what": "city",
        "region": "Taraba",
        "country": "Nigeria",
        "lat": 7.86,
        "long": 10.97,
        "elev ft": 830,
        "pop est": 3513
    },
    {
        "name": "Bambado",
        "what": "city",
        "region": "Taraba",
        "country": "Nigeria",
        "lat": 7.81,
        "long": 10.82,
        "elev ft": 958,
        "pop est": 3576
    },
    {
        "name": "Bampina",
        "what": "city",
        "region": "Taraba",
        "country": "Nigeria",
        "lat": 7.18,
        "long": 10.19,
        "elev ft": 951,
        "pop est": 7599
    },
    {
        "name": "Bampu",
        "what": "city",
        "region": "Taraba",
        "country": "Nigeria",
        "lat": 8.9,
        "long": 11.19,
        "elev ft": 830,
        "pop est": 6258
    },
    {
        "name": "Bandoma",
        "what": "city",
        "region": "Taraba",
        "country": "Nigeria",
        "lat": 7.32,
        "long": 10.15,
        "elev ft": 830,
        "pop est": 7599
    },
    {
        "name": "Bangalela",
        "what": "city",
        "region": "Taraba",
        "country": "Nigeria",
        "lat": 8.92,
        "long": 10.5,
        "elev ft": 830,
        "pop est": 3280
    },
    {
        "name": "Bangara",
        "what": "city",
        "region": "Taraba",
        "country": "Nigeria",
        "lat": 7.2,
        "long": 10.65,
        "elev ft": 849,
        "pop est": 3874
    },
    {
        "name": "Bange",
        "what": "city",
        "region": "Taraba",
        "country": "Nigeria",
        "lat": 8.8,
        "long": 11.82,
        "elev ft": 1938,
        "pop est": 12214
    },
    {
        "name": "Bansi",
        "what": "city",
        "region": "Taraba",
        "country": "Nigeria",
        "lat": 8.78,
        "long": 11.82,
        "elev ft": 1919,
        "pop est": 12201
    },
    {
        "name": "Bansi",
        "what": "city",
        "region": "Taraba",
        "country": "Nigeria",
        "lat": 8.87,
        "long": 11.72,
        "elev ft": 1922,
        "pop est": 12218
    },
    {
        "name": "Banta",
        "what": "city",
        "region": "Taraba",
        "country": "Nigeria",
        "lat": 8.82,
        "long": 11.69,
        "elev ft": 2076,
        "pop est": 11875
    },
    {
        "name": "Bantaje",
        "what": "city",
        "region": "Taraba",
        "country": "Nigeria",
        "lat": 8.84,
        "long": 11.3,
        "elev ft": 997,
        "pop est": 6258
    },
    {
        "name": "Bantaji",
        "what": "city",
        "region": "Taraba",
        "country": "Nigeria",
        "lat": 8.09,
        "long": 10.11,
        "elev ft": 830,
        "pop est": 2086
    },
    {
        "name": "Banvo",
        "what": "city",
        "region": "Taraba",
        "country": "Nigeria",
        "lat": 8.91,
        "long": 11.36,
        "elev ft": 1138,
        "pop est": 53681
    },
    {
        "name": "Bapi",
        "what": "city",
        "region": "Taraba",
        "country": "Nigeria",
        "lat": 7.97,
        "long": 9.87,
        "elev ft": 830,
        "pop est": 2086
    },
    {
        "name": "Bapinso",
        "what": "city",
        "region": "Taraba",
        "country": "Nigeria",
        "lat": 8.88,
        "long": 11.89,
        "elev ft": 1689,
        "pop est": 12146
    },
    {
        "name": "Bappa Todo",
        "what": "city",
        "region": "Taraba",
        "country": "Nigeria",
        "lat": 8.97,
        "long": 11.42,
        "elev ft": 1669,
        "pop est": 3874
    },
    {
        "name": "Bara",
        "what": "city",
        "region": "Taraba",
        "country": "Nigeria",
        "lat": 8.93,
        "long": 11.81,
        "elev ft": 1932,
        "pop est": 12185
    },
    {
        "name": "Barakin Yorro",
        "what": "city",
        "region": "Taraba",
        "country": "Nigeria",
        "lat": 8.74,
        "long": 11.6,
        "elev ft": 2532,
        "pop est": 4020
    },
    {
        "name": "Baranda",
        "what": "city",
        "region": "Taraba",
        "country": "Nigeria",
        "lat": 8.76,
        "long": 10.84,
        "elev ft": 387,
        "pop est": 4082
    },
    {
        "name": "Baraya",
        "what": "city",
        "region": "Taraba",
        "country": "Nigeria",
        "lat": 8.82,
        "long": 11.29,
        "elev ft": 997,
        "pop est": 6258
    },
    {
        "name": "Barde",
        "what": "city",
        "region": "Taraba",
        "country": "Nigeria",
        "lat": 8.75,
        "long": 11.05,
        "elev ft": 830,
        "pop est": 6258
    },
    {
        "name": "Barde Lanka",
        "what": "city",
        "region": "Taraba",
        "country": "Nigeria",
        "lat": 8.89,
        "long": 11.42,
        "elev ft": 1669,
        "pop est": 26768
    },
    {
        "name": "Bariki",
        "what": "city",
        "region": "Taraba",
        "country": "Nigeria",
        "lat": 8.87,
        "long": 10.92,
        "elev ft": 400,
        "pop est": 5964
    },
    {
        "name": "Barikin Sibre",
        "what": "city",
        "region": "Taraba",
        "country": "Nigeria",
        "lat": 8.85,
        "long": 11.2,
        "elev ft": 830,
        "pop est": 6258
    },
    {
        "name": "Barjanga",
        "what": "city",
        "region": "Taraba",
        "country": "Nigeria",
        "lat": 8.59,
        "long": 10.8,
        "elev ft": 830,
        "pop est": 3576
    },
    {
        "name": "Baro",
        "what": "city",
        "region": "Taraba",
        "country": "Nigeria",
        "lat": 8.84,
        "long": 11.86,
        "elev ft": 1889,
        "pop est": 12187
    },
    {
        "name": "Basa",
        "what": "city",
        "region": "Taraba",
        "country": "Nigeria",
        "lat": 8.85,
        "long": 11.37,
        "elev ft": 1154,
        "pop est": 54293
    },
    {
        "name": "Bashau",
        "what": "city",
        "region": "Taraba",
        "country": "Nigeria",
        "lat": 8.49,
        "long": 10.77,
        "elev ft": 830,
        "pop est": 3576
    },
    {
        "name": "Bashin",
        "what": "city",
        "region": "Taraba",
        "country": "Nigeria",
        "lat": 8.91,
        "long": 11.43,
        "elev ft": 1669,
        "pop est": 3874
    },
    {
        "name": "Bassa",
        "what": "city",
        "region": "Taraba",
        "country": "Nigeria",
        "lat": 8.85,
        "long": 11.37,
        "elev ft": 1154,
        "pop est": 54293
    },
    {
        "name": "Batu Afi",
        "what": "city",
        "region": "Taraba",
        "country": "Nigeria",
        "lat": 7.09,
        "long": 10.91,
        "elev ft": 1669,
        "pop est": 3874
    },
    {
        "name": "Batu Amanda",
        "what": "city",
        "region": "Taraba",
        "country": "Nigeria",
        "lat": 7.06,
        "long": 10.89,
        "elev ft": 1230,
        "pop est": 3874
    },
    {
        "name": "Batu Kamino",
        "what": "city",
        "region": "Taraba",
        "country": "Nigeria",
        "lat": 7.02,
        "long": 10.92,
        "elev ft": 2509,
        "pop est": 3874
    },
    {
        "name": "Batu Kamno",
        "what": "city",
        "region": "Taraba",
        "country": "Nigeria",
        "lat": 7.02,
        "long": 10.92,
        "elev ft": 2509,
        "pop est": 3874
    },
    {
        "name": "Bayawal",
        "what": "city",
        "region": "Taraba",
        "country": "Nigeria",
        "lat": 7.81,
        "long": 10.07,
        "elev ft": 830,
        "pop est": 3734
    },
    {
        "name": "Baza",
        "what": "city",
        "region": "Taraba",
        "country": "Nigeria",
        "lat": 8.96,
        "long": 11.3,
        "elev ft": 1135,
        "pop est": 6046
    },
    {
        "name": "Bazinpan",
        "what": "city",
        "region": "Taraba",
        "country": "Nigeria",
        "lat": 8.96,
        "long": 11.32,
        "elev ft": 1249,
        "pop est": 5210
    },
    {
        "name": "Bazum",
        "what": "city",
        "region": "Taraba",
        "country": "Nigeria",
        "lat": 8.93,
        "long": 11.31,
        "elev ft": 1108,
        "pop est": 5569
    },
    {
        "name": "Bazum Ponu",
        "what": "city",
        "region": "Taraba",
        "country": "Nigeria",
        "lat": 8.97,
        "long": 11.28,
        "elev ft": 994,
        "pop est": 6698
    },
    {
        "name": "Ba\u2019Issa",
        "what": "city",
        "region": "Taraba",
        "country": "Nigeria",
        "lat": 7.23,
        "long": 10.62,
        "elev ft": 885,
        "pop est": 3874
    },
    {
        "name": "Bdissa",
        "what": "city",
        "region": "Taraba",
        "country": "Nigeria",
        "lat": 7.23,
        "long": 10.62,
        "elev ft": 885,
        "pop est": 3874
    },
    {
        "name": "Belango",
        "what": "city",
        "region": "Taraba",
        "country": "Nigeria",
        "lat": 8.87,
        "long": 10.81,
        "elev ft": 830,
        "pop est": 4023
    },
    {
        "name": "Beli",
        "what": "city",
        "region": "Taraba",
        "country": "Nigeria",
        "lat": 7.86,
        "long": 10.97,
        "elev ft": 830,
        "pop est": 3513
    },
    {
        "name": "Bende",
        "what": "city",
        "region": "Taraba",
        "country": "Nigeria",
        "lat": 7.27,
        "long": 10.04,
        "elev ft": 1040,
        "pop est": 7599
    },
    {
        "name": "Bendi",
        "what": "city",
        "region": "Taraba",
        "country": "Nigeria",
        "lat": 8.92,
        "long": 11.71,
        "elev ft": 2007,
        "pop est": 12218
    },
    {
        "name": "Bente",
        "what": "city",
        "region": "Taraba",
        "country": "Nigeria",
        "lat": 7.28,
        "long": 10.69,
        "elev ft": 971,
        "pop est": 3874
    },
    {
        "name": "Bente Sama",
        "what": "city",
        "region": "Taraba",
        "country": "Nigeria",
        "lat": 7.3,
        "long": 10.72,
        "elev ft": 1669,
        "pop est": 3874
    },
    {
        "name": "Bete",
        "what": "city",
        "region": "Taraba",
        "country": "Nigeria",
        "lat": 6.98,
        "long": 9.72,
        "elev ft": 1115,
        "pop est": 9198
    },
    {
        "name": "Beya",
        "what": "city",
        "region": "Taraba",
        "country": "Nigeria",
        "lat": 7.86,
        "long": 10.84,
        "elev ft": 830,
        "pop est": 3576
    },
    {
        "name": "Bidako",
        "what": "city",
        "region": "Taraba",
        "country": "Nigeria",
        "lat": 8.98,
        "long": 11.73,
        "elev ft": 2007,
        "pop est": 12018
    },
    {
        "name": "Bigbo",
        "what": "city",
        "region": "Taraba",
        "country": "Nigeria",
        "lat": 6.66,
        "long": 9.7,
        "elev ft": 4189,
        "pop est": 8804
    },
    {
        "name": "Bigila",
        "what": "city",
        "region": "Taraba",
        "country": "Nigeria",
        "lat": 7.87,
        "long": 9.74,
        "elev ft": 830,
        "pop est": 41137
    },
    {
        "name": "Bika",
        "what": "city",
        "region": "Taraba",
        "country": "Nigeria",
        "lat": 7.21,
        "long": 10.01,
        "elev ft": 987,
        "pop est": 7599
    },
    {
        "name": "Bilikani",
        "what": "city",
        "region": "Taraba",
        "country": "Nigeria",
        "lat": 7.36,
        "long": 10.45,
        "elev ft": 830,
        "pop est": 4392
    },
    {
        "name": "Bimari",
        "what": "city",
        "region": "Taraba",
        "country": "Nigeria",
        "lat": 8.98,
        "long": 10.86,
        "elev ft": 830,
        "pop est": 4023
    },
    {
        "name": "Bisa",
        "what": "city",
        "region": "Taraba",
        "country": "Nigeria",
        "lat": 8.98,
        "long": 11.85,
        "elev ft": 1669,
        "pop est": 12091
    },
    {
        "name": "Bisa",
        "what": "city",
        "region": "Taraba",
        "country": "Nigeria",
        "lat": 8.86,
        "long": 11.37,
        "elev ft": 1141,
        "pop est": 54179
    },
    {
        "name": "Bisagba",
        "what": "city",
        "region": "Taraba",
        "country": "Nigeria",
        "lat": 8.85,
        "long": 11.84,
        "elev ft": 1738,
        "pop est": 12218
    },
    {
        "name": "Bisibi",
        "what": "city",
        "region": "Taraba",
        "country": "Nigeria",
        "lat": 8.25,
        "long": 9.92,
        "elev ft": 387,
        "pop est": 6274
    },
    {
        "name": "Bissaula",
        "what": "city",
        "region": "Taraba",
        "country": "Nigeria",
        "lat": 7.0,
        "long": 10.44,
        "elev ft": 872,
        "pop est": 3874
    },
    {
        "name": "Bito",
        "what": "city",
        "region": "Taraba",
        "country": "Nigeria",
        "lat": 7.64,
        "long": 9.91,
        "elev ft": 830,
        "pop est": 3436
    },
    {
        "name": "Bitup",
        "what": "city",
        "region": "Taraba",
        "country": "Nigeria",
        "lat": 7.19,
        "long": 10.15,
        "elev ft": 882,
        "pop est": 7599
    },
    {
        "name": "Boduga",
        "what": "city",
        "region": "Taraba",
        "country": "Nigeria",
        "lat": 8.85,
        "long": 11.68,
        "elev ft": 1994,
        "pop est": 11874
    },
    {
        "name": "Boi",
        "what": "city",
        "region": "Taraba",
        "country": "Nigeria",
        "lat": 7.3,
        "long": 10.19,
        "elev ft": 830,
        "pop est": 7599
    },
    {
        "name": "Boiyo",
        "what": "city",
        "region": "Taraba",
        "country": "Nigeria",
        "lat": 7.53,
        "long": 10.05,
        "elev ft": 830,
        "pop est": 7339
    },
    {
        "name": "Bojimay",
        "what": "city",
        "region": "Taraba",
        "country": "Nigeria",
        "lat": 7.42,
        "long": 10.24,
        "elev ft": 830,
        "pop est": 4830
    },
    {
        "name": "Bokki",
        "what": "city",
        "region": "Taraba",
        "country": "Nigeria",
        "lat": 8.11,
        "long": 10.76,
        "elev ft": 830,
        "pop est": 3576
    },
    {
        "name": "Bokoko",
        "what": "city",
        "region": "Taraba",
        "country": "Nigeria",
        "lat": 8.25,
        "long": 10.54,
        "elev ft": 830,
        "pop est": 3576
    },
    {
        "name": "Bong",
        "what": "city",
        "region": "Taraba",
        "country": "Nigeria",
        "lat": 7.16,
        "long": 10.24,
        "elev ft": 830,
        "pop est": 6733
    },
    {
        "name": "Bongvong",
        "what": "city",
        "region": "Taraba",
        "country": "Nigeria",
        "lat": 7.3,
        "long": 10.39,
        "elev ft": 830,
        "pop est": 4452
    },
    {
        "name": "Bongwega",
        "what": "city",
        "region": "Taraba",
        "country": "Nigeria",
        "lat": 6.55,
        "long": 9.7,
        "elev ft": 1669,
        "pop est": 6154
    },
    {
        "name": "Bori Zinha",
        "what": "city",
        "region": "Taraba",
        "country": "Nigeria",
        "lat": 8.92,
        "long": 11.72,
        "elev ft": 1958,
        "pop est": 12218
    },
    {
        "name": "Bosha",
        "what": "city",
        "region": "Taraba",
        "country": "Nigeria",
        "lat": 7.62,
        "long": 9.89,
        "elev ft": 830,
        "pop est": 4436
    },
    {
        "name": "Bosua",
        "what": "city",
        "region": "Taraba",
        "country": "Nigeria",
        "lat": 7.78,
        "long": 9.89,
        "elev ft": 830,
        "pop est": 2086
    },
    {
        "name": "Boyi",
        "what": "city",
        "region": "Taraba",
        "country": "Nigeria",
        "lat": 7.34,
        "long": 10.02,
        "elev ft": 997,
        "pop est": 7599
    },
    {
        "name": "Buba",
        "what": "city",
        "region": "Taraba",
        "country": "Nigeria",
        "lat": 7.85,
        "long": 9.4,
        "elev ft": 830,
        "pop est": 3861
    },
    {
        "name": "Bube",
        "what": "city",
        "region": "Taraba",
        "country": "Nigeria",
        "lat": 7.17,
        "long": 10.99,
        "elev ft": 4189,
        "pop est": 3874
    },
    {
        "name": "Bubon",
        "what": "city",
        "region": "Taraba",
        "country": "Nigeria",
        "lat": 8.99,
        "long": 11.78,
        "elev ft": 1978,
        "pop est": 12142
    },
    {
        "name": "Bundu Nareje",
        "what": "city",
        "region": "Taraba",
        "country": "Nigeria",
        "lat": 8.77,
        "long": 10.89,
        "elev ft": 830,
        "pop est": 5332
    },
    {
        "name": "Bunga",
        "what": "city",
        "region": "Taraba",
        "country": "Nigeria",
        "lat": 7.85,
        "long": 10.88,
        "elev ft": 830,
        "pop est": 3576
    },
    {
        "name": "Bungel",
        "what": "city",
        "region": "Taraba",
        "country": "Nigeria",
        "lat": 8.76,
        "long": 10.92,
        "elev ft": 830,
        "pop est": 5682
    },
    {
        "name": "Bur",
        "what": "city",
        "region": "Taraba",
        "country": "Nigeria",
        "lat": 7.83,
        "long": 9.63,
        "elev ft": 830,
        "pop est": 9466
    },
    {
        "name": "Buru",
        "what": "city",
        "region": "Taraba",
        "country": "Nigeria",
        "lat": 7.02,
        "long": 10.88,
        "elev ft": 1056,
        "pop est": 3874
    },
    {
        "name": "Buru Sama",
        "what": "city",
        "region": "Taraba",
        "country": "Nigeria",
        "lat": 7.03,
        "long": 10.91,
        "elev ft": 1971,
        "pop est": 3874
    },
    {
        "name": "Bushanki",
        "what": "city",
        "region": "Taraba",
        "country": "Nigeria",
        "lat": 8.92,
        "long": 11.75,
        "elev ft": 1925,
        "pop est": 12218
    },
    {
        "name": "Busoboro",
        "what": "city",
        "region": "Taraba",
        "country": "Nigeria",
        "lat": 8.88,
        "long": 11.7,
        "elev ft": 2007,
        "pop est": 12218
    },
    {
        "name": "Busum",
        "what": "city",
        "region": "Taraba",
        "country": "Nigeria",
        "lat": 7.15,
        "long": 10.74,
        "elev ft": 1000,
        "pop est": 3874
    },
    {
        "name": "Buzoti",
        "what": "city",
        "region": "Taraba",
        "country": "Nigeria",
        "lat": 8.95,
        "long": 11.8,
        "elev ft": 2050,
        "pop est": 12165
    },
    {
        "name": "Byem",
        "what": "city",
        "region": "Taraba",
        "country": "Nigeria",
        "lat": 7.53,
        "long": 9.93,
        "elev ft": 830,
        "pop est": 7833
    },
    {
        "name": "Chahu",
        "what": "city",
        "region": "Taraba",
        "country": "Nigeria",
        "lat": 7.53,
        "long": 9.93,
        "elev ft": 830,
        "pop est": 7833
    },
    {
        "name": "Chaku",
        "what": "city",
        "region": "Taraba",
        "country": "Nigeria",
        "lat": 8.67,
        "long": 11.4,
        "elev ft": 1033,
        "pop est": 6258
    },
    {
        "name": "Chan Gasuwa",
        "what": "city",
        "region": "Taraba",
        "country": "Nigeria",
        "lat": 7.98,
        "long": 10.09,
        "elev ft": 830,
        "pop est": 2086
    },
    {
        "name": "Chanchanji",
        "what": "city",
        "region": "Taraba",
        "country": "Nigeria",
        "lat": 7.51,
        "long": 9.93,
        "elev ft": 830,
        "pop est": 8181
    },
    {
        "name": "Chanta",
        "what": "city",
        "region": "Taraba",
        "country": "Nigeria",
        "lat": 7.45,
        "long": 10.11,
        "elev ft": 830,
        "pop est": 7599
    },
    {
        "name": "Chanyi",
        "what": "city",
        "region": "Taraba",
        "country": "Nigeria",
        "lat": 7.46,
        "long": 10.03,
        "elev ft": 830,
        "pop est": 7599
    },
    {
        "name": "Che-Adekae",
        "what": "city",
        "region": "Taraba",
        "country": "Nigeria",
        "lat": 7.42,
        "long": 10.08,
        "elev ft": 862,
        "pop est": 7599
    },
    {
        "name": "Cheako",
        "what": "city",
        "region": "Taraba",
        "country": "Nigeria",
        "lat": 7.56,
        "long": 10.04,
        "elev ft": 830,
        "pop est": 6598
    },
    {
        "name": "Chealeva",
        "what": "city",
        "region": "Taraba",
        "country": "Nigeria",
        "lat": 7.51,
        "long": 10.03,
        "elev ft": 830,
        "pop est": 7599
    },
    {
        "name": "Cheanar",
        "what": "city",
        "region": "Taraba",
        "country": "Nigeria",
        "lat": 7.6,
        "long": 10.16,
        "elev ft": 830,
        "pop est": 4480
    },
    {
        "name": "Cheayuwa",
        "what": "city",
        "region": "Taraba",
        "country": "Nigeria",
        "lat": 7.53,
        "long": 10.15,
        "elev ft": 830,
        "pop est": 5615
    },
    {
        "name": "Chediya",
        "what": "city",
        "region": "Taraba",
        "country": "Nigeria",
        "lat": 8.2,
        "long": 10.2,
        "elev ft": 830,
        "pop est": 2209
    },
    {
        "name": "Chegingir",
        "what": "city",
        "region": "Taraba",
        "country": "Nigeria",
        "lat": 7.61,
        "long": 10.16,
        "elev ft": 830,
        "pop est": 4476
    },
    {
        "name": "Chegirgir",
        "what": "city",
        "region": "Taraba",
        "country": "Nigeria",
        "lat": 7.61,
        "long": 10.16,
        "elev ft": 830,
        "pop est": 4476
    },
    {
        "name": "Chegusa",
        "what": "city",
        "region": "Taraba",
        "country": "Nigeria",
        "lat": 7.51,
        "long": 10.15,
        "elev ft": 830,
        "pop est": 6340
    },
    {
        "name": "Chekoshu",
        "what": "city",
        "region": "Taraba",
        "country": "Nigeria",
        "lat": 7.54,
        "long": 10.14,
        "elev ft": 830,
        "pop est": 5892
    },
    {
        "name": "Chenchenji",
        "what": "city",
        "region": "Taraba",
        "country": "Nigeria",
        "lat": 7.51,
        "long": 9.93,
        "elev ft": 830,
        "pop est": 8181
    },
    {
        "name": "Chendam",
        "what": "city",
        "region": "Taraba",
        "country": "Nigeria",
        "lat": 7.07,
        "long": 10.82,
        "elev ft": 1669,
        "pop est": 3874
    },
    {
        "name": "Chengbiandwer",
        "what": "city",
        "region": "Taraba",
        "country": "Nigeria",
        "lat": 7.56,
        "long": 10.14,
        "elev ft": 830,
        "pop est": 5351
    },
    {
        "name": "Chengiga",
        "what": "city",
        "region": "Taraba",
        "country": "Nigeria",
        "lat": 7.55,
        "long": 10.13,
        "elev ft": 830,
        "pop est": 5921
    },
    {
        "name": "Cheordam",
        "what": "city",
        "region": "Taraba",
        "country": "Nigeria",
        "lat": 7.41,
        "long": 10.13,
        "elev ft": 830,
        "pop est": 7599
    },
    {
        "name": "Chequsa",
        "what": "city",
        "region": "Taraba",
        "country": "Nigeria",
        "lat": 7.51,
        "long": 10.15,
        "elev ft": 830,
        "pop est": 6340
    },
    {
        "name": "Chetamen",
        "what": "city",
        "region": "Taraba",
        "country": "Nigeria",
        "lat": 7.44,
        "long": 10.08,
        "elev ft": 830,
        "pop est": 7599
    },
    {
        "name": "Chevgo",
        "what": "city",
        "region": "Taraba",
        "country": "Nigeria",
        "lat": 7.56,
        "long": 10.03,
        "elev ft": 830,
        "pop est": 6871
    },
    {
        "name": "Chia",
        "what": "city",
        "region": "Taraba",
        "country": "Nigeria",
        "lat": 7.77,
        "long": 9.86,
        "elev ft": 830,
        "pop est": 2086
    },
    {
        "name": "Chia",
        "what": "city",
        "region": "Taraba",
        "country": "Nigeria",
        "lat": 7.59,
        "long": 9.84,
        "elev ft": 830,
        "pop est": 10960
    },
    {
        "name": "Chia",
        "what": "city",
        "region": "Taraba",
        "country": "Nigeria",
        "lat": 7.8,
        "long": 9.84,
        "elev ft": 830,
        "pop est": 2086
    },
    {
        "name": "Chiata",
        "what": "city",
        "region": "Taraba",
        "country": "Nigeria",
        "lat": 7.68,
        "long": 9.77,
        "elev ft": 830,
        "pop est": 15161
    },
    {
        "name": "Chikpanadi",
        "what": "city",
        "region": "Taraba",
        "country": "Nigeria",
        "lat": 7.73,
        "long": 9.96,
        "elev ft": 830,
        "pop est": 2939
    },
    {
        "name": "China",
        "what": "city",
        "region": "Taraba",
        "country": "Nigeria",
        "lat": 7.88,
        "long": 9.73,
        "elev ft": 830,
        "pop est": 33391
    },
    {
        "name": "Chini",
        "what": "city",
        "region": "Taraba",
        "country": "Nigeria",
        "lat": 7.88,
        "long": 10.64,
        "elev ft": 843,
        "pop est": 3576
    },
    {
        "name": "Chiruma",
        "what": "city",
        "region": "Taraba",
        "country": "Nigeria",
        "lat": 7.76,
        "long": 10.54,
        "elev ft": 830,
        "pop est": 3576
    },
    {
        "name": "Chonbi",
        "what": "city",
        "region": "Taraba",
        "country": "Nigeria",
        "lat": 8.79,
        "long": 11.43,
        "elev ft": 1669,
        "pop est": 4867
    },
    {
        "name": "Chong",
        "what": "city",
        "region": "Taraba",
        "country": "Nigeria",
        "lat": 7.03,
        "long": 10.77,
        "elev ft": 1669,
        "pop est": 3887
    },
    {
        "name": "Chonke",
        "what": "city",
        "region": "Taraba",
        "country": "Nigeria",
        "lat": 7.77,
        "long": 9.76,
        "elev ft": 830,
        "pop est": 2896
    },
    {
        "name": "Chonko",
        "what": "city",
        "region": "Taraba",
        "country": "Nigeria",
        "lat": 7.77,
        "long": 9.76,
        "elev ft": 830,
        "pop est": 2896
    },
    {
        "name": "Chonku",
        "what": "city",
        "region": "Taraba",
        "country": "Nigeria",
        "lat": 7.77,
        "long": 9.76,
        "elev ft": 830,
        "pop est": 2896
    },
    {
        "name": "Chonpu",
        "what": "city",
        "region": "Taraba",
        "country": "Nigeria",
        "lat": 8.96,
        "long": 11.17,
        "elev ft": 853,
        "pop est": 7038
    },
    {
        "name": "Chul",
        "what": "city",
        "region": "Taraba",
        "country": "Nigeria",
        "lat": 8.52,
        "long": 10.76,
        "elev ft": 830,
        "pop est": 3576
    },
    {
        "name": "Chumo",
        "what": "city",
        "region": "Taraba",
        "country": "Nigeria",
        "lat": 8.9,
        "long": 11.33,
        "elev ft": 1095,
        "pop est": 54634
    },
    {
        "name": "Chunku",
        "what": "city",
        "region": "Taraba",
        "country": "Nigeria",
        "lat": 7.77,
        "long": 9.76,
        "elev ft": 830,
        "pop est": 2896
    },
    {
        "name": "Chusa",
        "what": "city",
        "region": "Taraba",
        "country": "Nigeria",
        "lat": 7.59,
        "long": 9.9,
        "elev ft": 830,
        "pop est": 5494
    },
    {
        "name": "Dadin Kowa",
        "what": "city",
        "region": "Taraba",
        "country": "Nigeria",
        "lat": 8.35,
        "long": 10.55,
        "elev ft": 830,
        "pop est": 3576
    },
    {
        "name": "Dagbera",
        "what": "city",
        "region": "Taraba",
        "country": "Nigeria",
        "lat": 7.31,
        "long": 10.1,
        "elev ft": 869,
        "pop est": 7599
    },
    {
        "name": "Dali",
        "what": "city",
        "region": "Taraba",
        "country": "Nigeria",
        "lat": 8.58,
        "long": 10.13,
        "elev ft": 830,
        "pop est": 3822
    },
    {
        "name": "Dalli",
        "what": "city",
        "region": "Taraba",
        "country": "Nigeria",
        "lat": 8.2,
        "long": 10.61,
        "elev ft": 830,
        "pop est": 3576
    },
    {
        "name": "Dam",
        "what": "city",
        "region": "Taraba",
        "country": "Nigeria",
        "lat": 8.71,
        "long": 11.28,
        "elev ft": 954,
        "pop est": 6258
    },
    {
        "name": "Dama",
        "what": "city",
        "region": "Taraba",
        "country": "Nigeria",
        "lat": 8.89,
        "long": 11.27,
        "elev ft": 990,
        "pop est": 6258
    },
    {
        "name": "Dama",
        "what": "city",
        "region": "Taraba",
        "country": "Nigeria",
        "lat": 7.08,
        "long": 10.8,
        "elev ft": 1879,
        "pop est": 3874
    },
    {
        "name": "Damasa",
        "what": "city",
        "region": "Taraba",
        "country": "Nigeria",
        "lat": 7.27,
        "long": 10.11,
        "elev ft": 912,
        "pop est": 7599
    },
    {
        "name": "Dame",
        "what": "city",
        "region": "Taraba",
        "country": "Nigeria",
        "lat": 8.9,
        "long": 11.21,
        "elev ft": 869,
        "pop est": 6258
    },
    {
        "name": "Dameya",
        "what": "city",
        "region": "Taraba",
        "country": "Nigeria",
        "lat": 7.34,
        "long": 10.51,
        "elev ft": 935,
        "pop est": 4082
    },
    {
        "name": "Damisa",
        "what": "city",
        "region": "Taraba",
        "country": "Nigeria",
        "lat": 7.72,
        "long": 9.96,
        "elev ft": 830,
        "pop est": 3169
    },
    {
        "name": "Dampar",
        "what": "city",
        "region": "Taraba",
        "country": "Nigeria",
        "lat": 8.53,
        "long": 10.13,
        "elev ft": 830,
        "pop est": 4224
    },
    {
        "name": "Damsa",
        "what": "city",
        "region": "Taraba",
        "country": "Nigeria",
        "lat": 7.72,
        "long": 9.96,
        "elev ft": 830,
        "pop est": 3169
    },
    {
        "name": "Damsa",
        "what": "city",
        "region": "Taraba",
        "country": "Nigeria",
        "lat": 7.91,
        "long": 9.45,
        "elev ft": 830,
        "pop est": 2864
    },
    {
        "name": "Damsai",
        "what": "city",
        "region": "Taraba",
        "country": "Nigeria",
        "lat": 8.52,
        "long": 11.34,
        "elev ft": 1043,
        "pop est": 3901
    },
    {
        "name": "Damu",
        "what": "city",
        "region": "Taraba",
        "country": "Nigeria",
        "lat": 7.19,
        "long": 10.17,
        "elev ft": 912,
        "pop est": 7599
    },
    {
        "name": "Damvo",
        "what": "city",
        "region": "Taraba",
        "country": "Nigeria",
        "lat": 8.97,
        "long": 11.25,
        "elev ft": 990,
        "pop est": 7385
    },
    {
        "name": "Damzei",
        "what": "city",
        "region": "Taraba",
        "country": "Nigeria",
        "lat": 8.93,
        "long": 11.22,
        "elev ft": 961,
        "pop est": 6379
    },
    {
        "name": "Damzo",
        "what": "city",
        "region": "Taraba",
        "country": "Nigeria",
        "lat": 8.86,
        "long": 11.24,
        "elev ft": 954,
        "pop est": 6258
    },
    {
        "name": "Dan Fulani",
        "what": "city",
        "region": "Taraba",
        "country": "Nigeria",
        "lat": 7.09,
        "long": 10.97,
        "elev ft": 2880,
        "pop est": 3874
    },
    {
        "name": "Dan Jauro",
        "what": "city",
        "region": "Taraba",
        "country": "Nigeria",
        "lat": 8.55,
        "long": 10.44,
        "elev ft": 830,
        "pop est": 3576
    },
    {
        "name": "Danbaki",
        "what": "city",
        "region": "Taraba",
        "country": "Nigeria",
        "lat": 7.17,
        "long": 10.44,
        "elev ft": 830,
        "pop est": 3874
    },
    {
        "name": "Danbecki",
        "what": "city",
        "region": "Taraba",
        "country": "Nigeria",
        "lat": 7.32,
        "long": 10.57,
        "elev ft": 1007,
        "pop est": 3874
    },
    {
        "name": "Danbeki",
        "what": "city",
        "region": "Taraba",
        "country": "Nigeria",
        "lat": 7.3,
        "long": 10.08,
        "elev ft": 902,
        "pop est": 7599
    },
    {
        "name": "Dandadu",
        "what": "city",
        "region": "Taraba",
        "country": "Nigeria",
        "lat": 8.47,
        "long": 10.76,
        "elev ft": 830,
        "pop est": 3576
    },
    {
        "name": "Dandi",
        "what": "city",
        "region": "Taraba",
        "country": "Nigeria",
        "lat": 8.77,
        "long": 11.82,
        "elev ft": 1919,
        "pop est": 12195
    },
    {
        "name": "Dang",
        "what": "city",
        "region": "Taraba",
        "country": "Nigeria",
        "lat": 8.92,
        "long": 11.21,
        "elev ft": 882,
        "pop est": 6266
    },
    {
        "name": "Dangari",
        "what": "city",
        "region": "Taraba",
        "country": "Nigeria",
        "lat": 7.89,
        "long": 10.4,
        "elev ft": 830,
        "pop est": 4015
    },
    {
        "name": "Dangu",
        "what": "city",
        "region": "Taraba",
        "country": "Nigeria",
        "lat": 8.76,
        "long": 11.44,
        "elev ft": 1669,
        "pop est": 5079
    },
    {
        "name": "Dangum",
        "what": "city",
        "region": "Taraba",
        "country": "Nigeria",
        "lat": 8.85,
        "long": 11.46,
        "elev ft": 1669,
        "pop est": 3874
    },
    {
        "name": "Daniel",
        "what": "city",
        "region": "Taraba",
        "country": "Nigeria",
        "lat": 7.87,
        "long": 10.97,
        "elev ft": 830,
        "pop est": 3576
    },
    {
        "name": "Danjuma",
        "what": "city",
        "region": "Taraba",
        "country": "Nigeria",
        "lat": 7.14,
        "long": 10.08,
        "elev ft": 997,
        "pop est": 7599
    },
    {
        "name": "Danjuma",
        "what": "city",
        "region": "Taraba",
        "country": "Nigeria",
        "lat": 7.25,
        "long": 10.19,
        "elev ft": 866,
        "pop est": 7599
    },
    {
        "name": "Dankaro",
        "what": "city",
        "region": "Taraba",
        "country": "Nigeria",
        "lat": 7.65,
        "long": 9.91,
        "elev ft": 830,
        "pop est": 3170
    },
    {
        "name": "Dankwa",
        "what": "city",
        "region": "Taraba",
        "country": "Nigeria",
        "lat": 8.9,
        "long": 11.54,
        "elev ft": 1669,
        "pop est": 4785
    },
    {
        "name": "Dankyama",
        "what": "city",
        "region": "Taraba",
        "country": "Nigeria",
        "lat": 8.92,
        "long": 11.25,
        "elev ft": 997,
        "pop est": 6267
    },
    {
        "name": "Danlonkwo",
        "what": "city",
        "region": "Taraba",
        "country": "Nigeria",
        "lat": 8.9,
        "long": 11.52,
        "elev ft": 1702,
        "pop est": 4114
    },
    {
        "name": "Dansa",
        "what": "city",
        "region": "Taraba",
        "country": "Nigeria",
        "lat": 8.91,
        "long": 11.89,
        "elev ft": 1669,
        "pop est": 12123
    },
    {
        "name": "Dansufa",
        "what": "city",
        "region": "Taraba",
        "country": "Nigeria",
        "lat": 7.92,
        "long": 9.22,
        "elev ft": 360,
        "pop est": 6360
    },
    {
        "name": "Dantilla",
        "what": "city",
        "region": "Taraba",
        "country": "Nigeria",
        "lat": 8.87,
        "long": 11.44,
        "elev ft": 1669,
        "pop est": 3882
    },
    {
        "name": "Danvo",
        "what": "city",
        "region": "Taraba",
        "country": "Nigeria",
        "lat": 8.98,
        "long": 11.71,
        "elev ft": 2004,
        "pop est": 11658
    },
    {
        "name": "Danvo",
        "what": "city",
        "region": "Taraba",
        "country": "Nigeria",
        "lat": 8.92,
        "long": 11.49,
        "elev ft": 1998,
        "pop est": 3874
    },
    {
        "name": "Danvo",
        "what": "city",
        "region": "Taraba",
        "country": "Nigeria",
        "lat": 8.83,
        "long": 11.68,
        "elev ft": 2063,
        "pop est": 11595
    },
    {
        "name": "Danwagwai",
        "what": "city",
        "region": "Taraba",
        "country": "Nigeria",
        "lat": 8.87,
        "long": 11.47,
        "elev ft": 1669,
        "pop est": 3874
    },
    {
        "name": "Danwangwore",
        "what": "city",
        "region": "Taraba",
        "country": "Nigeria",
        "lat": 9.0,
        "long": 11.41,
        "elev ft": 2001,
        "pop est": 3874
    },
    {
        "name": "Danzinna",
        "what": "city",
        "region": "Taraba",
        "country": "Nigeria",
        "lat": 8.8,
        "long": 11.66,
        "elev ft": 2509,
        "pop est": 9175
    },
    {
        "name": "Dar",
        "what": "city",
        "region": "Taraba",
        "country": "Nigeria",
        "lat": 7.85,
        "long": 9.88,
        "elev ft": 830,
        "pop est": 2086
    },
    {
        "name": "Dararu",
        "what": "city",
        "region": "Taraba",
        "country": "Nigeria",
        "lat": 8.82,
        "long": 11.29,
        "elev ft": 990,
        "pop est": 6258
    },
    {
        "name": "Dasenda",
        "what": "city",
        "region": "Taraba",
        "country": "Nigeria",
        "lat": 7.44,
        "long": 10.02,
        "elev ft": 830,
        "pop est": 7599
    },
    {
        "name": "Dashan",
        "what": "city",
        "region": "Taraba",
        "country": "Nigeria",
        "lat": 7.27,
        "long": 10.02,
        "elev ft": 997,
        "pop est": 7599
    },
    {
        "name": "Datsu",
        "what": "city",
        "region": "Taraba",
        "country": "Nigeria",
        "lat": 7.73,
        "long": 9.78,
        "elev ft": 830,
        "pop est": 6125
    },
    {
        "name": "Dauda",
        "what": "city",
        "region": "Taraba",
        "country": "Nigeria",
        "lat": 7.72,
        "long": 9.79,
        "elev ft": 830,
        "pop est": 5355
    },
    {
        "name": "Deiba",
        "what": "city",
        "region": "Taraba",
        "country": "Nigeria",
        "lat": 8.48,
        "long": 10.65,
        "elev ft": 830,
        "pop est": 3576
    },
    {
        "name": "Deida",
        "what": "city",
        "region": "Taraba",
        "country": "Nigeria",
        "lat": 8.48,
        "long": 10.65,
        "elev ft": 830,
        "pop est": 3576
    },
    {
        "name": "Deke",
        "what": "city",
        "region": "Taraba",
        "country": "Nigeria",
        "lat": 7.9,
        "long": 9.72,
        "elev ft": 830,
        "pop est": 21731
    },
    {
        "name": "Dendi",
        "what": "city",
        "region": "Taraba",
        "country": "Nigeria",
        "lat": 8.74,
        "long": 11.82,
        "elev ft": 1942,
        "pop est": 12175
    },
    {
        "name": "Dendi Jarandi",
        "what": "city",
        "region": "Taraba",
        "country": "Nigeria",
        "lat": 8.71,
        "long": 11.8,
        "elev ft": 2509,
        "pop est": 12175
    },
    {
        "name": "Dendi Jawere",
        "what": "city",
        "region": "Taraba",
        "country": "Nigeria",
        "lat": 8.71,
        "long": 11.79,
        "elev ft": 2509,
        "pop est": 12187
    },
    {
        "name": "Depi",
        "what": "city",
        "region": "Taraba",
        "country": "Nigeria",
        "lat": 8.9,
        "long": 11.41,
        "elev ft": 1669,
        "pop est": 40605
    },
    {
        "name": "Deso",
        "what": "city",
        "region": "Taraba",
        "country": "Nigeria",
        "lat": 8.91,
        "long": 11.52,
        "elev ft": 1801,
        "pop est": 4114
    },
    {
        "name": "Dibobo",
        "what": "city",
        "region": "Taraba",
        "country": "Nigeria",
        "lat": 8.94,
        "long": 11.58,
        "elev ft": 1669,
        "pop est": 8163
    },
    {
        "name": "Didan",
        "what": "city",
        "region": "Taraba",
        "country": "Nigeria",
        "lat": 7.33,
        "long": 10.54,
        "elev ft": 990,
        "pop est": 3899
    },
    {
        "name": "Diden",
        "what": "city",
        "region": "Taraba",
        "country": "Nigeria",
        "lat": 7.33,
        "long": 10.54,
        "elev ft": 990,
        "pop est": 3899
    },
    {
        "name": "Didon",
        "what": "city",
        "region": "Taraba",
        "country": "Nigeria",
        "lat": 7.33,
        "long": 10.54,
        "elev ft": 990,
        "pop est": 3899
    },
    {
        "name": "Digunzan",
        "what": "city",
        "region": "Taraba",
        "country": "Nigeria",
        "lat": 8.95,
        "long": 11.51,
        "elev ft": 2083,
        "pop est": 4035
    },
    {
        "name": "Dikasa",
        "what": "city",
        "region": "Taraba",
        "country": "Nigeria",
        "lat": 8.95,
        "long": 11.54,
        "elev ft": 1889,
        "pop est": 5249
    },
    {
        "name": "Dilau",
        "what": "city",
        "region": "Taraba",
        "country": "Nigeria",
        "lat": 8.86,
        "long": 11.57,
        "elev ft": 1669,
        "pop est": 4975
    },
    {
        "name": "Dilla",
        "what": "city",
        "region": "Taraba",
        "country": "Nigeria",
        "lat": 8.98,
        "long": 11.53,
        "elev ft": 1669,
        "pop est": 4303
    },
    {
        "name": "Dilla Magaji",
        "what": "city",
        "region": "Taraba",
        "country": "Nigeria",
        "lat": 8.97,
        "long": 11.51,
        "elev ft": 2083,
        "pop est": 4006
    },
    {
        "name": "Dinawa",
        "what": "city",
        "region": "Taraba",
        "country": "Nigeria",
        "lat": 8.54,
        "long": 10.67,
        "elev ft": 830,
        "pop est": 3576
    },
    {
        "name": "Dingding",
        "what": "city",
        "region": "Taraba",
        "country": "Nigeria",
        "lat": 8.85,
        "long": 11.76,
        "elev ft": 2509,
        "pop est": 12218
    },
    {
        "name": "Dinkanka",
        "what": "city",
        "region": "Taraba",
        "country": "Nigeria",
        "lat": 8.91,
        "long": 11.55,
        "elev ft": 1669,
        "pop est": 5225
    },
    {
        "name": "Dinya",
        "what": "city",
        "region": "Taraba",
        "country": "Nigeria",
        "lat": 8.81,
        "long": 11.63,
        "elev ft": 2001,
        "pop est": 7229
    },
    {
        "name": "Dinyaja Prussa",
        "what": "city",
        "region": "Taraba",
        "country": "Nigeria",
        "lat": 8.92,
        "long": 11.56,
        "elev ft": 1669,
        "pop est": 5991
    },
    {
        "name": "Dipi",
        "what": "city",
        "region": "Taraba",
        "country": "Nigeria",
        "lat": 8.84,
        "long": 11.24,
        "elev ft": 882,
        "pop est": 6258
    },
    {
        "name": "Dodo",
        "what": "city",
        "region": "Taraba",
        "country": "Nigeria",
        "lat": 7.18,
        "long": 10.68,
        "elev ft": 925,
        "pop est": 3874
    },
    {
        "name": "Dofi",
        "what": "city",
        "region": "Taraba",
        "country": "Nigeria",
        "lat": 7.88,
        "long": 9.75,
        "elev ft": 830,
        "pop est": 55877
    },
    {
        "name": "Dogani Tiv",
        "what": "city",
        "region": "Taraba",
        "country": "Nigeria",
        "lat": 7.84,
        "long": 10.95,
        "elev ft": 984,
        "pop est": 3508
    },
    {
        "name": "Dogari Shonti",
        "what": "city",
        "region": "Taraba",
        "country": "Nigeria",
        "lat": 8.99,
        "long": 11.23,
        "elev ft": 931,
        "pop est": 8218
    },
    {
        "name": "Dogari Tiv",
        "what": "city",
        "region": "Taraba",
        "country": "Nigeria",
        "lat": 7.84,
        "long": 10.95,
        "elev ft": 984,
        "pop est": 3508
    },
    {
        "name": "Dogberin",
        "what": "city",
        "region": "Taraba",
        "country": "Nigeria",
        "lat": 8.92,
        "long": 11.82,
        "elev ft": 1843,
        "pop est": 12194
    },
    {
        "name": "Dogo",
        "what": "city",
        "region": "Taraba",
        "country": "Nigeria",
        "lat": 8.75,
        "long": 11.05,
        "elev ft": 830,
        "pop est": 6258
    },
    {
        "name": "Dogo",
        "what": "city",
        "region": "Taraba",
        "country": "Nigeria",
        "lat": 7.04,
        "long": 10.14,
        "elev ft": 853,
        "pop est": 6787
    },
    {
        "name": "Dogo",
        "what": "city",
        "region": "Taraba",
        "country": "Nigeria",
        "lat": 7.85,
        "long": 9.34,
        "elev ft": 830,
        "pop est": 2662
    },
    {
        "name": "Dogo",
        "what": "city",
        "region": "Taraba",
        "country": "Nigeria",
        "lat": 7.17,
        "long": 10.61,
        "elev ft": 830,
        "pop est": 4054
    },
    {
        "name": "Dogom-Gawa",
        "what": "city",
        "region": "Taraba",
        "country": "Nigeria",
        "lat": 7.27,
        "long": 9.89,
        "elev ft": 987,
        "pop est": 8596
    },
    {
        "name": "Dogon Gawa",
        "what": "city",
        "region": "Taraba",
        "country": "Nigeria",
        "lat": 7.27,
        "long": 9.89,
        "elev ft": 987,
        "pop est": 8596
    },
    {
        "name": "Dogon Jigawa",
        "what": "city",
        "region": "Taraba",
        "country": "Nigeria",
        "lat": 7.14,
        "long": 10.38,
        "elev ft": 967,
        "pop est": 3874
    },
    {
        "name": "Dombo",
        "what": "city",
        "region": "Taraba",
        "country": "Nigeria",
        "lat": 7.08,
        "long": 10.92,
        "elev ft": 1683,
        "pop est": 3874
    },
    {
        "name": "Donga",
        "what": "city",
        "region": "Taraba",
        "country": "Nigeria",
        "lat": 7.72,
        "long": 10.05,
        "elev ft": 830,
        "pop est": 4470
    },
    {
        "name": "Donkin",
        "what": "city",
        "region": "Taraba",
        "country": "Nigeria",
        "lat": 8.62,
        "long": 11.73,
        "elev ft": 3674,
        "pop est": 6897
    },
    {
        "name": "Donkin Do",
        "what": "city",
        "region": "Taraba",
        "country": "Nigeria",
        "lat": 8.61,
        "long": 11.74,
        "elev ft": 3497,
        "pop est": 7089
    },
    {
        "name": "Donkun",
        "what": "city",
        "region": "Taraba",
        "country": "Nigeria",
        "lat": 8.81,
        "long": 11.59,
        "elev ft": 2509,
        "pop est": 4114
    },
    {
        "name": "Donkun Tukur",
        "what": "city",
        "region": "Taraba",
        "country": "Nigeria",
        "lat": 8.81,
        "long": 11.61,
        "elev ft": 2509,
        "pop est": 5813
    },
    {
        "name": "Dooga",
        "what": "city",
        "region": "Taraba",
        "country": "Nigeria",
        "lat": 7.52,
        "long": 10.1,
        "elev ft": 830,
        "pop est": 7304
    },
    {
        "name": "Dopa",
        "what": "city",
        "region": "Taraba",
        "country": "Nigeria",
        "lat": 8.84,
        "long": 11.75,
        "elev ft": 3349,
        "pop est": 12218
    },
    {
        "name": "Dora",
        "what": "city",
        "region": "Taraba",
        "country": "Nigeria",
        "lat": 8.69,
        "long": 11.6,
        "elev ft": 2509,
        "pop est": 3874
    },
    {
        "name": "Dori",
        "what": "city",
        "region": "Taraba",
        "country": "Nigeria",
        "lat": 7.61,
        "long": 10.81,
        "elev ft": 1998,
        "pop est": 3740
    },
    {
        "name": "Dossa",
        "what": "city",
        "region": "Taraba",
        "country": "Nigeria",
        "lat": 9.0,
        "long": 11.75,
        "elev ft": 1998,
        "pop est": 11811
    },
    {
        "name": "Dugeri",
        "what": "city",
        "region": "Taraba",
        "country": "Nigeria",
        "lat": 7.31,
        "long": 10.06,
        "elev ft": 941,
        "pop est": 7599
    },
    {
        "name": "Dujere",
        "what": "city",
        "region": "Taraba",
        "country": "Nigeria",
        "lat": 7.12,
        "long": 10.97,
        "elev ft": 3349,
        "pop est": 3874
    },
    {
        "name": "Dujere",
        "what": "city",
        "region": "Taraba",
        "country": "Nigeria",
        "lat": 7.16,
        "long": 10.96,
        "elev ft": 3349,
        "pop est": 3874
    },
    {
        "name": "Duka",
        "what": "city",
        "region": "Taraba",
        "country": "Nigeria",
        "lat": 8.93,
        "long": 11.71,
        "elev ft": 1994,
        "pop est": 12218
    },
    {
        "name": "Duka",
        "what": "city",
        "region": "Taraba",
        "country": "Nigeria",
        "lat": 8.93,
        "long": 11.7,
        "elev ft": 2007,
        "pop est": 12218
    },
    {
        "name": "Dukunapo",
        "what": "city",
        "region": "Taraba",
        "country": "Nigeria",
        "lat": 8.6,
        "long": 11.42,
        "elev ft": 1669,
        "pop est": 5323
    },
    {
        "name": "Dundewa",
        "what": "city",
        "region": "Taraba",
        "country": "Nigeria",
        "lat": 8.42,
        "long": 10.45,
        "elev ft": 830,
        "pop est": 3576
    },
    {
        "name": "Dzwandiir",
        "what": "city",
        "region": "Taraba",
        "country": "Nigeria",
        "lat": 7.68,
        "long": 9.78,
        "elev ft": 830,
        "pop est": 12710
    },
    {
        "name": "Ebba",
        "what": "city",
        "region": "Taraba",
        "country": "Nigeria",
        "lat": 7.87,
        "long": 10.63,
        "elev ft": 830,
        "pop est": 3576
    },
    {
        "name": "Ekas",
        "what": "city",
        "region": "Taraba",
        "country": "Nigeria",
        "lat": 7.21,
        "long": 10.02,
        "elev ft": 987,
        "pop est": 7599
    },
    {
        "name": "Emwe",
        "what": "city",
        "region": "Taraba",
        "country": "Nigeria",
        "lat": 7.05,
        "long": 10.78,
        "elev ft": 1669,
        "pop est": 3874
    },
    {
        "name": "Faasema",
        "what": "city",
        "region": "Taraba",
        "country": "Nigeria",
        "lat": 7.32,
        "long": 10.12,
        "elev ft": 853,
        "pop est": 7599
    },
    {
        "name": "Fachi",
        "what": "city",
        "region": "Taraba",
        "country": "Nigeria",
        "lat": 7.5,
        "long": 10.06,
        "elev ft": 830,
        "pop est": 7599
    },
    {
        "name": "Fajila",
        "what": "city",
        "region": "Taraba",
        "country": "Nigeria",
        "lat": 8.57,
        "long": 11.37,
        "elev ft": 1108,
        "pop est": 5115
    },
    {
        "name": "Fali",
        "what": "city",
        "region": "Taraba",
        "country": "Nigeria",
        "lat": 7.52,
        "long": 10.68,
        "elev ft": 1948,
        "pop est": 4082
    },
    {
        "name": "Fali",
        "what": "city",
        "region": "Taraba",
        "country": "Nigeria",
        "lat": 7.45,
        "long": 10.71,
        "elev ft": 3349,
        "pop est": 3874
    },
    {
        "name": "Fan Manga",
        "what": "city",
        "region": "Taraba",
        "country": "Nigeria",
        "lat": 8.61,
        "long": 11.24,
        "elev ft": 921,
        "pop est": 6258
    },
    {
        "name": "Fan Petel",
        "what": "city",
        "region": "Taraba",
        "country": "Nigeria",
        "lat": 8.84,
        "long": 11.15,
        "elev ft": 830,
        "pop est": 6258
    },
    {
        "name": "Fan Petel",
        "what": "city",
        "region": "Taraba",
        "country": "Nigeria",
        "lat": 8.72,
        "long": 11.26,
        "elev ft": 941,
        "pop est": 6258
    },
    {
        "name": "Fanu",
        "what": "city",
        "region": "Taraba",
        "country": "Nigeria",
        "lat": 7.92,
        "long": 9.22,
        "elev ft": 360,
        "pop est": 6360
    },
    {
        "name": "Fikyu",
        "what": "city",
        "region": "Taraba",
        "country": "Nigeria",
        "lat": 7.08,
        "long": 10.01,
        "elev ft": 830,
        "pop est": 7599
    },
    {
        "name": "Filibi",
        "what": "city",
        "region": "Taraba",
        "country": "Nigeria",
        "lat": 7.01,
        "long": 10.27,
        "elev ft": 1102,
        "pop est": 3874
    },
    {
        "name": "Fiyayi",
        "what": "city",
        "region": "Taraba",
        "country": "Nigeria",
        "lat": 7.85,
        "long": 9.4,
        "elev ft": 830,
        "pop est": 4343
    },
    {
        "name": "Haayongo",
        "what": "city",
        "region": "Taraba",
        "country": "Nigeria",
        "lat": 7.64,
        "long": 9.92,
        "elev ft": 830,
        "pop est": 3474
    },
    {
        "name": "Hamakado",
        "what": "city",
        "region": "Taraba",
        "country": "Nigeria",
        "lat": 8.84,
        "long": 11.4,
        "elev ft": 1190,
        "pop est": 13990
    },
    {
        "name": "Hamdalla",
        "what": "city",
        "region": "Taraba",
        "country": "Nigeria",
        "lat": 8.6,
        "long": 11.23,
        "elev ft": 898,
        "pop est": 6258
    },
    {
        "name": "Hamman",
        "what": "city",
        "region": "Taraba",
        "country": "Nigeria",
        "lat": 7.45,
        "long": 10.82,
        "elev ft": 2509,
        "pop est": 3874
    },
    {
        "name": "Hamua",
        "what": "city",
        "region": "Taraba",
        "country": "Nigeria",
        "lat": 7.17,
        "long": 10.63,
        "elev ft": 875,
        "pop est": 3909
    },
    {
        "name": "Hande",
        "what": "city",
        "region": "Taraba",
        "country": "Nigeria",
        "lat": 6.78,
        "long": 9.69,
        "elev ft": 990,
        "pop est": 8916
    },
    {
        "name": "Harabyem",
        "what": "city",
        "region": "Taraba",
        "country": "Nigeria",
        "lat": 7.94,
        "long": 9.78,
        "elev ft": 830,
        "pop est": 24890
    },
    {
        "name": "Harkpa",
        "what": "city",
        "region": "Taraba",
        "country": "Nigeria",
        "lat": 7.93,
        "long": 9.56,
        "elev ft": 830,
        "pop est": 2090
    },
    {
        "name": "Haruna",
        "what": "city",
        "region": "Taraba",
        "country": "Nigeria",
        "lat": 7.32,
        "long": 10.9,
        "elev ft": 2693,
        "pop est": 3874
    },
    {
        "name": "Hayongo",
        "what": "city",
        "region": "Taraba",
        "country": "Nigeria",
        "lat": 7.64,
        "long": 9.92,
        "elev ft": 830,
        "pop est": 3474
    },
    {
        "name": "Hembe",
        "what": "city",
        "region": "Taraba",
        "country": "Nigeria",
        "lat": 7.57,
        "long": 9.87,
        "elev ft": 830,
        "pop est": 8096
    },
    {
        "name": "Hewu",
        "what": "city",
        "region": "Taraba",
        "country": "Nigeria",
        "lat": 8.59,
        "long": 11.11,
        "elev ft": 830,
        "pop est": 5419
    },
    {
        "name": "Hingir",
        "what": "city",
        "region": "Taraba",
        "country": "Nigeria",
        "lat": 7.91,
        "long": 9.85,
        "elev ft": 830,
        "pop est": 8067
    },
    {
        "name": "Hingir",
        "what": "city",
        "region": "Taraba",
        "country": "Nigeria",
        "lat": 7.45,
        "long": 10.05,
        "elev ft": 830,
        "pop est": 7599
    },
    {
        "name": "Hirekaan",
        "what": "city",
        "region": "Taraba",
        "country": "Nigeria",
        "lat": 7.91,
        "long": 9.28,
        "elev ft": 400,
        "pop est": 5744
    },
    {
        "name": "Hobo",
        "what": "city",
        "region": "Taraba",
        "country": "Nigeria",
        "lat": 7.59,
        "long": 9.86,
        "elev ft": 830,
        "pop est": 8612
    },
    {
        "name": "Hondo",
        "what": "city",
        "region": "Taraba",
        "country": "Nigeria",
        "lat": 7.67,
        "long": 9.79,
        "elev ft": 830,
        "pop est": 14174
    },
    {
        "name": "Hontipa",
        "what": "city",
        "region": "Taraba",
        "country": "Nigeria",
        "lat": 8.86,
        "long": 11.69,
        "elev ft": 1971,
        "pop est": 12218
    },
    {
        "name": "Howayi",
        "what": "city",
        "region": "Taraba",
        "country": "Nigeria",
        "lat": 8.96,
        "long": 11.37,
        "elev ft": 1669,
        "pop est": 4056
    },
    {
        "name": "Hoyon",
        "what": "city",
        "region": "Taraba",
        "country": "Nigeria",
        "lat": 7.96,
        "long": 10.08,
        "elev ft": 830,
        "pop est": 2086
    },
    {
        "name": "Hula-Amadu",
        "what": "city",
        "region": "Taraba",
        "country": "Nigeria",
        "lat": 7.57,
        "long": 9.85,
        "elev ft": 830,
        "pop est": 9741
    },
    {
        "name": "Hundu",
        "what": "city",
        "region": "Taraba",
        "country": "Nigeria",
        "lat": 7.52,
        "long": 9.89,
        "elev ft": 830,
        "pop est": 8495
    },
    {
        "name": "Hundu",
        "what": "city",
        "region": "Taraba",
        "country": "Nigeria",
        "lat": 7.89,
        "long": 9.53,
        "elev ft": 830,
        "pop est": 4086
    },
    {
        "name": "Hwande",
        "what": "city",
        "region": "Taraba",
        "country": "Nigeria",
        "lat": 7.72,
        "long": 9.95,
        "elev ft": 830,
        "pop est": 2690
    },
    {
        "name": "Iana",
        "what": "city",
        "region": "Taraba",
        "country": "Nigeria",
        "lat": 7.55,
        "long": 9.91,
        "elev ft": 830,
        "pop est": 7566
    },
    {
        "name": "Ibi",
        "what": "city",
        "region": "Taraba",
        "country": "Nigeria",
        "lat": 7.88,
        "long": 10.33,
        "elev ft": 830,
        "pop est": 4470
    },
    {
        "name": "Ibi",
        "what": "city",
        "region": "Taraba",
        "country": "Nigeria",
        "lat": 8.18,
        "long": 9.74,
        "elev ft": 364,
        "pop est": 8642
    },
    {
        "name": "Ibo",
        "what": "city",
        "region": "Taraba",
        "country": "Nigeria",
        "lat": 7.76,
        "long": 9.96,
        "elev ft": 830,
        "pop est": 2638
    },
    {
        "name": "Iboshzen",
        "what": "city",
        "region": "Taraba",
        "country": "Nigeria",
        "lat": 7.59,
        "long": 9.96,
        "elev ft": 830,
        "pop est": 5580
    },
    {
        "name": "Ibrahim",
        "what": "city",
        "region": "Taraba",
        "country": "Nigeria",
        "lat": 7.07,
        "long": 10.67,
        "elev ft": 908,
        "pop est": 4094
    },
    {
        "name": "Ichur",
        "what": "city",
        "region": "Taraba",
        "country": "Nigeria",
        "lat": 7.57,
        "long": 10.24,
        "elev ft": 830,
        "pop est": 4470
    },
    {
        "name": "Igba",
        "what": "city",
        "region": "Taraba",
        "country": "Nigeria",
        "lat": 7.62,
        "long": 9.79,
        "elev ft": 830,
        "pop est": 18920
    },
    {
        "name": "Igbakar",
        "what": "city",
        "region": "Taraba",
        "country": "Nigeria",
        "lat": 7.72,
        "long": 9.79,
        "elev ft": 830,
        "pop est": 6353
    },
    {
        "name": "Igbiandue",
        "what": "city",
        "region": "Taraba",
        "country": "Nigeria",
        "lat": 7.59,
        "long": 10.21,
        "elev ft": 830,
        "pop est": 4470
    },
    {
        "name": "Igbudushana",
        "what": "city",
        "region": "Taraba",
        "country": "Nigeria",
        "lat": 7.85,
        "long": 9.81,
        "elev ft": 830,
        "pop est": 34121
    },
    {
        "name": "Igishe",
        "what": "city",
        "region": "Taraba",
        "country": "Nigeria",
        "lat": 7.94,
        "long": 9.68,
        "elev ft": 830,
        "pop est": 2086
    },
    {
        "name": "Igo",
        "what": "city",
        "region": "Taraba",
        "country": "Nigeria",
        "lat": 7.66,
        "long": 9.77,
        "elev ft": 830,
        "pop est": 18681
    },
    {
        "name": "Igye",
        "what": "city",
        "region": "Taraba",
        "country": "Nigeria",
        "lat": 7.8,
        "long": 9.67,
        "elev ft": 830,
        "pop est": 10175
    },
    {
        "name": "Ihom",
        "what": "city",
        "region": "Taraba",
        "country": "Nigeria",
        "lat": 7.74,
        "long": 10.15,
        "elev ft": 830,
        "pop est": 4470
    },
    {
        "name": "Ihuwe",
        "what": "city",
        "region": "Taraba",
        "country": "Nigeria",
        "lat": 7.88,
        "long": 9.9,
        "elev ft": 830,
        "pop est": 2086
    },
    {
        "name": "Ija",
        "what": "city",
        "region": "Taraba",
        "country": "Nigeria",
        "lat": 7.25,
        "long": 10.17,
        "elev ft": 830,
        "pop est": 7599
    },
    {
        "name": "Ijerbe",
        "what": "city",
        "region": "Taraba",
        "country": "Nigeria",
        "lat": 7.63,
        "long": 10.12,
        "elev ft": 830,
        "pop est": 4470
    },
    {
        "name": "Ijoho",
        "what": "city",
        "region": "Taraba",
        "country": "Nigeria",
        "lat": 7.83,
        "long": 9.27,
        "elev ft": 830,
        "pop est": 3620
    },
    {
        "name": "Ijorbe",
        "what": "city",
        "region": "Taraba",
        "country": "Nigeria",
        "lat": 7.63,
        "long": 10.12,
        "elev ft": 830,
        "pop est": 4470
    },
    {
        "name": "Ikorkyaa",
        "what": "city",
        "region": "Taraba",
        "country": "Nigeria",
        "lat": 7.79,
        "long": 9.68,
        "elev ft": 830,
        "pop est": 10361
    },
    {
        "name": "Ikpaichor",
        "what": "city",
        "region": "Taraba",
        "country": "Nigeria",
        "lat": 7.76,
        "long": 9.96,
        "elev ft": 830,
        "pop est": 2469
    },
    {
        "name": "Ikwe",
        "what": "city",
        "region": "Taraba",
        "country": "Nigeria",
        "lat": 7.74,
        "long": 9.71,
        "elev ft": 830,
        "pop est": 13563
    },
    {
        "name": "Ikwe",
        "what": "city",
        "region": "Taraba",
        "country": "Nigeria",
        "lat": 7.89,
        "long": 9.28,
        "elev ft": 830,
        "pop est": 5039
    },
    {
        "name": "Ikwe",
        "what": "city",
        "region": "Taraba",
        "country": "Nigeria",
        "lat": 7.86,
        "long": 9.92,
        "elev ft": 830,
        "pop est": 2086
    },
    {
        "name": "Ikyaden",
        "what": "city",
        "region": "Taraba",
        "country": "Nigeria",
        "lat": 7.96,
        "long": 9.74,
        "elev ft": 830,
        "pop est": 4240
    },
    {
        "name": "Ikyanyon",
        "what": "city",
        "region": "Taraba",
        "country": "Nigeria",
        "lat": 7.97,
        "long": 9.96,
        "elev ft": 830,
        "pop est": 2086
    },
    {
        "name": "Ikyima",
        "what": "city",
        "region": "Taraba",
        "country": "Nigeria",
        "lat": 7.64,
        "long": 9.9,
        "elev ft": 830,
        "pop est": 3230
    },
    {
        "name": "Ilike",
        "what": "city",
        "region": "Taraba",
        "country": "Nigeria",
        "lat": 7.34,
        "long": 10.02,
        "elev ft": 994,
        "pop est": 7599
    },
    {
        "name": "Ilim",
        "what": "city",
        "region": "Taraba",
        "country": "Nigeria",
        "lat": 7.85,
        "long": 10.26,
        "elev ft": 830,
        "pop est": 4470
    },
    {
        "name": "Ilir",
        "what": "city",
        "region": "Taraba",
        "country": "Nigeria",
        "lat": 7.85,
        "long": 10.26,
        "elev ft": 830,
        "pop est": 4470
    },
    {
        "name": "Imbautsa",
        "what": "city",
        "region": "Taraba",
        "country": "Nigeria",
        "lat": 7.53,
        "long": 10.1,
        "elev ft": 830,
        "pop est": 6917
    },
    {
        "name": "Imongu",
        "what": "city",
        "region": "Taraba",
        "country": "Nigeria",
        "lat": 7.72,
        "long": 9.78,
        "elev ft": 830,
        "pop est": 7394
    },
    {
        "name": "Imoterna",
        "what": "city",
        "region": "Taraba",
        "country": "Nigeria",
        "lat": 7.9,
        "long": 9.43,
        "elev ft": 830,
        "pop est": 2719
    },
    {
        "name": "Ingul",
        "what": "city",
        "region": "Taraba",
        "country": "Nigeria",
        "lat": 7.83,
        "long": 9.7,
        "elev ft": 830,
        "pop est": 2811
    },
    {
        "name": "Ioiya",
        "what": "city",
        "region": "Taraba",
        "country": "Nigeria",
        "lat": 7.83,
        "long": 10.05,
        "elev ft": 830,
        "pop est": 2983
    },
    {
        "name": "Iorpav",
        "what": "city",
        "region": "Taraba",
        "country": "Nigeria",
        "lat": 7.72,
        "long": 9.76,
        "elev ft": 830,
        "pop est": 10724
    },
    {
        "name": "Iorsagher",
        "what": "city",
        "region": "Taraba",
        "country": "Nigeria",
        "lat": 7.76,
        "long": 9.88,
        "elev ft": 830,
        "pop est": 2086
    },
    {
        "name": "Iortema",
        "what": "city",
        "region": "Taraba",
        "country": "Nigeria",
        "lat": 7.94,
        "long": 9.37,
        "elev ft": 383,
        "pop est": 5547
    },
    {
        "name": "Ipwa",
        "what": "city",
        "region": "Taraba",
        "country": "Nigeria",
        "lat": 7.8,
        "long": 9.69,
        "elev ft": 830,
        "pop est": 6783
    },
    {
        "name": "Isa",
        "what": "city",
        "region": "Taraba",
        "country": "Nigeria",
        "lat": 7.32,
        "long": 10.14,
        "elev ft": 830,
        "pop est": 7599
    },
    {
        "name": "Isa",
        "what": "city",
        "region": "Taraba",
        "country": "Nigeria",
        "lat": 7.36,
        "long": 10.04,
        "elev ft": 987,
        "pop est": 7599
    },
    {
        "name": "Isa",
        "what": "city",
        "region": "Taraba",
        "country": "Nigeria",
        "lat": 7.04,
        "long": 10.71,
        "elev ft": 908,
        "pop est": 4081
    },
    {
        "name": "Isember",
        "what": "city",
        "region": "Taraba",
        "country": "Nigeria",
        "lat": 7.46,
        "long": 10.17,
        "elev ft": 830,
        "pop est": 6263
    },
    {
        "name": "Ishegh",
        "what": "city",
        "region": "Taraba",
        "country": "Nigeria",
        "lat": 7.69,
        "long": 9.79,
        "elev ft": 830,
        "pop est": 10259
    },
    {
        "name": "Ishima",
        "what": "city",
        "region": "Taraba",
        "country": "Nigeria",
        "lat": 7.32,
        "long": 10.11,
        "elev ft": 875,
        "pop est": 7599
    },
    {
        "name": "Ishir",
        "what": "city",
        "region": "Taraba",
        "country": "Nigeria",
        "lat": 7.17,
        "long": 10.23,
        "elev ft": 895,
        "pop est": 7010
    },
    {
        "name": "Isho",
        "what": "city",
        "region": "Taraba",
        "country": "Nigeria",
        "lat": 7.82,
        "long": 9.18,
        "elev ft": 830,
        "pop est": 6828
    },
    {
        "name": "Ishor",
        "what": "city",
        "region": "Taraba",
        "country": "Nigeria",
        "lat": 7.93,
        "long": 9.97,
        "elev ft": 830,
        "pop est": 2086
    },
    {
        "name": "Itya",
        "what": "city",
        "region": "Taraba",
        "country": "Nigeria",
        "lat": 7.75,
        "long": 9.71,
        "elev ft": 830,
        "pop est": 13563
    },
    {
        "name": "Ityo",
        "what": "city",
        "region": "Taraba",
        "country": "Nigeria",
        "lat": 7.78,
        "long": 10.16,
        "elev ft": 918,
        "pop est": 4470
    },
    {
        "name": "Ivaase",
        "what": "city",
        "region": "Taraba",
        "country": "Nigeria",
        "lat": 7.67,
        "long": 9.79,
        "elev ft": 830,
        "pop est": 14135
    },
    {
        "name": "Iware",
        "what": "city",
        "region": "Taraba",
        "country": "Nigeria",
        "lat": 8.83,
        "long": 11.11,
        "elev ft": 869,
        "pop est": 6258
    },
    {
        "name": "Iwarnor",
        "what": "city",
        "region": "Taraba",
        "country": "Nigeria",
        "lat": 7.89,
        "long": 10.33,
        "elev ft": 830,
        "pop est": 4470
    },
    {
        "name": "Iyabanu",
        "what": "city",
        "region": "Taraba",
        "country": "Nigeria",
        "lat": 8.67,
        "long": 11.26,
        "elev ft": 980,
        "pop est": 6258
    },
    {
        "name": "Iyali Dankulung",
        "what": "city",
        "region": "Taraba",
        "country": "Nigeria",
        "lat": 8.93,
        "long": 11.48,
        "elev ft": 2001,
        "pop est": 3874
    },
    {
        "name": "Iyorbee",
        "what": "city",
        "region": "Taraba",
        "country": "Nigeria",
        "lat": 7.81,
        "long": 9.72,
        "elev ft": 830,
        "pop est": 3828
    },
    {
        "name": "Iyorbume",
        "what": "city",
        "region": "Taraba",
        "country": "Nigeria",
        "lat": 7.63,
        "long": 9.89,
        "elev ft": 830,
        "pop est": 4552
    },
    {
        "name": "Iyorja",
        "what": "city",
        "region": "Taraba",
        "country": "Nigeria",
        "lat": 7.84,
        "long": 9.35,
        "elev ft": 830,
        "pop est": 2662
    },
    {
        "name": "Iyorkuu",
        "what": "city",
        "region": "Taraba",
        "country": "Nigeria",
        "lat": 7.34,
        "long": 10.19,
        "elev ft": 830,
        "pop est": 7521
    },
    {
        "name": "Iyornem",
        "what": "city",
        "region": "Taraba",
        "country": "Nigeria",
        "lat": 7.79,
        "long": 9.98,
        "elev ft": 830,
        "pop est": 2534
    },
    {
        "name": "Iyorngaem",
        "what": "city",
        "region": "Taraba",
        "country": "Nigeria",
        "lat": 7.49,
        "long": 10.02,
        "elev ft": 830,
        "pop est": 7599
    },
    {
        "name": "Iyorshaagher",
        "what": "city",
        "region": "Taraba",
        "country": "Nigeria",
        "lat": 7.81,
        "long": 9.98,
        "elev ft": 830,
        "pop est": 2320
    },
    {
        "name": "Iyorshgen",
        "what": "city",
        "region": "Taraba",
        "country": "Nigeria",
        "lat": 7.95,
        "long": 9.77,
        "elev ft": 830,
        "pop est": 17068
    },
    {
        "name": "Iyortsu",
        "what": "city",
        "region": "Taraba",
        "country": "Nigeria",
        "lat": 7.38,
        "long": 10.23,
        "elev ft": 830,
        "pop est": 5842
    },
    {
        "name": "Iyortyom",
        "what": "city",
        "region": "Taraba",
        "country": "Nigeria",
        "lat": 7.74,
        "long": 9.75,
        "elev ft": 830,
        "pop est": 7857
    },
    {
        "name": "Iyortyom",
        "what": "city",
        "region": "Taraba",
        "country": "Nigeria",
        "lat": 7.77,
        "long": 9.69,
        "elev ft": 830,
        "pop est": 10722
    },
    {
        "name": "Iyorver",
        "what": "city",
        "region": "Taraba",
        "country": "Nigeria",
        "lat": 7.42,
        "long": 10.28,
        "elev ft": 830,
        "pop est": 4470
    },
    {
        "name": "Iyorzaa",
        "what": "city",
        "region": "Taraba",
        "country": "Nigeria",
        "lat": 7.77,
        "long": 9.99,
        "elev ft": 830,
        "pop est": 2921
    },
    {
        "name": "Jabansi",
        "what": "city",
        "region": "Taraba",
        "country": "Nigeria",
        "lat": 8.93,
        "long": 11.76,
        "elev ft": 1935,
        "pop est": 12218
    },
    {
        "name": "Jada",
        "what": "city",
        "region": "Taraba",
        "country": "Nigeria",
        "lat": 7.09,
        "long": 10.81,
        "elev ft": 1669,
        "pop est": 3874
    },
    {
        "name": "Jadubu",
        "what": "city",
        "region": "Taraba",
        "country": "Nigeria",
        "lat": 8.95,
        "long": 11.84,
        "elev ft": 1938,
        "pop est": 12140
    },
    {
        "name": "Jahuna",
        "what": "city",
        "region": "Taraba",
        "country": "Nigeria",
        "lat": 8.17,
        "long": 10.15,
        "elev ft": 830,
        "pop est": 2086
    },
    {
        "name": "Jakoro",
        "what": "city",
        "region": "Taraba",
        "country": "Nigeria",
        "lat": 8.81,
        "long": 11.65,
        "elev ft": 2509,
        "pop est": 9398
    },
    {
        "name": "Jalingo",
        "what": "city",
        "region": "Taraba",
        "country": "Nigeria",
        "lat": 8.89,
        "long": 11.36,
        "elev ft": 1141,
        "pop est": 53913
    },
    {
        "name": "Jalo",
        "what": "city",
        "region": "Taraba",
        "country": "Nigeria",
        "lat": 7.95,
        "long": 10.38,
        "elev ft": 830,
        "pop est": 3994
    },
    {
        "name": "Jam",
        "what": "city",
        "region": "Taraba",
        "country": "Nigeria",
        "lat": 7.47,
        "long": 10.1,
        "elev ft": 830,
        "pop est": 7595
    },
    {
        "name": "Jamiri",
        "what": "city",
        "region": "Taraba",
        "country": "Nigeria",
        "lat": 7.85,
        "long": 10.99,
        "elev ft": 830,
        "pop est": 3125
    },
    {
        "name": "Janbargu",
        "what": "city",
        "region": "Taraba",
        "country": "Nigeria",
        "lat": 8.93,
        "long": 11.3,
        "elev ft": 1046,
        "pop est": 6006
    },
    {
        "name": "Jangare",
        "what": "city",
        "region": "Taraba",
        "country": "Nigeria",
        "lat": 8.53,
        "long": 11.49,
        "elev ft": 1669,
        "pop est": 3577
    },
    {
        "name": "Jankunvo",
        "what": "city",
        "region": "Taraba",
        "country": "Nigeria",
        "lat": 8.94,
        "long": 11.28,
        "elev ft": 1013,
        "pop est": 6254
    },
    {
        "name": "Jara",
        "what": "city",
        "region": "Taraba",
        "country": "Nigeria",
        "lat": 8.95,
        "long": 11.25,
        "elev ft": 1000,
        "pop est": 7134
    },
    {
        "name": "Jasa",
        "what": "city",
        "region": "Taraba",
        "country": "Nigeria",
        "lat": 8.85,
        "long": 11.42,
        "elev ft": 1669,
        "pop est": 13437
    },
    {
        "name": "Jasori",
        "what": "city",
        "region": "Taraba",
        "country": "Nigeria",
        "lat": 8.92,
        "long": 11.73,
        "elev ft": 1922,
        "pop est": 12218
    },
    {
        "name": "Jasori",
        "what": "city",
        "region": "Taraba",
        "country": "Nigeria",
        "lat": 8.97,
        "long": 11.64,
        "elev ft": 1774,
        "pop est": 10412
    },
    {
        "name": "Jatan Imo",
        "what": "city",
        "region": "Taraba",
        "country": "Nigeria",
        "lat": 7.86,
        "long": 10.63,
        "elev ft": 830,
        "pop est": 3576
    },
    {
        "name": "Jatau",
        "what": "city",
        "region": "Taraba",
        "country": "Nigeria",
        "lat": 7.72,
        "long": 10.39,
        "elev ft": 830,
        "pop est": 3966
    },
    {
        "name": "Jatau",
        "what": "city",
        "region": "Taraba",
        "country": "Nigeria",
        "lat": 8.72,
        "long": 11.25,
        "elev ft": 938,
        "pop est": 6258
    },
    {
        "name": "Jatau",
        "what": "city",
        "region": "Taraba",
        "country": "Nigeria",
        "lat": 8.64,
        "long": 11.3,
        "elev ft": 997,
        "pop est": 6258
    },
    {
        "name": "Jatau",
        "what": "city",
        "region": "Taraba",
        "country": "Nigeria",
        "lat": 7.84,
        "long": 10.61,
        "elev ft": 830,
        "pop est": 3576
    },
    {
        "name": "Jatau Tiv",
        "what": "city",
        "region": "Taraba",
        "country": "Nigeria",
        "lat": 7.84,
        "long": 10.61,
        "elev ft": 830,
        "pop est": 3576
    },
    {
        "name": "Jato",
        "what": "city",
        "region": "Taraba",
        "country": "Nigeria",
        "lat": 7.6,
        "long": 9.95,
        "elev ft": 830,
        "pop est": 5284
    },
    {
        "name": "Jato",
        "what": "city",
        "region": "Taraba",
        "country": "Nigeria",
        "lat": 7.91,
        "long": 9.51,
        "elev ft": 830,
        "pop est": 2086
    },
    {
        "name": "Jatou",
        "what": "city",
        "region": "Taraba",
        "country": "Nigeria",
        "lat": 7.17,
        "long": 10.98,
        "elev ft": 4189,
        "pop est": 3874
    },
    {
        "name": "Jatou",
        "what": "city",
        "region": "Taraba",
        "country": "Nigeria",
        "lat": 7.82,
        "long": 10.01,
        "elev ft": 830,
        "pop est": 2464
    },
    {
        "name": "Jatu",
        "what": "city",
        "region": "Taraba",
        "country": "Nigeria",
        "lat": 8.98,
        "long": 11.38,
        "elev ft": 1784,
        "pop est": 3874
    },
    {
        "name": "Jaturu",
        "what": "city",
        "region": "Taraba",
        "country": "Nigeria",
        "lat": 8.86,
        "long": 11.88,
        "elev ft": 1738,
        "pop est": 12163
    },
    {
        "name": "Jauro Abba",
        "what": "city",
        "region": "Taraba",
        "country": "Nigeria",
        "lat": 8.62,
        "long": 11.23,
        "elev ft": 1003,
        "pop est": 6258
    },
    {
        "name": "Jauro Abba",
        "what": "city",
        "region": "Taraba",
        "country": "Nigeria",
        "lat": 8.81,
        "long": 11.28,
        "elev ft": 980,
        "pop est": 6258
    },
    {
        "name": "Jauro Abba",
        "what": "city",
        "region": "Taraba",
        "country": "Nigeria",
        "lat": 8.75,
        "long": 11.22,
        "elev ft": 905,
        "pop est": 6258
    },
    {
        "name": "Jauro Abbi",
        "what": "city",
        "region": "Taraba",
        "country": "Nigeria",
        "lat": 8.81,
        "long": 11.26,
        "elev ft": 921,
        "pop est": 6258
    },
    {
        "name": "Jauro Abi",
        "what": "city",
        "region": "Taraba",
        "country": "Nigeria",
        "lat": 8.88,
        "long": 11.22,
        "elev ft": 912,
        "pop est": 6258
    },
    {
        "name": "Jauro Adamu",
        "what": "city",
        "region": "Taraba",
        "country": "Nigeria",
        "lat": 8.81,
        "long": 11.33,
        "elev ft": 1000,
        "pop est": 6258
    },
    {
        "name": "Jauro Adamu",
        "what": "city",
        "region": "Taraba",
        "country": "Nigeria",
        "lat": 8.63,
        "long": 11.25,
        "elev ft": 1043,
        "pop est": 6258
    },
    {
        "name": "Jauro Ahmadu",
        "what": "city",
        "region": "Taraba",
        "country": "Nigeria",
        "lat": 7.91,
        "long": 10.4,
        "elev ft": 830,
        "pop est": 3974
    },
    {
        "name": "Jauro Awa",
        "what": "city",
        "region": "Taraba",
        "country": "Nigeria",
        "lat": 8.62,
        "long": 11.24,
        "elev ft": 1043,
        "pop est": 6258
    },
    {
        "name": "Jauro Awai",
        "what": "city",
        "region": "Taraba",
        "country": "Nigeria",
        "lat": 8.98,
        "long": 11.23,
        "elev ft": 958,
        "pop est": 7932
    },
    {
        "name": "Jauro Ba Nasarawo",
        "what": "city",
        "region": "Taraba",
        "country": "Nigeria",
        "lat": 8.88,
        "long": 11.82,
        "elev ft": 1761,
        "pop est": 12218
    },
    {
        "name": "Jauro Bakari",
        "what": "city",
        "region": "Taraba",
        "country": "Nigeria",
        "lat": 8.84,
        "long": 11.4,
        "elev ft": 1190,
        "pop est": 42661
    },
    {
        "name": "Jauro Bamvo",
        "what": "city",
        "region": "Taraba",
        "country": "Nigeria",
        "lat": 8.9,
        "long": 11.32,
        "elev ft": 1056,
        "pop est": 54681
    },
    {
        "name": "Jauro Bisa",
        "what": "city",
        "region": "Taraba",
        "country": "Nigeria",
        "lat": 8.99,
        "long": 11.4,
        "elev ft": 1981,
        "pop est": 3874
    },
    {
        "name": "Jauro Bose",
        "what": "city",
        "region": "Taraba",
        "country": "Nigeria",
        "lat": 8.83,
        "long": 11.3,
        "elev ft": 997,
        "pop est": 6258
    },
    {
        "name": "Jauro Dampu",
        "what": "city",
        "region": "Taraba",
        "country": "Nigeria",
        "lat": 8.88,
        "long": 11.16,
        "elev ft": 830,
        "pop est": 6258
    },
    {
        "name": "Jauro Dankum",
        "what": "city",
        "region": "Taraba",
        "country": "Nigeria",
        "lat": 8.84,
        "long": 11.49,
        "elev ft": 1669,
        "pop est": 3874
    },
    {
        "name": "Jauro Danwei",
        "what": "city",
        "region": "Taraba",
        "country": "Nigeria",
        "lat": 8.83,
        "long": 11.29,
        "elev ft": 997,
        "pop est": 6258
    },
    {
        "name": "Jauro Dogo",
        "what": "city",
        "region": "Taraba",
        "country": "Nigeria",
        "lat": 8.74,
        "long": 11.25,
        "elev ft": 954,
        "pop est": 6258
    },
    {
        "name": "Jauro Dori",
        "what": "city",
        "region": "Taraba",
        "country": "Nigeria",
        "lat": 8.83,
        "long": 11.21,
        "elev ft": 938,
        "pop est": 6258
    },
    {
        "name": "Jauro Dua",
        "what": "city",
        "region": "Taraba",
        "country": "Nigeria",
        "lat": 8.86,
        "long": 11.15,
        "elev ft": 830,
        "pop est": 6258
    },
    {
        "name": "Jauro Duvo",
        "what": "city",
        "region": "Taraba",
        "country": "Nigeria",
        "lat": 8.74,
        "long": 11.24,
        "elev ft": 928,
        "pop est": 6258
    },
    {
        "name": "Jauro Garmaho",
        "what": "city",
        "region": "Taraba",
        "country": "Nigeria",
        "lat": 8.97,
        "long": 11.41,
        "elev ft": 1669,
        "pop est": 3874
    },
    {
        "name": "Jauro Gotel",
        "what": "city",
        "region": "Taraba",
        "country": "Nigeria",
        "lat": 8.98,
        "long": 10.86,
        "elev ft": 830,
        "pop est": 4023
    },
    {
        "name": "Jauro Jalo",
        "what": "city",
        "region": "Taraba",
        "country": "Nigeria",
        "lat": 8.82,
        "long": 11.29,
        "elev ft": 997,
        "pop est": 6258
    },
    {
        "name": "Jauro Javo",
        "what": "city",
        "region": "Taraba",
        "country": "Nigeria",
        "lat": 8.82,
        "long": 11.23,
        "elev ft": 875,
        "pop est": 6258
    },
    {
        "name": "Jauro Jivunu",
        "what": "city",
        "region": "Taraba",
        "country": "Nigeria",
        "lat": 8.94,
        "long": 11.12,
        "elev ft": 830,
        "pop est": 6292
    },
    {
        "name": "Jauro Kanze",
        "what": "city",
        "region": "Taraba",
        "country": "Nigeria",
        "lat": 8.89,
        "long": 11.17,
        "elev ft": 830,
        "pop est": 6258
    },
    {
        "name": "Jauro Kari",
        "what": "city",
        "region": "Taraba",
        "country": "Nigeria",
        "lat": 8.86,
        "long": 11.18,
        "elev ft": 830,
        "pop est": 6258
    },
    {
        "name": "Jauro Kashi",
        "what": "city",
        "region": "Taraba",
        "country": "Nigeria",
        "lat": 8.7,
        "long": 11.3,
        "elev ft": 961,
        "pop est": 6258
    },
    {
        "name": "Jauro Konkan",
        "what": "city",
        "region": "Taraba",
        "country": "Nigeria",
        "lat": 8.98,
        "long": 11.23,
        "elev ft": 967,
        "pop est": 7932
    },
    {
        "name": "Jauro Koto",
        "what": "city",
        "region": "Taraba",
        "country": "Nigeria",
        "lat": 8.89,
        "long": 11.2,
        "elev ft": 830,
        "pop est": 6258
    },
    {
        "name": "Jauro Kurungu",
        "what": "city",
        "region": "Taraba",
        "country": "Nigeria",
        "lat": 8.74,
        "long": 11.05,
        "elev ft": 830,
        "pop est": 6258
    },
    {
        "name": "Jauro Kusin",
        "what": "city",
        "region": "Taraba",
        "country": "Nigeria",
        "lat": 8.9,
        "long": 11.41,
        "elev ft": 1669,
        "pop est": 40542
    },
    {
        "name": "Jauro Kusin",
        "what": "city",
        "region": "Taraba",
        "country": "Nigeria",
        "lat": 8.77,
        "long": 11.3,
        "elev ft": 951,
        "pop est": 6258
    },
    {
        "name": "Jauro Kutumba",
        "what": "city",
        "region": "Taraba",
        "country": "Nigeria",
        "lat": 8.69,
        "long": 11.31,
        "elev ft": 967,
        "pop est": 6258
    },
    {
        "name": "Jauro Ladde",
        "what": "city",
        "region": "Taraba",
        "country": "Nigeria",
        "lat": 8.8,
        "long": 11.37,
        "elev ft": 1003,
        "pop est": 5947
    },
    {
        "name": "Jauro Lawan",
        "what": "city",
        "region": "Taraba",
        "country": "Nigeria",
        "lat": 8.54,
        "long": 11.16,
        "elev ft": 849,
        "pop est": 4565
    },
    {
        "name": "Jauro Mabi",
        "what": "city",
        "region": "Taraba",
        "country": "Nigeria",
        "lat": 8.77,
        "long": 11.09,
        "elev ft": 875,
        "pop est": 6258
    },
    {
        "name": "Jauro Mading",
        "what": "city",
        "region": "Taraba",
        "country": "Nigeria",
        "lat": 8.76,
        "long": 11.19,
        "elev ft": 895,
        "pop est": 6258
    },
    {
        "name": "Jauro Magu",
        "what": "city",
        "region": "Taraba",
        "country": "Nigeria",
        "lat": 8.91,
        "long": 11.43,
        "elev ft": 1669,
        "pop est": 3874
    },
    {
        "name": "Jauro Maje",
        "what": "city",
        "region": "Taraba",
        "country": "Nigeria",
        "lat": 8.76,
        "long": 11.38,
        "elev ft": 1033,
        "pop est": 6222
    },
    {
        "name": "Jauro Majo",
        "what": "city",
        "region": "Taraba",
        "country": "Nigeria",
        "lat": 8.71,
        "long": 11.25,
        "elev ft": 944,
        "pop est": 6258
    },
    {
        "name": "Jauro Majo Bazim",
        "what": "city",
        "region": "Taraba",
        "country": "Nigeria",
        "lat": 8.83,
        "long": 11.19,
        "elev ft": 1076,
        "pop est": 6258
    },
    {
        "name": "Jauro Mani Nzebe",
        "what": "city",
        "region": "Taraba",
        "country": "Nigeria",
        "lat": 8.9,
        "long": 11.64,
        "elev ft": 1669,
        "pop est": 11490
    },
    {
        "name": "Jauro Manu",
        "what": "city",
        "region": "Taraba",
        "country": "Nigeria",
        "lat": 8.81,
        "long": 11.37,
        "elev ft": 1033,
        "pop est": 5857
    },
    {
        "name": "Jauro Manu",
        "what": "city",
        "region": "Taraba",
        "country": "Nigeria",
        "lat": 8.57,
        "long": 10.96,
        "elev ft": 830,
        "pop est": 3576
    },
    {
        "name": "Jauro Mashi",
        "what": "city",
        "region": "Taraba",
        "country": "Nigeria",
        "lat": 8.73,
        "long": 11.2,
        "elev ft": 902,
        "pop est": 6258
    },
    {
        "name": "Jauro Mashi",
        "what": "city",
        "region": "Taraba",
        "country": "Nigeria",
        "lat": 8.68,
        "long": 11.3,
        "elev ft": 971,
        "pop est": 6258
    },
    {
        "name": "Jauro Mashi",
        "what": "city",
        "region": "Taraba",
        "country": "Nigeria",
        "lat": 8.98,
        "long": 11.4,
        "elev ft": 1879,
        "pop est": 3874
    },
    {
        "name": "Jauro Mashi",
        "what": "city",
        "region": "Taraba",
        "country": "Nigeria",
        "lat": 8.72,
        "long": 11.24,
        "elev ft": 921,
        "pop est": 6258
    },
    {
        "name": "Jauro Mawa",
        "what": "city",
        "region": "Taraba",
        "country": "Nigeria",
        "lat": 8.73,
        "long": 11.36,
        "elev ft": 980,
        "pop est": 6258
    },
    {
        "name": "Jauro Maya",
        "what": "city",
        "region": "Taraba",
        "country": "Nigeria",
        "lat": 8.69,
        "long": 11.28,
        "elev ft": 971,
        "pop est": 6258
    },
    {
        "name": "Jauro Mazan",
        "what": "city",
        "region": "Taraba",
        "country": "Nigeria",
        "lat": 8.76,
        "long": 11.2,
        "elev ft": 892,
        "pop est": 6258
    },
    {
        "name": "Jauro Miya",
        "what": "city",
        "region": "Taraba",
        "country": "Nigeria",
        "lat": 8.91,
        "long": 11.32,
        "elev ft": 1056,
        "pop est": 45378
    },
    {
        "name": "Jauro Namsu",
        "what": "city",
        "region": "Taraba",
        "country": "Nigeria",
        "lat": 8.94,
        "long": 11.19,
        "elev ft": 846,
        "pop est": 6482
    },
    {
        "name": "Jauro Noko",
        "what": "city",
        "region": "Taraba",
        "country": "Nigeria",
        "lat": 8.97,
        "long": 11.27,
        "elev ft": 994,
        "pop est": 6971
    },
    {
        "name": "Jauro Nubin",
        "what": "city",
        "region": "Taraba",
        "country": "Nigeria",
        "lat": 8.94,
        "long": 11.27,
        "elev ft": 984,
        "pop est": 6789
    },
    {
        "name": "Jauro Nyama",
        "what": "city",
        "region": "Taraba",
        "country": "Nigeria",
        "lat": 8.74,
        "long": 11.23,
        "elev ft": 912,
        "pop est": 6258
    },
    {
        "name": "Jauro Nyambu",
        "what": "city",
        "region": "Taraba",
        "country": "Nigeria",
        "lat": 8.86,
        "long": 11.17,
        "elev ft": 830,
        "pop est": 6258
    },